{"annotatable":{"parts":["s1v1","s2v1","s3v1","s4v1","s5v1","s6v1","s7v1","s8v1","s9v1","s10v1","s11v1","s12v1","s13v1","s14v1","s15v1","s16v1","s17v1","s18v1","s19v1","s20v1","s21v1","s22v1","s23v1","s24v1","s25v1","s26v1","s27v1","s28v1","s29v1","s30v1","s31v1","s32v1","s33v1","s34v1"]},"anncomplete":true,"sources":[],"metas":{"m_14":{"value":true,"confidence":{"state":"pre-added","who":["user:ICTAR"],"prob":1}},"m_16":{"value":"South Victoria Land","confidence":{"state":"pre-added","who":["user:ICTAR"],"prob":1}},"m_76":{"value":true,"confidence":{"state":"pre-added","who":["user:charlesklee"],"prob":1}}},"entities":[{"classId":"e_47","part":"s1v1","offsets":[{"start":1441,"text":"Analyses of algal cover and biomass (chlorophyll a )  show that substrate type and flow rates are of greater importance than nutrients in influencing algal abundance and biomass."}],"coordinates":[{"x":"330.20","y":"340.35"},{"x":"280.00","y":"365.19"}],"confidence":{"state":"pre-added","who":["user:ICTAR"],"prob":1},"fields":{},"normalizations":{}},{"classId":"e_4","part":"s1v1","offsets":[{"start":1911,"text":"Adams Stream"}],"coordinates":[],"confidence":{"state":"pre-added","who":["ml:dpeker"],"prob":0.9416},"fields":{},"normalizations":{"n_34":{"source":{"name":"GeoNamesSCAR","id":"112601","url":null},"recName":"Adams Stream","confidence":{"state":"pre-added","who":["ml:dpeker"],"prob":0.9416}}}},{"classId":"e_4","part":"s1v1","offsets":[{"start":2416,"text":"Onyx River"}],"coordinates":[],"confidence":{"state":"pre-added","who":["ml:dpeker"],"prob":0.9266},"fields":{},"normalizations":{"n_34":{"source":{"name":"GeoNamesSCAR","id":"129676","url":null},"recName":"Onyx River","confidence":{"state":"pre-added","who":["ml:dpeker"],"prob":0.9266}}}},{"classId":"e_4","part":"s2v1","offsets":[{"start":1470,"text":"McMurdo Sound"}],"coordinates":[],"confidence":{"state":"pre-added","who":["ml:dpeker"],"prob":0.9472},"fields":{},"normalizations":{"n_34":{"source":{"name":"GeoNamesSCAR","id":"128724","url":null},"recName":"McMurdo Sound","confidence":{"state":"pre-added","who":["ml:dpeker"],"prob":0.9472}}}},{"classId":"e_4","part":"s2v1","offsets":[{"start":3005,"text":"Onyx River"}],"coordinates":[],"confidence":{"state":"pre-added","who":["ml:dpeker"],"prob":0.9266},"fields":{},"normalizations":{"n_34":{"source":{"name":"GeoNamesSCAR","id":"129676","url":null},"recName":"Onyx River","confidence":{"state":"pre-added","who":["ml:dpeker"],"prob":0.9266}}}},{"classId":"e_4","part":"s3v1","offsets":[{"start":277,"text":"Ross Island"}],"coordinates":[],"confidence":{"state":"pre-added","who":["ml:dpeker"],"prob":0.9349},"fields":{},"normalizations":{"n_34":{"source":{"name":"GeoNamesSCAR","id":"130958","url":null},"recName":"Ross Island","confidence":{"state":"pre-added","who":["ml:dpeker"],"prob":0.9349}}}},{"classId":"e_4","part":"s3v1","offsets":[{"start":331,"text":"McMurdo Sound"}],"coordinates":[],"confidence":{"state":"pre-added","who":["ml:dpeker"],"prob":0.9472},"fields":{},"normalizations":{"n_34":{"source":{"name":"GeoNamesSCAR","id":"128724","url":null},"recName":"McMurdo Sound","confidence":{"state":"pre-added","who":["ml:dpeker"],"prob":0.9472}}}},{"classId":"e_4","part":"s3v1","offsets":[{"start":445,"text":"Adams Stream"}],"coordinates":[],"confidence":{"state":"pre-added","who":["ml:dpeker"],"prob":0.9416},"fields":{},"normalizations":{"n_34":{"source":{"name":"GeoNamesSCAR","id":"112601","url":null},"recName":"Adams Stream","confidence":{"state":"pre-added","who":["ml:dpeker"],"prob":0.9416}}}},{"classId":"e_4","part":"s3v1","offsets":[{"start":504,"text":"Onyx River"}],"coordinates":[],"confidence":{"state":"pre-added","who":["ml:dpeker"],"prob":0.9266},"fields":{},"normalizations":{"n_34":{"source":{"name":"GeoNamesSCAR","id":"129676","url":null},"recName":"Onyx River","confidence":{"state":"pre-added","who":["ml:dpeker"],"prob":0.9266}}}},{"classId":"e_4","part":"s3v1","offsets":[{"start":684,"text":"Cape Bird"}],"coordinates":[],"confidence":{"state":"pre-added","who":["ml:dpeker"],"prob":0.9163},"fields":{},"normalizations":{"n_34":{"source":{"name":"GeoNamesSCAR","id":"122545","url":null},"recName":"Bird, Cape","confidence":{"state":"pre-added","who":["ml:dpeker"],"prob":0.9163}}}},{"classId":"e_4","part":"s3v1","offsets":[{"start":696,"text":"Adams Stream"}],"coordinates":[],"confidence":{"state":"pre-added","who":["ml:dpeker"],"prob":0.9416},"fields":{},"normalizations":{"n_34":{"source":{"name":"GeoNamesSCAR","id":"112601","url":null},"recName":"Adams Stream","confidence":{"state":"pre-added","who":["ml:dpeker"],"prob":0.9416}}}},{"classId":"e_4","part":"s3v1","offsets":[{"start":710,"text":"Miers Valley"}],"coordinates":[],"confidence":{"state":"pre-added","who":["ml:dpeker"],"prob":0.9416},"fields":{},"normalizations":{"n_34":{"source":{"name":"GeoNamesSCAR","id":"128868","url":null},"recName":"Miers Valley","confidence":{"state":"pre-added","who":["ml:dpeker"],"prob":0.9416}}}},{"classId":"e_4","part":"s3v1","offsets":[{"start":748,"text":"Taylor Valley"}],"coordinates":[],"confidence":{"state":"pre-added","who":["ml:dpeker"],"prob":0.9472},"fields":{},"normalizations":{"n_34":{"source":{"name":"GeoNamesSCAR","id":"132512","url":null},"recName":"Taylor Valley","confidence":{"state":"pre-added","who":["ml:dpeker"],"prob":0.9472}}}},{"classId":"e_4","part":"s3v1","offsets":[{"start":780,"text":"Taylor Valley"}],"coordinates":[],"confidence":{"state":"pre-added","who":["ml:dpeker"],"prob":0.9472},"fields":{},"normalizations":{"n_34":{"source":{"name":"GeoNamesSCAR","id":"132512","url":null},"recName":"Taylor Valley","confidence":{"state":"pre-added","who":["ml:dpeker"],"prob":0.9472}}}},{"classId":"e_4","part":"s3v1","offsets":[{"start":797,"text":"Onyx River"}],"coordinates":[],"confidence":{"state":"pre-added","who":["ml:dpeker"],"prob":0.9266},"fields":{},"normalizations":{"n_34":{"source":{"name":"GeoNamesSCAR","id":"129676","url":null},"recName":"Onyx River","confidence":{"state":"pre-added","who":["ml:dpeker"],"prob":0.9266}}}},{"classId":"e_4","part":"s3v1","offsets":[{"start":809,"text":"Wright Valley"}],"coordinates":[],"confidence":{"state":"pre-added","who":["ml:dpeker"],"prob":0.9472},"fields":{},"normalizations":{"n_34":{"source":{"name":"GeoNamesSCAR","id":"133876","url":null},"recName":"Wright Valley","confidence":{"state":"pre-added","who":["ml:dpeker"],"prob":0.9472}}}},{"classId":"e_4","part":"s4v1","offsets":[{"start":74,"text":"McMurdo Sound"}],"coordinates":[],"confidence":{"state":"pre-added","who":["ml:dpeker"],"prob":0.9472},"fields":{},"normalizations":{"n_34":{"source":{"name":"GeoNamesSCAR","id":"128724","url":null},"recName":"McMurdo Sound","confidence":{"state":"pre-added","who":["ml:dpeker"],"prob":0.9472}}}},{"classId":"e_4","part":"s4v1","offsets":[{"start":252,"text":"Cape Bird"}],"coordinates":[],"confidence":{"state":"pre-added","who":["ml:dpeker"],"prob":0.9163},"fields":{},"normalizations":{"n_34":{"source":{"name":"GeoNamesSCAR","id":"122545","url":null},"recName":"Bird, Cape","confidence":{"state":"pre-added","who":["ml:dpeker"],"prob":0.9163}}}},{"classId":"e_4","part":"s4v1","offsets":[{"start":289,"text":"Wright Valley"}],"coordinates":[],"confidence":{"state":"pre-added","who":["ml:dpeker"],"prob":0.9472},"fields":{},"normalizations":{"n_34":{"source":{"name":"GeoNamesSCAR","id":"133876","url":null},"recName":"Wright Valley","confidence":{"state":"pre-added","who":["ml:dpeker"],"prob":0.9472}}}},{"classId":"e_4","part":"s4v1","offsets":[{"start":589,"text":"Lake Miers"}],"coordinates":[],"confidence":{"state":"pre-added","who":["ml:dpeker"],"prob":0.9266},"fields":{},"normalizations":{"n_34":{"source":{"name":"GeoNamesSCAR","id":"128869","url":null},"recName":"Miers, Lake","confidence":{"state":"pre-added","who":["ml:dpeker"],"prob":0.9266}}}},{"classId":"e_4","part":"s4v1","offsets":[{"start":1110,"text":"Bull pass\n\n#"}],"coordinates":[],"confidence":{"state":"pre-added","who":["ml:dpeker"],"prob":0.6758},"fields":{},"normalizations":{"n_34":{"source":{"name":"GeoNamesSCAR","id":"123076","url":null},"recName":"Bull Pass","confidence":{"state":"pre-added","who":["ml:dpeker"],"prob":0.6758}}}},{"classId":"e_4","part":"s4v1","offsets":[{"start":1325,"text":"Cape Bird"}],"coordinates":[],"confidence":{"state":"pre-added","who":["ml:dpeker"],"prob":0.9163},"fields":{},"normalizations":{"n_34":{"source":{"name":"GeoNamesSCAR","id":"122545","url":null},"recName":"Bird, Cape","confidence":{"state":"pre-added","who":["ml:dpeker"],"prob":0.9163}}}},{"classId":"e_4","part":"s4v1","offsets":[{"start":1849,"text":"Adams Stream"}],"coordinates":[],"confidence":{"state":"pre-added","who":["ml:dpeker"],"prob":0.9416},"fields":{},"normalizations":{"n_34":{"source":{"name":"GeoNamesSCAR","id":"112601","url":null},"recName":"Adams Stream","confidence":{"state":"pre-added","who":["ml:dpeker"],"prob":0.9416}}}},{"classId":"e_4","part":"s4v1","offsets":[{"start":1986,"text":"Lake Miers"}],"coordinates":[],"confidence":{"state":"pre-added","who":["ml:dpeker"],"prob":0.9266},"fields":{},"normalizations":{"n_34":{"source":{"name":"GeoNamesSCAR","id":"128869","url":null},"recName":"Miers, Lake","confidence":{"state":"pre-added","who":["ml:dpeker"],"prob":0.9266}}}},{"classId":"e_4","part":"s4v1","offsets":[{"start":2013,"text":"Miers Valley"}],"coordinates":[],"confidence":{"state":"pre-added","who":["ml:dpeker"],"prob":0.9416},"fields":{},"normalizations":{"n_34":{"source":{"name":"GeoNamesSCAR","id":"128868","url":null},"recName":"Miers Valley","confidence":{"state":"pre-added","who":["ml:dpeker"],"prob":0.9416}}}},{"classId":"e_4","part":"s4v1","offsets":[{"start":2165,"text":"Miers stream"}],"coordinates":[],"confidence":{"state":"pre-added","who":["ml:dpeker"],"prob":0.9024},"fields":{},"normalizations":{"n_34":{"source":{"name":"GeoNamesSCAR","id":"128867","url":null},"recName":"Miers Stream","confidence":{"state":"pre-added","who":["ml:dpeker"],"prob":0.9024}}}},{"classId":"e_4","part":"s5v1","offsets":[{"start":22,"text":"ADAMS STREAM"}],"coordinates":[],"confidence":{"state":"pre-added","who":["ml:dpeker"],"prob":0.5885},"fields":{},"normalizations":{"n_34":{"source":{"name":"GeoNamesSCAR","id":"112601","url":null},"recName":"Adams Stream","confidence":{"state":"pre-added","who":["ml:dpeker"],"prob":0.5885}}}},{"classId":"e_4","part":"s5v1","offsets":[{"start":174,"text":"ONYX RIVER"}],"coordinates":[],"confidence":{"state":"pre-added","who":["ml:dpeker"],"prob":0.6023},"fields":{},"normalizations":{"n_34":{"source":{"name":"GeoNamesSCAR","id":"129676","url":null},"recName":"Onyx River","confidence":{"state":"pre-added","who":["ml:dpeker"],"prob":0.6023}}}},{"classId":"e_4","part":"s6v1","offsets":[{"start":329,"text":"Adams Glacier"}],"coordinates":[],"confidence":{"state":"pre-added","who":["ml:dpeker"],"prob":0.9472},"fields":{},"normalizations":{"n_34":{"source":{"name":"GeoNamesSCAR","id":"121576","url":null},"recName":"Adams Glacier","confidence":{"state":"pre-added","who":["ml:dpeker"],"prob":0.9472}}}},{"classId":"e_4","part":"s6v1","offsets":[{"start":363,"text":"Lake Miers"}],"coordinates":[],"confidence":{"state":"pre-added","who":["ml:dpeker"],"prob":0.9266},"fields":{},"normalizations":{"n_34":{"source":{"name":"GeoNamesSCAR","id":"128869","url":null},"recName":"Miers, Lake","confidence":{"state":"pre-added","who":["ml:dpeker"],"prob":0.9266}}}},{"classId":"e_4","part":"s7v1","offsets":[{"start":44,"text":"Onyx River"}],"coordinates":[],"confidence":{"state":"pre-added","who":["ml:dpeker"],"prob":0.9266},"fields":{},"normalizations":{"n_34":{"source":{"name":"GeoNamesSCAR","id":"129676","url":null},"recName":"Onyx River","confidence":{"state":"pre-added","who":["ml:dpeker"],"prob":0.9266}}}},{"classId":"e_4","part":"s7v1","offsets":[{"start":56,"text":"Wright Valley"}],"coordinates":[],"confidence":{"state":"pre-added","who":["ml:dpeker"],"prob":0.9472},"fields":{},"normalizations":{"n_34":{"source":{"name":"GeoNamesSCAR","id":"133876","url":null},"recName":"Wright Valley","confidence":{"state":"pre-added","who":["ml:dpeker"],"prob":0.9472}}}},{"classId":"e_4","part":"s7v1","offsets":[{"start":191,"text":"Wright Valley"}],"coordinates":[],"confidence":{"state":"pre-added","who":["ml:dpeker"],"prob":0.9472},"fields":{},"normalizations":{"n_34":{"source":{"name":"GeoNamesSCAR","id":"133876","url":null},"recName":"Wright Valley","confidence":{"state":"pre-added","who":["ml:dpeker"],"prob":0.9472}}}},{"classId":"e_4","part":"s8v1","offsets":[{"start":68,"text":"Lake Miers"}],"coordinates":[],"confidence":{"state":"pre-added","who":["ml:dpeker"],"prob":0.9266},"fields":{},"normalizations":{"n_34":{"source":{"name":"GeoNamesSCAR","id":"128869","url":null},"recName":"Miers, Lake","confidence":{"state":"pre-added","who":["ml:dpeker"],"prob":0.9266}}}},{"classId":"e_4","part":"s8v1","offsets":[{"start":403,"text":"Lake Fryxell"}],"coordinates":[],"confidence":{"state":"pre-added","who":["ml:dpeker"],"prob":0.9416},"fields":{},"normalizations":{"n_34":{"source":{"name":"GeoNamesSCAR","id":"125440","url":null},"recName":"Fryxell, Lake","confidence":{"state":"pre-added","who":["ml:dpeker"],"prob":0.9416}}}},{"classId":"e_4","part":"s8v1","offsets":[{"start":443,"text":"Commonwealth glacier"}],"coordinates":[],"confidence":{"state":"pre-added","who":["ml:dpeker"],"prob":0.9449},"fields":{},"normalizations":{"n_34":{"source":{"name":"GeoNamesSCAR","id":"123730","url":null},"recName":"Commonwealth Glacier","confidence":{"state":"pre-added","who":["ml:dpeker"],"prob":0.9449}}}},{"classId":"e_4","part":"s8v1","offsets":[{"start":1194,"text":"Canada glacier"}],"coordinates":[],"confidence":{"state":"pre-added","who":["ml:dpeker"],"prob":0.9178},"fields":{},"normalizations":{"n_34":{"source":{"name":"GeoNamesSCAR","id":"123257","url":null},"recName":"Canada Glacier","confidence":{"state":"pre-added","who":["ml:dpeker"],"prob":0.9178}}}},{"classId":"e_4","part":"s8v1","offsets":[{"start":1240,"text":"Lake Fryxell"}],"coordinates":[],"confidence":{"state":"pre-added","who":["ml:dpeker"],"prob":0.9416},"fields":{},"normalizations":{"n_34":{"source":{"name":"GeoNamesSCAR","id":"125440","url":null},"recName":"Fryxell, Lake","confidence":{"state":"pre-added","who":["ml:dpeker"],"prob":0.9416}}}},{"classId":"e_41","part":"s8v1","offsets":[{"start":1954,"text":"Nostoc"}],"coordinates":[],"confidence":{"state":"pre-added","who":["ml:dpeker"],"prob":0.8617},"fields":{},"normalizations":{"n_55":{"source":{"name":"CyanobacteriaNames","id":"nostoc","url":null},"recName":"Nostoc","confidence":{"state":"pre-added","who":["ml:dpeker"],"prob":0.8617}}}},{"classId":"e_4","part":"s8v1","offsets":[{"start":2112,"text":"Onyx River"}],"coordinates":[],"confidence":{"state":"pre-added","who":["ml:dpeker"],"prob":0.9266},"fields":{},"normalizations":{"n_34":{"source":{"name":"GeoNamesSCAR","id":"129676","url":null},"recName":"Onyx River","confidence":{"state":"pre-added","who":["ml:dpeker"],"prob":0.9266}}}},{"classId":"e_4","part":"s8v1","offsets":[{"start":2323,"text":"Wright Valleys"}],"coordinates":[],"confidence":{"state":"pre-added","who":["ml:dpeker"],"prob":0.8795},"fields":{},"normalizations":{"n_34":{"source":{"name":"GeoNamesSCAR","id":"133876","url":null},"recName":"Wright Valley","confidence":{"state":"pre-added","who":["ml:dpeker"],"prob":0.8795}}}},{"classId":"e_4","part":"s8v1","offsets":[{"start":2581,"text":"Lake Brownworth"}],"coordinates":[],"confidence":{"state":"pre-added","who":["ml:dpeker"],"prob":0.9558},"fields":{},"normalizations":{"n_34":{"source":{"name":"GeoNamesSCAR","id":"123002","url":null},"recName":"Brownworth, Lake","confidence":{"state":"pre-added","who":["ml:dpeker"],"prob":0.9558}}}},{"classId":"e_4","part":"s8v1","offsets":[{"start":2832,"text":"Lake Brownworth"}],"coordinates":[],"confidence":{"state":"pre-added","who":["ml:dpeker"],"prob":0.9558},"fields":{},"normalizations":{"n_34":{"source":{"name":"GeoNamesSCAR","id":"123002","url":null},"recName":"Brownworth, Lake","confidence":{"state":"pre-added","who":["ml:dpeker"],"prob":0.9558}}}},{"classId":"e_4","part":"s8v1","offsets":[{"start":3073,"text":"Lake Brownworth"}],"coordinates":[],"confidence":{"state":"pre-added","who":["ml:dpeker"],"prob":0.9558},"fields":{},"normalizations":{"n_34":{"source":{"name":"GeoNamesSCAR","id":"123002","url":null},"recName":"Brownworth, Lake","confidence":{"state":"pre-added","who":["ml:dpeker"],"prob":0.9558}}}},{"classId":"e_4","part":"s8v1","offsets":[{"start":3092,"text":"Lake Vanda"}],"coordinates":[],"confidence":{"state":"pre-added","who":["ml:dpeker"],"prob":0.9266},"fields":{},"normalizations":{"n_34":{"source":{"name":"GeoNamesSCAR","id":"133142","url":null},"recName":"Vanda, Lake","confidence":{"state":"pre-added","who":["ml:dpeker"],"prob":0.9266}}}},{"classId":"e_4","part":"s9v1","offsets":[{"start":118,"text":"Lake Brownworth"}],"coordinates":[],"confidence":{"state":"pre-added","who":["ml:dpeker"],"prob":0.9558},"fields":{},"normalizations":{"n_34":{"source":{"name":"GeoNamesSCAR","id":"123002","url":null},"recName":"Brownworth, Lake","confidence":{"state":"pre-added","who":["ml:dpeker"],"prob":0.9558}}}},{"classId":"e_4","part":"s9v1","offsets":[{"start":432,"text":"Lake Vanda"}],"coordinates":[],"confidence":{"state":"pre-added","who":["ml:dpeker"],"prob":0.9266},"fields":{},"normalizations":{"n_34":{"source":{"name":"GeoNamesSCAR","id":"133142","url":null},"recName":"Vanda, Lake","confidence":{"state":"pre-added","who":["ml:dpeker"],"prob":0.9266}}}},{"classId":"e_4","part":"s9v1","offsets":[{"start":906,"text":"Lake Bull"}],"coordinates":[],"confidence":{"state":"pre-added","who":["ml:dpeker"],"prob":0.9163},"fields":{},"normalizations":{"n_34":{"source":{"name":"GeoNamesSCAR","id":"123081","url":null},"recName":"Bull, Lake","confidence":{"state":"pre-added","who":["ml:dpeker"],"prob":0.9163}}}},{"classId":"e_4","part":"s9v1","offsets":[{"start":938,"text":"Lake Bull"}],"coordinates":[],"confidence":{"state":"pre-added","who":["ml:dpeker"],"prob":0.9163},"fields":{},"normalizations":{"n_34":{"source":{"name":"GeoNamesSCAR","id":"123081","url":null},"recName":"Bull, Lake","confidence":{"state":"pre-added","who":["ml:dpeker"],"prob":0.9163}}}},{"classId":"e_4","part":"s9v1","offsets":[{"start":953,"text":"Lake Vanda"}],"coordinates":[],"confidence":{"state":"pre-added","who":["ml:dpeker"],"prob":0.9266},"fields":{},"normalizations":{"n_34":{"source":{"name":"GeoNamesSCAR","id":"133142","url":null},"recName":"Vanda, Lake","confidence":{"state":"pre-added","who":["ml:dpeker"],"prob":0.9266}}}},{"classId":"e_4","part":"s9v1","offsets":[{"start":1554,"text":"Onyx River"}],"coordinates":[],"confidence":{"state":"pre-added","who":["ml:dpeker"],"prob":0.9266},"fields":{},"normalizations":{"n_34":{"source":{"name":"GeoNamesSCAR","id":"129676","url":null},"recName":"Onyx River","confidence":{"state":"pre-added","who":["ml:dpeker"],"prob":0.9266}}}},{"classId":"e_4","part":"s10v1","offsets":[{"start":2368,"text":"Taylor Valley"}],"coordinates":[],"confidence":{"state":"pre-added","who":["ml:dpeker"],"prob":0.9472},"fields":{},"normalizations":{"n_34":{"source":{"name":"GeoNamesSCAR","id":"132512","url":null},"recName":"Taylor Valley","confidence":{"state":"pre-added","who":["ml:dpeker"],"prob":0.9472}}}},{"classId":"e_4","part":"s10v1","offsets":[{"start":2396,"text":"days"}],"coordinates":[],"confidence":{"state":"pre-added","who":["ml:dpeker"],"prob":0.4836},"fields":{},"normalizations":{"n_34":{"source":{"name":"GeoNamesSCAR","id":"124046","url":null},"recName":"Dais","confidence":{"state":"pre-added","who":["ml:dpeker"],"prob":0.4836}}}},{"classId":"e_4","part":"s11v1","offsets":[{"start":476,"text":"Taylor Valley"}],"coordinates":[],"confidence":{"state":"pre-added","who":["ml:dpeker"],"prob":0.9472},"fields":{},"normalizations":{"n_34":{"source":{"name":"GeoNamesSCAR","id":"132512","url":null},"recName":"Taylor Valley","confidence":{"state":"pre-added","who":["ml:dpeker"],"prob":0.9472}}}},{"classId":"e_4","part":"s11v1","offsets":[{"start":978,"text":"Lake Vanda"}],"coordinates":[],"confidence":{"state":"pre-added","who":["ml:dpeker"],"prob":0.9266},"fields":{},"normalizations":{"n_34":{"source":{"name":"GeoNamesSCAR","id":"133142","url":null},"recName":"Vanda, Lake","confidence":{"state":"pre-added","who":["ml:dpeker"],"prob":0.9266}}}},{"classId":"e_4","part":"s11v1","offsets":[{"start":1010,"text":"Onyx River"}],"coordinates":[],"confidence":{"state":"pre-added","who":["ml:dpeker"],"prob":0.9266},"fields":{},"normalizations":{"n_34":{"source":{"name":"GeoNamesSCAR","id":"129676","url":null},"recName":"Onyx River","confidence":{"state":"pre-added","who":["ml:dpeker"],"prob":0.9266}}}},{"classId":"e_4","part":"s11v1","offsets":[{"start":1166,"text":"Wright Valley"}],"coordinates":[],"confidence":{"state":"pre-added","who":["ml:dpeker"],"prob":0.9472},"fields":{},"normalizations":{"n_34":{"source":{"name":"GeoNamesSCAR","id":"133876","url":null},"recName":"Wright Valley","confidence":{"state":"pre-added","who":["ml:dpeker"],"prob":0.9472}}}},{"classId":"e_4","part":"s11v1","offsets":[{"start":1193,"text":"Lake Vanda"}],"coordinates":[],"confidence":{"state":"pre-added","who":["ml:dpeker"],"prob":0.9266},"fields":{},"normalizations":{"n_34":{"source":{"name":"GeoNamesSCAR","id":"133142","url":null},"recName":"Vanda, Lake","confidence":{"state":"pre-added","who":["ml:dpeker"],"prob":0.9266}}}},{"classId":"e_4","part":"s11v1","offsets":[{"start":1413,"text":"days"}],"coordinates":[],"confidence":{"state":"pre-added","who":["ml:dpeker"],"prob":0.4836},"fields":{},"normalizations":{"n_34":{"source":{"name":"GeoNamesSCAR","id":"124046","url":null},"recName":"Dais","confidence":{"state":"pre-added","who":["ml:dpeker"],"prob":0.4836}}}},{"classId":"e_4","part":"s11v1","offsets":[{"start":1511,"text":"Onyx River"}],"coordinates":[],"confidence":{"state":"pre-added","who":["ml:dpeker"],"prob":0.9266},"fields":{},"normalizations":{"n_34":{"source":{"name":"GeoNamesSCAR","id":"129676","url":null},"recName":"Onyx River","confidence":{"state":"pre-added","who":["ml:dpeker"],"prob":0.9266}}}},{"classId":"e_4","part":"s12v1","offsets":[{"start":71,"text":"days"}],"coordinates":[],"confidence":{"state":"pre-added","who":["ml:dpeker"],"prob":0.4836},"fields":{},"normalizations":{"n_34":{"source":{"name":"GeoNamesSCAR","id":"124046","url":null},"recName":"Dais","confidence":{"state":"pre-added","who":["ml:dpeker"],"prob":0.4836}}}},{"classId":"e_4","part":"s12v1","offsets":[{"start":105,"text":"days"}],"coordinates":[],"confidence":{"state":"pre-added","who":["ml:dpeker"],"prob":0.4836},"fields":{},"normalizations":{"n_34":{"source":{"name":"GeoNamesSCAR","id":"124046","url":null},"recName":"Dais","confidence":{"state":"pre-added","who":["ml:dpeker"],"prob":0.4836}}}},{"classId":"e_4","part":"s12v1","offsets":[{"start":694,"text":"Adams Stream"}],"coordinates":[],"confidence":{"state":"pre-added","who":["ml:dpeker"],"prob":0.9416},"fields":{},"normalizations":{"n_34":{"source":{"name":"GeoNamesSCAR","id":"112601","url":null},"recName":"Adams Stream","confidence":{"state":"pre-added","who":["ml:dpeker"],"prob":0.9416}}}},{"classId":"e_4","part":"s12v1","offsets":[{"start":794,"text":"Onyx River"}],"coordinates":[],"confidence":{"state":"pre-added","who":["ml:dpeker"],"prob":0.9266},"fields":{},"normalizations":{"n_34":{"source":{"name":"GeoNamesSCAR","id":"129676","url":null},"recName":"Onyx River","confidence":{"state":"pre-added","who":["ml:dpeker"],"prob":0.9266}}}},{"classId":"e_4","part":"s12v1","offsets":[{"start":874,"text":"Onyx River"}],"coordinates":[],"confidence":{"state":"pre-added","who":["ml:dpeker"],"prob":0.9266},"fields":{},"normalizations":{"n_34":{"source":{"name":"GeoNamesSCAR","id":"129676","url":null},"recName":"Onyx River","confidence":{"state":"pre-added","who":["ml:dpeker"],"prob":0.9266}}}},{"classId":"e_4","part":"s12v1","offsets":[{"start":898,"text":"Adams Stream"}],"coordinates":[],"confidence":{"state":"pre-added","who":["ml:dpeker"],"prob":0.9416},"fields":{},"normalizations":{"n_34":{"source":{"name":"GeoNamesSCAR","id":"112601","url":null},"recName":"Adams Stream","confidence":{"state":"pre-added","who":["ml:dpeker"],"prob":0.9416}}}},{"classId":"e_4","part":"s13v1","offsets":[{"start":1775,"text":"Onyx River"}],"coordinates":[],"confidence":{"state":"pre-added","who":["ml:dpeker"],"prob":0.9266},"fields":{},"normalizations":{"n_34":{"source":{"name":"GeoNamesSCAR","id":"129676","url":null},"recName":"Onyx River","confidence":{"state":"pre-added","who":["ml:dpeker"],"prob":0.9266}}}},{"classId":"e_4","part":"s13v1","offsets":[{"start":1957,"text":"Onyx River"}],"coordinates":[],"confidence":{"state":"pre-added","who":["ml:dpeker"],"prob":0.9266},"fields":{},"normalizations":{"n_34":{"source":{"name":"GeoNamesSCAR","id":"129676","url":null},"recName":"Onyx River","confidence":{"state":"pre-added","who":["ml:dpeker"],"prob":0.9266}}}},{"classId":"e_4","part":"s13v1","offsets":[{"start":2313,"text":"Onyx River"}],"coordinates":[],"confidence":{"state":"pre-added","who":["ml:dpeker"],"prob":0.9266},"fields":{},"normalizations":{"n_34":{"source":{"name":"GeoNamesSCAR","id":"129676","url":null},"recName":"Onyx River","confidence":{"state":"pre-added","who":["ml:dpeker"],"prob":0.9266}}}},{"classId":"e_4","part":"s14v1","offsets":[{"start":1193,"text":"terraces"}],"coordinates":[],"confidence":{"state":"pre-added","who":["ml:dpeker"],"prob":0.7196},"fields":{},"normalizations":{"n_34":{"source":{"name":"GeoNamesSCAR","id":"114530","url":null},"recName":"Terrace","confidence":{"state":"pre-added","who":["ml:dpeker"],"prob":0.7196}}}},{"classId":"e_4","part":"s14v1","offsets":[{"start":1676,"text":"Adams stream"}],"coordinates":[],"confidence":{"state":"pre-added","who":["ml:dpeker"],"prob":0.9024},"fields":{},"normalizations":{"n_34":{"source":{"name":"GeoNamesSCAR","id":"112601","url":null},"recName":"Adams Stream","confidence":{"state":"pre-added","who":["ml:dpeker"],"prob":0.9024}}}},{"classId":"e_4","part":"s14v1","offsets":[{"start":2393,"text":"Kukri Hills"}],"coordinates":[],"confidence":{"state":"pre-added","who":["ml:dpeker"],"prob":0.9349},"fields":{},"normalizations":{"n_34":{"source":{"name":"GeoNamesSCAR","id":"113722","url":null},"recName":"Kukri Hills","confidence":{"state":"pre-added","who":["ml:dpeker"],"prob":0.9349}}}},{"classId":"e_4","part":"s15v1","offsets":[{"start":2584,"text":"Onyx river"}],"coordinates":[],"confidence":{"state":"pre-added","who":["ml:dpeker"],"prob":0.8803},"fields":{},"normalizations":{"n_34":{"source":{"name":"GeoNamesSCAR","id":"129676","url":null},"recName":"Onyx River","confidence":{"state":"pre-added","who":["ml:dpeker"],"prob":0.8803}}}},{"classId":"e_4","part":"s16v1","offsets":[{"start":1038,"text":"Lake Bull"}],"coordinates":[],"confidence":{"state":"pre-added","who":["ml:dpeker"],"prob":0.9163},"fields":{},"normalizations":{"n_34":{"source":{"name":"GeoNamesSCAR","id":"123081","url":null},"recName":"Bull, Lake","confidence":{"state":"pre-added","who":["ml:dpeker"],"prob":0.9163}}}},{"classId":"e_4","part":"s16v1","offsets":[{"start":2580,"text":"Adams stream"}],"coordinates":[],"confidence":{"state":"pre-added","who":["ml:dpeker"],"prob":0.9024},"fields":{},"normalizations":{"n_34":{"source":{"name":"GeoNamesSCAR","id":"112601","url":null},"recName":"Adams Stream","confidence":{"state":"pre-added","who":["ml:dpeker"],"prob":0.9024}}}},{"classId":"e_4","part":"s18v1","offsets":[{"start":869,"text":"Bull Pass"}],"coordinates":[],"confidence":{"state":"pre-added","who":["ml:dpeker"],"prob":0.9163},"fields":{},"normalizations":{"n_34":{"source":{"name":"GeoNamesSCAR","id":"123076","url":null},"recName":"Bull Pass","confidence":{"state":"pre-added","who":["ml:dpeker"],"prob":0.9163}}}},{"classId":"e_4","part":"s18v1","offsets":[{"start":893,"text":"Lake Vanda\n\n*"}],"coordinates":[],"confidence":{"state":"pre-added","who":["ml:dpeker"],"prob":0.7377},"fields":{},"normalizations":{"n_34":{"source":{"name":"GeoNamesSCAR","id":"133142","url":null},"recName":"Vanda, Lake","confidence":{"state":"pre-added","who":["ml:dpeker"],"prob":0.7377}}}},{"classId":"e_4","part":"s18v1","offsets":[{"start":1129,"text":"Taylor Valley"}],"coordinates":[],"confidence":{"state":"pre-added","who":["ml:dpeker"],"prob":0.9472},"fields":{},"normalizations":{"n_34":{"source":{"name":"GeoNamesSCAR","id":"132512","url":null},"recName":"Taylor Valley","confidence":{"state":"pre-added","who":["ml:dpeker"],"prob":0.9472}}}},{"classId":"e_4","part":"s19v1","offsets":[{"start":54,"text":"Taylor Valley"}],"coordinates":[],"confidence":{"state":"pre-added","who":["ml:dpeker"],"prob":0.9472},"fields":{},"normalizations":{"n_34":{"source":{"name":"GeoNamesSCAR","id":"132512","url":null},"recName":"Taylor Valley","confidence":{"state":"pre-added","who":["ml:dpeker"],"prob":0.9472}}}},{"classId":"e_41","part":"s19v1","offsets":[{"start":285,"text":"Anabaena spp."}],"coordinates":[{"x":"55.66","y":"90.76"},{"x":"117.06","y":"97.20"}],"confidence":{"state":"pre-added","who":["user:ICTAR"],"prob":1},"fields":{},"normalizations":{"n_55":{"source":{"name":"CyanobacteriaNames","id":"anabsp","url":null},"recName":"","confidence":{"state":"pre-added","who":["user:ICTAR"],"prob":1}}}},{"classId":"e_41","part":"s19v1","offsets":[{"start":303,"text":"Nodularia harveyanu."}],"coordinates":[{"x":"138.96","y":"90.76"},{"x":"229.02","y":"97.20"}],"confidence":{"state":"pre-added","who":["user:ICTAR"],"prob":1},"fields":{},"normalizations":{"n_55":{"source":{"name":"CyanobacteriaNames","id":"noharv","url":null},"recName":"","confidence":{"state":"pre-added","who":["user:ICTAR"],"prob":1}}}},{"classId":"e_4","part":"s19v1","offsets":[{"start":1121,"text":"Onyx River"}],"coordinates":[],"confidence":{"state":"pre-added","who":["ml:dpeker"],"prob":0.9266},"fields":{},"normalizations":{"n_34":{"source":{"name":"GeoNamesSCAR","id":"129676","url":null},"recName":"Onyx River","confidence":{"state":"pre-added","who":["ml:dpeker"],"prob":0.9266}}}},{"classId":"e_4","part":"s19v1","offsets":[{"start":1849,"text":"days"}],"coordinates":[],"confidence":{"state":"pre-added","who":["ml:dpeker"],"prob":0.4836},"fields":{},"normalizations":{"n_34":{"source":{"name":"GeoNamesSCAR","id":"124046","url":null},"recName":"Dais","confidence":{"state":"pre-added","who":["ml:dpeker"],"prob":0.4836}}}},{"classId":"e_4","part":"s20v1","offsets":[{"start":174,"text":"Onyx River"}],"coordinates":[],"confidence":{"state":"pre-added","who":["ml:dpeker"],"prob":0.9266},"fields":{},"normalizations":{"n_34":{"source":{"name":"GeoNamesSCAR","id":"129676","url":null},"recName":"Onyx River","confidence":{"state":"pre-added","who":["ml:dpeker"],"prob":0.9266}}}},{"classId":"e_4","part":"s20v1","offsets":[{"start":659,"text":"Cape Bird"}],"coordinates":[],"confidence":{"state":"pre-added","who":["ml:dpeker"],"prob":0.9163},"fields":{},"normalizations":{"n_34":{"source":{"name":"GeoNamesSCAR","id":"122545","url":null},"recName":"Bird, Cape","confidence":{"state":"pre-added","who":["ml:dpeker"],"prob":0.9163}}}},{"classId":"e_4","part":"s21v1","offsets":[{"start":2047,"text":"Canada Glacier"}],"coordinates":[],"confidence":{"state":"pre-added","who":["ml:dpeker"],"prob":0.9518},"fields":{},"normalizations":{"n_34":{"source":{"name":"GeoNamesSCAR","id":"123257","url":null},"recName":"Canada Glacier","confidence":{"state":"pre-added","who":["ml:dpeker"],"prob":0.9518}}}},{"classId":"e_4","part":"s22v1","offsets":[{"start":177,"text":"Onyx river"}],"coordinates":[],"confidence":{"state":"pre-added","who":["ml:dpeker"],"prob":0.8803},"fields":{},"normalizations":{"n_34":{"source":{"name":"GeoNamesSCAR","id":"129676","url":null},"recName":"Onyx River","confidence":{"state":"pre-added","who":["ml:dpeker"],"prob":0.8803}}}},{"classId":"e_4","part":"s22v1","offsets":[{"start":207,"text":"Onyx River"}],"coordinates":[],"confidence":{"state":"pre-added","who":["ml:dpeker"],"prob":0.9266},"fields":{},"normalizations":{"n_34":{"source":{"name":"GeoNamesSCAR","id":"129676","url":null},"recName":"Onyx River","confidence":{"state":"pre-added","who":["ml:dpeker"],"prob":0.9266}}}},{"classId":"e_41","part":"s22v1","offsets":[{"start":1294,"text":"Nostoc"}],"coordinates":[],"confidence":{"state":"pre-added","who":["ml:dpeker"],"prob":0.8617},"fields":{},"normalizations":{"n_55":{"source":{"name":"CyanobacteriaNames","id":"nostoc","url":null},"recName":"Nostoc","confidence":{"state":"pre-added","who":["ml:dpeker"],"prob":0.8617}}}},{"classId":"e_41","part":"s22v1","offsets":[{"start":1339,"text":"Oscillatoriaceae"}],"coordinates":[],"confidence":{"state":"pre-added","who":["ml:dpeker"],"prob":0.9592},"fields":{},"normalizations":{"n_55":{"source":{"name":"CyanobacteriaNames","id":"oscifa","url":null},"recName":"Oscillatoriaceae","confidence":{"state":"pre-added","who":["ml:dpeker"],"prob":0.9592}}}},{"classId":"e_41","part":"s22v1","offsets":[{"start":1357,"text":"Phormidiurn spp.,"}],"coordinates":[{"x":"293.75","y":"382.60"},{"x":"371.06","y":"389.04"}],"confidence":{"state":"pre-added","who":["user:ICTAR"],"prob":1},"fields":{},"normalizations":{"n_55":{"source":{"name":"CyanobacteriaNames","id":"phormi","url":null},"recName":"","confidence":{"state":"pre-added","who":["user:ICTAR"],"prob":1}}}},{"classId":"e_41","part":"s22v1","offsets":[{"start":1375,"text":"Oscillutoria spp"}],"coordinates":[],"confidence":{"state":"pre-added","who":["ml:dpeker"],"prob":0.9226},"fields":{},"normalizations":{"n_55":{"source":{"name":"CyanobacteriaNames","id":"oscisp","url":null},"recName":"","confidence":{"state":"pre-added","who":["user:ICTAR"],"prob":1}}}},{"classId":"e_41","part":"s22v1","offsets":[{"start":1394,"text":"ilrlicrocoleus vaginatus"}],"coordinates":[{"x":"72.10","y":"393.60"},{"x":"169.25","y":"400.04"}],"confidence":{"state":"pre-added","who":["user:ICTAR"],"prob":1},"fields":{},"normalizations":{"n_55":{"source":{"name":"CyanobacteriaNames","id":"micrva","url":null},"recName":"","confidence":{"state":"pre-added","who":["user:ICTAR"],"prob":1}}}},{"classId":"e_41","part":"s22v1","offsets":[{"start":1477,"text":"Oscillatoriaceae"}],"coordinates":[],"confidence":{"state":"pre-added","who":["ml:dpeker"],"prob":0.9592},"fields":{},"normalizations":{"n_55":{"source":{"name":"CyanobacteriaNames","id":"oscifa","url":null},"recName":"Oscillatoriaceae","confidence":{"state":"pre-added","who":["ml:dpeker"],"prob":0.9592}}}},{"classId":"e_41","part":"s22v1","offsets":[{"start":1535,"text":"QZoeocapscc kuetzingiana"}],"coordinates":[{"x":"294.40","y":"404.40"},{"x":"398.90","y":"410.84"}],"confidence":{"state":"pre-added","who":["user:ICTAR"],"prob":1},"fields":{},"normalizations":{"n_55":{"source":{"name":"CyanobacteriaNames","id":"gloeku","url":null},"recName":"","confidence":{"state":"pre-added","who":["user:ICTAR"],"prob":1}}}},{"classId":"e_40","part":"s22v1","offsets":[{"start":1636,"text":"Triboneiriu elegans"}],"coordinates":[{"x":"344.50","y":"415.63"},{"x":"422.94","y":"421.94"}],"confidence":{"state":"pre-added","who":["user:ICTAR"],"prob":1},"fields":{},"normalizations":{"n_75":{"source":{"name":"AlgaeNames","id":"treleg","url":null},"recName":"","confidence":{"state":"pre-added","who":["user:ICTAR"],"prob":1}}}},{"classId":"e_40","part":"s22v1","offsets":[{"start":1660,"text":"lhhclercria tectorum"}],"coordinates":[{"x":"66.10","y":"426.30"},{"x":"154.73","y":"432.74"}],"confidence":{"state":"pre-added","who":["user:ICTAR"],"prob":1},"fields":{},"normalizations":{"n_75":{"source":{"name":"AlgaeNames","id":"bitect","url":null},"recName":"","confidence":{"state":"pre-added","who":["user:ICTAR"],"prob":1}}}},{"classId":"e_4","part":"s22v1","offsets":[{"start":1830,"text":"A d a m  Streani"}],"coordinates":[{"x":"171.20","y":"448.15"},{"x":"237.06","y":"454.34"}],"confidence":{"state":"pre-added","who":["user:ICTAR"],"prob":1},"fields":{},"normalizations":{"n_34":{"source":{"name":"GeoNamesSCAR","id":"112601","url":null},"recName":"","confidence":{"state":"pre-added","who":["user:charlesklee"],"prob":1}}}},{"classId":"e_41","part":"s22v1","offsets":[{"start":1912,"text":"Nostoc comm,une"}],"coordinates":[],"confidence":{"state":"pre-added","who":["ml:dpeker"],"prob":0.9106},"fields":{},"normalizations":{"n_55":{"source":{"name":"CyanobacteriaNames","id":"nostoc","url":null},"recName":"Nostoc","confidence":{"state":"pre-added","who":["ml:dpeker"],"prob":0.9106}}}},{"classId":"e_41","part":"s22v1","offsets":[{"start":1941,"text":"Oscillatoriaceae"}],"coordinates":[],"confidence":{"state":"pre-added","who":["ml:dpeker"],"prob":0.9592},"fields":{},"normalizations":{"n_55":{"source":{"name":"CyanobacteriaNames","id":"oscifa","url":null},"recName":"Oscillatoriaceae","confidence":{"state":"pre-added","who":["ml:dpeker"],"prob":0.9592}}}},{"classId":"e_41","part":"s22v1","offsets":[{"start":2005,"text":". luininoaicm"}],"coordinates":[{"x":"194.61","y":"468.69"},{"x":"258.21","y":"475.44"}],"confidence":{"state":"pre-added","who":["user:ICTAR"],"prob":1},"fields":{},"normalizations":{"n_55":{"source":{"name":"CyanobacteriaNames","id":"phlami","url":null},"recName":"","confidence":{"state":"pre-added","who":["user:ICTAR"],"prob":1}}}},{"classId":"e_41","part":"s22v1","offsets":[{"start":2020,"text":"P. uiicinatuin"}],"coordinates":[{"x":"266.80","y":"468.88"},{"x":"326.09","y":"475.44"}],"confidence":{"state":"pre-added","who":["user:ICTAR"],"prob":1},"fields":{},"normalizations":{"n_55":{"source":{"name":"CyanobacteriaNames","id":"phunci","url":null},"recName":"","confidence":{"state":"pre-added","who":["user:ICTAR"],"prob":1}}}},{"classId":"e_41","part":"s22v1","offsets":[{"start":2044,"text":"Calothrix spp"}],"coordinates":[],"confidence":{"state":"pre-added","who":["ml:dpeker"],"prob":0.9032},"fields":{},"normalizations":{"n_55":{"source":{"name":"CyanobacteriaNames","id":"calosp","url":null},"recName":"Calothrix spp.","confidence":{"state":"pre-added","who":["ml:dpeker"],"prob":0.9032}}}},{"classId":"e_41","part":"s22v1","offsets":[{"start":2271,"text":"GZoeocapsa spp."}],"coordinates":[{"x":"283.30","y":"500.70"},{"x":"351.29","y":"507.14"}],"confidence":{"state":"pre-added","who":["user:ICTAR"],"prob":1},"fields":{},"normalizations":{"n_55":{"source":{"name":"CyanobacteriaNames","id":"gloesp","url":null},"recName":"","confidence":{"state":"pre-added","who":["user:ICTAR"],"prob":1}}}},{"classId":"e_41","part":"s22v1","offsets":[{"start":2320,"text":"QsciZlutoriu spp"}],"coordinates":[{"x":"127.30","y":"511.75"},{"x":"193.69","y":"517.94"}],"confidence":{"state":"pre-added","who":["user:ICTAR"],"prob":1},"fields":{},"normalizations":{"n_55":{"source":{"name":"CyanobacteriaNames","id":"oscisp","url":null},"recName":"","confidence":{"state":"pre-added","who":["user:ICTAR"],"prob":1}}}},{"classId":"e_41","part":"s22v1","offsets":[{"start":2358,"text":"Phorinidium spp."}],"coordinates":[{"x":"267.50","y":"511.50"},{"x":"343.01","y":"517.94"}],"confidence":{"state":"pre-added","who":["user:ICTAR"],"prob":1},"fields":{},"normalizations":{"n_55":{"source":{"name":"CyanobacteriaNames","id":"phormi","url":null},"recName":"","confidence":{"state":"pre-added","who":["user:ICTAR"],"prob":1}}}},{"classId":"e_40","part":"s22v1","offsets":[{"start":2491,"text":"Prnsiola cazophyllu"}],"coordinates":[{"x":"93.20","y":"533.10"},{"x":"175.75","y":"539.54"}],"confidence":{"state":"pre-added","who":["user:ICTAR"],"prob":1},"fields":{},"normalizations":{"n_75":{"source":{"name":"AlgaeNames","id":"prcalo","url":null},"recName":"","confidence":{"state":"pre-added","who":["user:ICTAR"],"prob":1}}}},{"classId":"e_40","part":"s22v1","offsets":[{"start":2540,"text":"B. tectorum"}],"coordinates":[],"confidence":{"state":"pre-added","who":["ml:dpeker"],"prob":0.9349},"fields":{},"normalizations":{"n_75":{"source":{"name":"AlgaeNames","id":"bitect","url":null},"recName":"Binuclearia tectorum","confidence":{"state":"pre-added","who":["ml:dpeker"],"prob":0.9349}}}},{"classId":"e_40","part":"s22v1","offsets":[{"start":2756,"text":"Hantzschia amnphioxys"}],"coordinates":[{"x":"139.95","y":"565.20"},{"x":"239.41","y":"571.64"}],"confidence":{"state":"pre-added","who":["user:ICTAR"],"prob":1},"fields":{},"normalizations":{"n_75":{"source":{"name":"AlgaeNames","id":"haamph","url":null},"recName":"","confidence":{"state":"pre-added","who":["user:ICTAR"],"prob":1}}}},{"classId":"e_40","part":"s22v1","offsets":[{"start":2779,"text":"NclvicuZa spp."}],"coordinates":[{"x":"245.90","y":"565.20"},{"x":"309.86","y":"571.64"}],"confidence":{"state":"pre-added","who":["user:ICTAR"],"prob":1},"fields":{},"normalizations":{"n_75":{"source":{"name":"AlgaeNames","id":"navisp","url":null},"recName":"","confidence":{"state":"pre-added","who":["user:ICTAR"],"prob":1}}}},{"classId":"e_4","part":"s22v1","offsets":[{"start":3029,"text":"Fryxell streaiii"}],"coordinates":[{"x":"357.30","y":"597.15"},{"x":"421.66","y":"603.34"}],"confidence":{"state":"pre-added","who":["user:ICTAR"],"prob":1},"fields":{},"normalizations":{"n_52":{"source":{"name":"GeoNamesCustom","id":"CKL008","url":null},"recName":"","confidence":{"state":"pre-added","who":["user:charlesklee"],"prob":1}}}},{"classId":"e_41","part":"s22v1","offsets":[{"start":3061,"text":"Chamaesiphon subglobosus"}],"coordinates":[],"confidence":{"state":"pre-added","who":["ml:dpeker"],"prob":0.9754},"fields":{},"normalizations":{"n_55":{"source":{"name":"CyanobacteriaNames","id":"chsubg","url":null},"recName":"Chamaesiphon subglobosus","confidence":{"state":"pre-added","who":["ml:dpeker"],"prob":0.9754}}}},{"classId":"e_41","part":"s23v1","offsets":[{"start":62,"text":"Nosroc commune"}],"coordinates":[{"x":"167.76","y":"88.84"},{"x":"223.55","y":"92.90"}],"confidence":{"state":"pre-added","who":["user:ICTAR"],"prob":1},"fields":{},"normalizations":{"n_55":{"source":{"name":"CyanobacteriaNames","id":"nostoc","url":null},"recName":"","confidence":{"state":"pre-added","who":["user:ICTAR"],"prob":1}}}},{"classId":"e_41","part":"s23v1","offsets":[{"start":102,"text":"0. soncro"}],"coordinates":[{"x":"259.46","y":"115.74"},{"x":"288.88","y":"119.80"}],"confidence":{"state":"pre-added","who":["user:ICTAR"],"prob":1},"fields":{},"normalizations":{"n_55":{"source":{"name":"CyanobacteriaNames","id":"ossanc","url":null},"recName":"","confidence":{"state":"pre-added","who":["user:ICTAR"],"prob":1}}}},{"classId":"e_41","part":"s23v1","offsets":[{"start":113,"text":"Phormidium uneinatum"}],"coordinates":[{"x":"293.56","y":"115.74"},{"x":"363.22","y":"119.80"}],"confidence":{"state":"pre-added","who":["user:ICTAR"],"prob":1},"fields":{},"normalizations":{"n_55":{"source":{"name":"CyanobacteriaNames","id":"phunci","url":null},"recName":"","confidence":{"state":"pre-added","who":["user:ICTAR"],"prob":1}}}},{"classId":"e_41","part":"s23v1","offsets":[{"start":135,"text":"P. Iaminwum,"}],"coordinates":[{"x":"259.46","y":"123.00"},{"x":"300.96","y":"127.00"}],"confidence":{"state":"pre-added","who":["user:ICTAR"],"prob":1},"fields":{},"normalizations":{"n_55":{"source":{"name":"CyanobacteriaNames","id":"phlami","url":null},"recName":"","confidence":{"state":"pre-added","who":["user:ICTAR"],"prob":1}}}},{"classId":"e_40","part":"s23v1","offsets":[{"start":153,"text":"Hontzschfa amphiorys"}],"coordinates":[{"x":"323.76","y":"122.94"},{"x":"291.82","y":"134.20"}],"confidence":{"state":"pre-added","who":["user:ICTAR"],"prob":1},"fields":{},"normalizations":{"n_75":{"source":{"name":"AlgaeNames","id":"haamph","url":null},"recName":"","confidence":{"state":"pre-added","who":["user:ICTAR"],"prob":1}}}},{"classId":"e_40","part":"s23v1","offsets":[{"start":178,"text":"Novicula app."}],"coordinates":[{"x":"312.96","y":"130.14"},{"x":"355.61","y":"134.21"}],"confidence":{"state":"pre-added","who":["user:ICTAR"],"prob":1},"fields":{},"normalizations":{"n_75":{"source":{"name":"AlgaeNames","id":"navisp","url":null},"recName":"","confidence":{"state":"pre-added","who":["user:ICTAR"],"prob":1}}}},{"classId":"e_41","part":"s23v1","offsets":[{"start":200,"text":"loeocapso app"}],"coordinates":[{"x":"143.96","y":"140.44"},{"x":"190.16","y":"144.51"}],"confidence":{"state":"pre-added","who":["user:ICTAR"],"prob":1},"fields":{},"normalizations":{"n_55":{"source":{"name":"CyanobacteriaNames","id":"gloesp","url":null},"recName":"","confidence":{"state":"pre-added","who":["user:ICTAR"],"prob":1}}}},{"classId":"e_40","part":"s23v1","offsets":[{"start":220,"text":"Cyclotello sp ."}],"coordinates":[{"x":"215.56","y":"140.44"},{"x":"257.90","y":"144.51"}],"confidence":{"state":"pre-added","who":["user:ICTAR"],"prob":1},"fields":{},"normalizations":{"n_75":{"source":{"name":"AlgaeNames","id":"cyclsp","url":null},"recName":"","confidence":{"state":"pre-added","who":["user:ICTAR"],"prob":1}}}},{"classId":"e_40","part":"s23v1","offsets":[{"start":248,"text":"Binuckeria sp."}],"coordinates":[{"x":"179.76","y":"147.78"},{"x":"226.19","y":"151.91"}],"confidence":{"state":"pre-added","who":["user:ICTAR"],"prob":1},"fields":{},"normalizations":{"n_75":{"source":{"name":"AlgaeNames","id":"binusp","url":null},"recName":"","confidence":{"state":"pre-added","who":["user:ICTAR"],"prob":1}}}},{"classId":"e_41","part":"s23v1","offsets":[{"start":294,"text":"Gloeocapsa app."}],"coordinates":[{"x":"163.96","y":"170.94"},{"x":"217.81","y":"175.01"}],"confidence":{"state":"pre-added","who":["user:ICTAR"],"prob":1},"fields":{},"normalizations":{"n_55":{"source":{"name":"CyanobacteriaNames","id":"gloesp","url":null},"recName":"","confidence":{"state":"pre-added","who":["user:ICTAR"],"prob":1}}}},{"classId":"e_41","part":"s23v1","offsets":[{"start":315,"text":"Oscillaloria spp"}],"coordinates":[{"x":"241.66","y":"170.94"},{"x":"291.90","y":"175.01"}],"confidence":{"state":"pre-added","who":["user:ICTAR"],"prob":1},"fields":{},"normalizations":{"n_55":{"source":{"name":"CyanobacteriaNames","id":"oscisp","url":null},"recName":"","confidence":{"state":"pre-added","who":["user:ICTAR"],"prob":1}}}},{"classId":"e_40","part":"s23v1","offsets":[{"start":357,"text":"Binucleoria rectorum"}],"coordinates":[{"x":"323.56","y":"194.94"},{"x":"275.84","y":"206.00"}],"confidence":{"state":"pre-added","who":["user:ICTAR"],"prob":1},"fields":{},"normalizations":{"n_75":{"source":{"name":"AlgaeNames","id":"bitect","url":null},"recName":"","confidence":{"state":"pre-added","who":["user:ICTAR"],"prob":1}}}},{"classId":"e_40","part":"s23v1","offsets":[{"start":382,"text":"hibonema ap"}],"coordinates":[{"x":"300.96","y":"201.94"},{"x":"344.39","y":"206.01"}],"confidence":{"state":"pre-added","who":["user:ICTAR"],"prob":1},"fields":{},"normalizations":{"n_75":{"source":{"name":"AlgaeNames","id":"tribsp","url":null},"recName":"","confidence":{"state":"pre-added","who":["user:charlesklee"],"prob":1}}}},{"classId":"e_41","part":"s23v1","offsets":[{"start":424,"text":"Phormidium app"}],"coordinates":[{"x":"204.36","y":"236.44"},{"x":"256.79","y":"240.51"}],"confidence":{"state":"pre-added","who":["user:ICTAR"],"prob":1},"fields":{},"normalizations":{"n_55":{"source":{"name":"CyanobacteriaNames","id":"phormi","url":null},"recName":"","confidence":{"state":"pre-added","who":["user:ICTAR"],"prob":1}}}},{"classId":"e_41","part":"s23v1","offsets":[{"start":483,"text":"Phormidfum Jommosum"}],"coordinates":[{"x":"207.86","y":"266.64"},{"x":"281.88","y":"270.70"}],"confidence":{"state":"pre-added","who":["user:ICTAR"],"prob":1},"fields":{},"normalizations":{"n_55":{"source":{"name":"CyanobacteriaNames","id":"phlami","url":null},"recName":"","confidence":{"state":"pre-added","who":["user:ICTAR"],"prob":1}}}},{"classId":"e_41","part":"s23v1","offsets":[{"start":504,"text":"P. hogile"}],"coordinates":[{"x":"288.76","y":"266.45"},{"x":"318.20","y":"270.70"}],"confidence":{"state":"pre-added","who":["user:ICTAR"],"prob":1},"fields":{},"normalizations":{"n_55":{"source":{"name":"CyanobacteriaNames","id":"phfrag","url":null},"recName":"","confidence":{"state":"pre-added","who":["user:ICTAR"],"prob":1}}}},{"classId":"e_41","part":"s23v1","offsets":[{"start":522,"text":"OsclNSloria am"}],"coordinates":[{"x":"233.56","y":"273.84"},{"x":"285.82","y":"277.90"}],"confidence":{"state":"pre-added","who":["user:ICTAR"],"prob":1},"fields":{},"normalizations":{"n_55":{"source":{"name":"CyanobacteriaNames","id":"oscisp","url":null},"recName":"","confidence":{"state":"pre-added","who":["user:ICTAR"],"prob":1}}}},{"classId":"e_41","part":"s23v1","offsets":[{"start":574,"text":"Oscillatoriaceae"}],"coordinates":[],"confidence":{"state":"pre-added","who":["ml:dpeker"],"prob":0.9592},"fields":{},"normalizations":{"n_55":{"source":{"name":"CyanobacteriaNames","id":"oscifa","url":null},"recName":"Oscillatoriaceae","confidence":{"state":"pre-added","who":["ml:dpeker"],"prob":0.9592}}}},{"classId":"e_40","part":"s23v1","offsets":[{"start":614,"text":"Navicule spp"}],"coordinates":[{"x":"260.66","y":"359.54"},{"x":"302.00","y":"363.61"}],"confidence":{"state":"pre-added","who":["user:ICTAR"],"prob":1},"fields":{},"normalizations":{"n_75":{"source":{"name":"AlgaeNames","id":"navisp","url":null},"recName":"","confidence":{"state":"pre-added","who":["user:ICTAR"],"prob":1}}}},{"classId":"e_4","part":"s23v1","offsets":[{"start":721,"text":"Adams Stream"}],"coordinates":[],"confidence":{"state":"pre-added","who":["ml:dpeker"],"prob":0.9416},"fields":{},"normalizations":{"n_34":{"source":{"name":"GeoNamesSCAR","id":"112601","url":null},"recName":"Adams Stream","confidence":{"state":"pre-added","who":["ml:dpeker"],"prob":0.9416}}}},{"classId":"e_40","part":"s23v1","offsets":[{"start":943,"text":"Prasiolu cabophyllu"}],"coordinates":[{"x":"336.46","y":"471.09"},{"x":"414.22","y":"477.40"}],"confidence":{"state":"pre-added","who":["user:ICTAR"],"prob":1},"fields":{},"normalizations":{"n_75":{"source":{"name":"AlgaeNames","id":"prcalo","url":null},"recName":"","confidence":{"state":"pre-added","who":["user:ICTAR"],"prob":1}}}},{"classId":"e_41","part":"s23v1","offsets":[{"start":1236,"text":"Nostoc"}],"coordinates":[],"confidence":{"state":"pre-added","who":["ml:dpeker"],"prob":0.8617},"fields":{},"normalizations":{"n_55":{"source":{"name":"CyanobacteriaNames","id":"nostoc","url":null},"recName":"Nostoc","confidence":{"state":"pre-added","who":["ml:dpeker"],"prob":0.8617}}}},{"classId":"e_4","part":"s23v1","offsets":[{"start":1288,"text":"Lake Fryxell"}],"coordinates":[],"confidence":{"state":"pre-added","who":["ml:dpeker"],"prob":0.9416},"fields":{},"normalizations":{"n_34":{"source":{"name":"GeoNamesSCAR","id":"125440","url":null},"recName":"Fryxell, Lake","confidence":{"state":"pre-added","who":["ml:dpeker"],"prob":0.9416}}}},{"classId":"e_4","part":"s23v1","offsets":[{"start":1324,"text":"Commonwealth Glacier"}],"coordinates":[],"confidence":{"state":"pre-added","who":["ml:dpeker"],"prob":0.9692},"fields":{},"normalizations":{"n_34":{"source":{"name":"GeoNamesSCAR","id":"123730","url":null},"recName":"Commonwealth Glacier","confidence":{"state":"pre-added","who":["ml:dpeker"],"prob":0.9692}}}},{"classId":"e_4","part":"s23v1","offsets":[{"start":1454,"text":"Whanga- mata Stream"}],"coordinates":[{"x":"376.36","y":"546.19"},{"x":"111.16","y":"563.00"}],"confidence":{"state":"pre-added","who":["user:ICTAR"],"prob":1},"fields":{},"normalizations":{"n_52":{"source":{"name":"GeoNamesCustom","id":"CKL010","url":null},"recName":"","confidence":{"state":"pre-added","who":["user:charlesklee"],"prob":1}}}},{"classId":"e_41","part":"s23v1","offsets":[{"start":1517,"text":"Phormidium frigidum"}],"coordinates":[{"x":"303.16","y":"556.69"},{"x":"395.33","y":"563.00"}],"confidence":{"state":"pre-added","who":["user:ICTAR"],"prob":1},"fields":{},"normalizations":{"n_55":{"source":{"name":"CyanobacteriaNames","id":"phfrig","url":null},"recName":"","confidence":{"state":"pre-added","who":["user:ICTAR"],"prob":1}}}},{"classId":"e_41","part":"s23v1","offsets":[{"start":1541,"text":"Oscillatoriu sanctu"}],"coordinates":[{"x":"53.56","y":"567.29"},{"x":"130.70","y":"573.60"}],"confidence":{"state":"pre-added","who":["user:ICTAR"],"prob":1},"fields":{},"normalizations":{"n_55":{"source":{"name":"CyanobacteriaNames","id":"ossanc","url":null},"recName":"","confidence":{"state":"pre-added","who":["user:ICTAR"],"prob":1}}}},{"classId":"e_41","part":"s23v1","offsets":[{"start":1615,"text":"Gloeocapsa kuetzingiana"}],"coordinates":[],"confidence":{"state":"pre-added","who":["ml:dpeker"],"prob":0.9741},"fields":{},"normalizations":{"n_55":{"source":{"name":"CyanobacteriaNames","id":"gloeku","url":null},"recName":"Gloeocapsa kuetzingiana","confidence":{"state":"pre-added","who":["ml:dpeker"],"prob":0.9741}}}},{"classId":"e_40","part":"s23v1","offsets":[{"start":1654,"text":"Hantzschia amphioxys"}],"coordinates":[],"confidence":{"state":"pre-added","who":["ml:dpeker"],"prob":0.9692},"fields":{},"normalizations":{"n_75":{"source":{"name":"AlgaeNames","id":"haamph","url":null},"recName":"Hantzschia amphioxys","confidence":{"state":"pre-added","who":["ml:dpeker"],"prob":0.9692}}}},{"classId":"e_41","part":"s23v1","offsets":[{"start":1885,"text":"Anabaena spp."}],"coordinates":[{"x":"83.96","y":"609.99"},{"x":"145.72","y":"616.30"}],"confidence":{"state":"pre-added","who":["user:ICTAR"],"prob":1},"fields":{},"normalizations":{"n_55":{"source":{"name":"CyanobacteriaNames","id":"anabsp","url":null},"recName":"","confidence":{"state":"pre-added","who":["user:ICTAR"],"prob":1}}}},{"classId":"e_41","part":"s23v1","offsets":[{"start":1903,"text":"Nodularia hurveyana"}],"coordinates":[{"x":"168.46","y":"609.99"},{"x":"257.87","y":"616.30"}],"confidence":{"state":"pre-added","who":["user:ICTAR"],"prob":1},"fields":{},"normalizations":{"n_55":{"source":{"name":"CyanobacteriaNames","id":"noharv","url":null},"recName":"","confidence":{"state":"pre-added","who":["user:ICTAR"],"prob":1}}}},{"classId":"e_4","part":"s24v1","offsets":[{"start":64,"text":"Wales Stream"}],"coordinates":[{"x":"150.50","y":"58.29"},{"x":"210.54","y":"64.48"}],"confidence":{"state":"pre-added","who":["user:ICTAR"],"prob":1},"fields":{},"normalizations":{"n_34":{"source":{"name":"GeoNamesSCAR","id":"133378","url":null},"recName":"","confidence":{"state":"pre-added","who":["user:charlesklee"],"prob":1}}}},{"classId":"e_4","part":"s24v1","offsets":[{"start":227,"text":"Otiyx River"}],"coordinates":[{"x":"80.40","y":"90.14"},{"x":"133.47","y":"96.58"}],"confidence":{"state":"pre-added","who":["user:ICTAR"],"prob":1},"fields":{},"normalizations":{"n_34":{"source":{"name":"GeoNamesSCAR","id":"129676","url":null},"recName":"","confidence":{"state":"pre-added","who":["user:charlesklee"],"prob":1}}}},{"classId":"e_4","part":"s24v1","offsets":[{"start":283,"text":"Lake Brownvorth"}],"coordinates":[{"x":"338.20","y":"90.39"},{"x":"420.24","y":"96.58"}],"confidence":{"state":"pre-added","who":["user:ICTAR"],"prob":1},"fields":{},"normalizations":{"n_34":{"source":{"name":"GeoNamesSCAR","id":"123002","url":null},"recName":"","confidence":{"state":"pre-added","who":["user:charlesklee"],"prob":1}}}},{"classId":"e_4","part":"s24v1","offsets":[{"start":351,"text":"Lake Vanda"}],"coordinates":[],"confidence":{"state":"pre-added","who":["ml:dpeker"],"prob":0.9266},"fields":{},"normalizations":{"n_34":{"source":{"name":"GeoNamesSCAR","id":"133142","url":null},"recName":"Vanda, Lake","confidence":{"state":"pre-added","who":["ml:dpeker"],"prob":0.9266}}}},{"classId":"e_41","part":"s24v1","offsets":[{"start":422,"text":"Gloeocrxpsa kue t z i ng i mu"}],"coordinates":[{"x":"241.20","y":"111.87"},{"x":"344.88","y":"118.18"}],"confidence":{"state":"pre-added","who":["user:ICTAR"],"prob":1},"fields":{},"normalizations":{"n_55":{"source":{"name":"CyanobacteriaNames","id":"gloeku","url":null},"recName":"","confidence":{"state":"pre-added","who":["user:ICTAR"],"prob":1}}}},{"classId":"e_41","part":"s24v1","offsets":[{"start":455,"text":"Pfiornridzuw~cf.\n\nr o )  i um"}],"coordinates":[{"x":"353.30","y":"111.87"},{"x":"76.43","y":"129.28"}],"confidence":{"state":"pre-added","who":["user:ICTAR"],"prob":1},"fields":{},"normalizations":{"n_55":{"source":{"name":"CyanobacteriaNames","id":"phcori","url":null},"recName":"","confidence":{"state":"pre-added","who":["user:ICTAR"],"prob":1}}}},{"classId":"e_41","part":"s24v1","offsets":[{"start":491,"text":"P. ~ ~ i c i n i t"}],"coordinates":[{"x":"101.00","y":"122.97"},{"x":"157.07","y":"129.28"}],"confidence":{"state":"pre-added","who":["user:ICTAR"],"prob":1},"fields":{},"normalizations":{"n_55":{"source":{"name":"CyanobacteriaNames","id":"phunci","url":null},"recName":"","confidence":{"state":"pre-added","who":["user:ICTAR"],"prob":1}}}},{"classId":"e_41","part":"s24v1","offsets":[{"start":568,"text":"Cloeocupsa\n\nsp."}],"coordinates":[{"x":"377.80","y":"123.72"},{"x":"60.53","y":"140.28"}],"confidence":{"state":"pre-added","who":["user:ICTAR"],"prob":1},"fields":{},"normalizations":{"n_55":{"source":{"name":"CyanobacteriaNames","id":"gloesp","url":null},"recName":"","confidence":{"state":"pre-added","who":["user:ICTAR"],"prob":1}}}},{"classId":"e_40","part":"s24v1","offsets":[{"start":585,"text":"AViiviculii cf. fruyilurioides"}],"coordinates":[{"x":"66.50","y":"133.78"},{"x":"177.36","y":"140.28"}],"confidence":{"state":"pre-added","who":["user:ICTAR"],"prob":1},"fields":{},"normalizations":{"n_75":{"source":{"name":"AlgaeNames","id":"nafrag","url":null},"recName":"","confidence":{"state":"pre-added","who":["user:ICTAR"],"prob":1}}}},{"classId":"e_41","part":"s24v1","offsets":[{"start":835,"text":"P .  la,wiuosurrL"}],"coordinates":[{"x":"365.03","y":"155.37"},{"x":"423.32","y":"161.68"}],"confidence":{"state":"pre-added","who":["user:ICTAR"],"prob":1},"fields":{},"normalizations":{"n_55":{"source":{"name":"CyanobacteriaNames","id":"phlami","url":null},"recName":"","confidence":{"state":"pre-added","who":["user:ICTAR"],"prob":1}}}},{"classId":"e_41","part":"s24v1","offsets":[{"start":858,"text":"P .  friyirlunr"}],"coordinates":[{"x":"70.60","y":"165.92"},{"x":"119.42","y":"172.48"}],"confidence":{"state":"pre-added","who":["user:ICTAR"],"prob":1},"fields":{},"normalizations":{"n_55":{"source":{"name":"CyanobacteriaNames","id":"phfrig","url":null},"recName":"","confidence":{"state":"pre-added","who":["user:ICTAR"],"prob":1}}}},{"classId":"e_41","part":"s24v1","offsets":[{"start":882,"text":"P .  f rag i l e"}],"coordinates":[{"x":"155.00","y":"165.92"},{"x":"195.12","y":"172.48"}],"confidence":{"state":"pre-added","who":["user:ICTAR"],"prob":1},"fields":{},"normalizations":{"n_55":{"source":{"name":"CyanobacteriaNames","id":"phfrag","url":null},"recName":"","confidence":{"state":"pre-added","who":["user:ICTAR"],"prob":1}}}},{"classId":"e_40","part":"s24v1","offsets":[{"start":928,"text":"Hur~tzschiau~tiphioxy"}],"coordinates":[{"x":"322.25","y":"166.17"},{"x":"421.22","y":"172.48"}],"confidence":{"state":"pre-added","who":["user:ICTAR"],"prob":1},"fields":{},"normalizations":{"n_75":{"source":{"name":"AlgaeNames","id":"haamph","url":null},"recName":"","confidence":{"state":"pre-added","who":["user:ICTAR"],"prob":1}}}},{"classId":"e_40","part":"s24v1","offsets":[{"start":955,"text":"Vcrc~iculii tuuticopsis,"}],"coordinates":[{"x":"50.24","y":"177.65"},{"x":"139.31","y":"183.28"}],"confidence":{"state":"pre-added","who":["user:ICTAR"],"prob":1},"fields":{},"normalizations":{"n_75":{"source":{"name":"AlgaeNames","id":"namuti","url":null},"recName":"","confidence":{"state":"pre-added","who":["user:ICTAR"],"prob":1}}}},{"classId":"e_40","part":"s24v1","offsets":[{"start":980,"text":"N .  cnyptocephala"}],"coordinates":[{"x":"145.70","y":"176.78"},{"x":"217.80","y":"183.28"}],"confidence":{"state":"pre-added","who":["user:ICTAR"],"prob":1},"fields":{},"normalizations":{"n_75":{"source":{"name":"AlgaeNames","id":"nacryp","url":null},"recName":"","confidence":{"state":"pre-added","who":["user:ICTAR"],"prob":1}}}},{"classId":"e_40","part":"s24v1","offsets":[{"start":1000,"text":"Stnuroneis crnceps"}],"coordinates":[{"x":"225.10","y":"176.84"},{"x":"304.43","y":"183.28"}],"confidence":{"state":"pre-added","who":["user:ICTAR"],"prob":1},"fields":{},"normalizations":{"n_75":{"source":{"name":"AlgaeNames","id":"stance","url":null},"recName":"","confidence":{"state":"pre-added","who":["user:ICTAR"],"prob":1}}}},{"classId":"e_40","part":"s24v1","offsets":[{"start":1023,"text":"Tabellaricr sp"}],"coordinates":[{"x":"332.60","y":"176.72"},{"x":"391.55","y":"183.28"}],"confidence":{"state":"pre-added","who":["user:ICTAR"],"prob":1},"fields":{},"normalizations":{"n_75":{"source":{"name":"AlgaeNames","id":"tabesp","url":null},"recName":"","confidence":{"state":"pre-added","who":["user:ICTAR"],"prob":1}}}},{"classId":"e_4","part":"s24v1","offsets":[{"start":1174,"text":"Kort hwn Rookery"}],"coordinates":[{"x":"79.20","y":"208.99"},{"x":"161.67","y":"215.18"}],"confidence":{"state":"pre-added","who":["user:charlesklee"],"prob":1},"fields":{},"normalizations":{"n_52":{"source":{"name":"GeoNamesCustom","id":"CKL009","url":null},"recName":"","confidence":{"state":"pre-added","who":["user:charlesklee"],"prob":1}}}},{"classId":"e_41","part":"s24v1","offsets":[{"start":1377,"text":"Phormidium cf. coriu771"}],"coordinates":[{"x":"204.20","y":"230.48"},{"x":"307.95","y":"236.98"}],"confidence":{"state":"pre-added","who":["user:ICTAR"],"prob":1},"fields":{},"normalizations":{"n_55":{"source":{"name":"CyanobacteriaNames","id":"phcori","url":null},"recName":"","confidence":{"state":"pre-added","who":["user:ICTAR"],"prob":1}}}},{"classId":"e_41","part":"s24v1","offsets":[{"start":1402,"text":"P .  friqiduni"}],"coordinates":[{"x":"315.80","y":"230.67"},{"x":"364.48","y":"236.98"}],"confidence":{"state":"pre-added","who":["user:ICTAR"],"prob":1},"fields":{},"normalizations":{"n_55":{"source":{"name":"CyanobacteriaNames","id":"phfrig","url":null},"recName":"","confidence":{"state":"pre-added","who":["user:ICTAR"],"prob":1}}}},{"classId":"e_40","part":"s24v1","offsets":[{"start":1418,"text":"Binucleccriu"}],"coordinates":[{"x":"373.70","y":"230.42"},{"x":"423.20","y":"236.98"}],"confidence":{"state":"pre-added","who":["user:ICTAR"],"prob":1},"fields":{},"normalizations":{"n_75":{"source":{"name":"AlgaeNames","id":"binusp","url":null},"recName":"","confidence":{"state":"pre-added","who":["user:ICTAR"],"prob":1}}}},{"classId":"e_40","part":"s24v1","offsets":[{"start":1441,"text":"X ( G 1 9  icuZu. rriut icopsis"}],"coordinates":[{"x":"67.40","y":"241.22"},{"x":"153.67","y":"247.78"}],"confidence":{"state":"pre-added","who":["user:ICTAR"],"prob":1},"fields":{},"normalizations":{"n_75":{"source":{"name":"AlgaeNames","id":"namuti","url":null},"recName":"","confidence":{"state":"pre-added","who":["user:ICTAR"],"prob":1}}}},{"classId":"e_41","part":"s24v1","offsets":[{"start":1474,"text":"Gloloeocapsa Euetzing icnna"}],"coordinates":[{"x":"159.60","y":"241.47"},{"x":"263.22","y":"247.78"}],"confidence":{"state":"pre-added","who":["user:ICTAR"],"prob":1},"fields":{},"normalizations":{"n_55":{"source":{"name":"CyanobacteriaNames","id":"gloeku","url":null},"recName":"","confidence":{"state":"pre-added","who":["user:ICTAR"],"prob":1}}}},{"classId":"e_40","part":"s24v1","offsets":[{"start":1506,"text":"8 t i c hococcuts sp ."}],"coordinates":[{"x":"284.90","y":"241.28"},{"x":"352.87","y":"247.78"}],"confidence":{"state":"pre-added","who":["user:ICTAR"],"prob":1},"fields":{},"normalizations":{"n_75":{"source":{"name":"AlgaeNames","id":"sticsp","url":null},"recName":"","confidence":{"state":"pre-added","who":["user:ICTAR"],"prob":1}}}},{"classId":"e_40","part":"s24v1","offsets":[{"start":1624,"text":"Sticho-\n\ncoccus r5imX(irfr"}],"coordinates":[{"x":"395.30","y":"252.44"},{"x":"118.58","y":"269.68"}],"confidence":{"state":"pre-added","who":["user:ICTAR"],"prob":1},"fields":{},"normalizations":{"n_75":{"source":{"name":"AlgaeNames","id":"stbaci","url":null},"recName":"","confidence":{"state":"pre-added","who":["user:ICTAR"],"prob":1}}}},{"classId":"e_41","part":"s24v1","offsets":[{"start":1875,"text":"Ihormidium spp."}],"coordinates":[{"x":"345.40","y":"284.72"},{"x":"421.99","y":"291.28"}],"confidence":{"state":"pre-added","who":["user:ICTAR"],"prob":1},"fields":{},"normalizations":{"n_55":{"source":{"name":"CyanobacteriaNames","id":"phormi","url":null},"recName":"","confidence":{"state":"pre-added","who":["user:ICTAR"],"prob":1}}}},{"classId":"e_4","part":"s24v1","offsets":[{"start":2143,"text":"Fryvxcll Stream"}],"coordinates":[{"x":"357.40","y":"316.99"},{"x":"423.90","y":"323.18"}],"confidence":{"state":"pre-added","who":["user:ICTAR"],"prob":1},"fields":{},"normalizations":{"n_52":{"source":{"name":"GeoNamesCustom","id":"CKL008","url":null},"recName":"","confidence":{"state":"pre-added","who":["user:charlesklee"],"prob":1}}}},{"classId":"e_41","part":"s24v1","offsets":[{"start":2267,"text":"A70stoc sp."}],"coordinates":[{"x":"175.70","y":"338.22"},{"x":"220.28","y":"344.78"}],"confidence":{"state":"pre-added","who":["user:ICTAR"],"prob":1},"fields":{},"normalizations":{"n_55":{"source":{"name":"CyanobacteriaNames","id":"nostoc","url":null},"recName":"","confidence":{"state":"pre-added","who":["user:ICTAR"],"prob":1}}}},{"classId":"e_41","part":"s24v1","offsets":[{"start":2497,"text":"JT. wg i na t us"}],"coordinates":[{"x":"49.40","y":"371.30"},{"x":"103.84","y":"377.18"}],"confidence":{"state":"pre-added","who":["user:ICTAR"],"prob":1},"fields":{},"normalizations":{"n_55":{"source":{"name":"CyanobacteriaNames","id":"micrva","url":null},"recName":"","confidence":{"state":"pre-added","who":["user:ICTAR"],"prob":1}}}},{"classId":"e_41","part":"s24v1","offsets":[{"start":2558,"text":"N ostoc"}],"coordinates":[],"confidence":{"state":"pre-added","who":["ml:dpeker"],"prob":0.6155},"fields":{},"normalizations":{"n_55":{"source":{"name":"CyanobacteriaNames","id":"nostoc","url":null},"recName":"Nostoc","confidence":{"state":"pre-added","who":["ml:dpeker"],"prob":0.6155}}}},{"classId":"e_41","part":"s24v1","offsets":[{"start":2711,"text":"G .  kuetzingianu,"}],"coordinates":[{"x":"219.60","y":"392.52"},{"x":"286.04","y":"399.08"}],"confidence":{"state":"pre-added","who":["user:ICTAR"],"prob":1},"fields":{},"normalizations":{"n_55":{"source":{"name":"CyanobacteriaNames","id":"gloeku","url":null},"recName":"","confidence":{"state":"pre-added","who":["user:ICTAR"],"prob":1}}}},{"classId":"e_41","part":"s24v1","offsets":[{"start":2734,"text":"Schizothrix cf. untarcticu"}],"coordinates":[{"x":"313.20","y":"392.64"},{"x":"421.79","y":"399.08"}],"confidence":{"state":"pre-added","who":["user:ICTAR"],"prob":1},"fields":{},"normalizations":{"n_55":{"source":{"name":"CyanobacteriaNames","id":"scanta","url":null},"recName":"","confidence":{"state":"pre-added","who":["user:ICTAR"],"prob":1}}}},{"classId":"e_41","part":"s24v1","offsets":[{"start":2813,"text":"P. uncinatum"}],"coordinates":[],"confidence":{"state":"pre-added","who":["ml:dpeker"],"prob":0.9416},"fields":{},"normalizations":{"n_55":{"source":{"name":"CyanobacteriaNames","id":"phunci","url":null},"recName":"Phormidium uncinatum","confidence":{"state":"pre-added","who":["ml:dpeker"],"prob":0.9416}}}},{"classId":"e_41","part":"s24v1","offsets":[{"start":2987,"text":"Phorm2iurri\n\n~ ( i ~ ) i ~ i i o S"}],"coordinates":[{"x":"371.80","y":"424.82"},{"x":"95.07","y":"442.18"}],"confidence":{"state":"pre-added","who":["user:ICTAR"],"prob":1},"fields":{},"normalizations":{"n_55":{"source":{"name":"CyanobacteriaNames","id":"phlami","url":null},"recName":"","confidence":{"state":"pre-added","who":["user:ICTAR"],"prob":1}}}},{"classId":"e_4","part":"s24v1","offsets":[{"start":3903,"text":"Onyx River"}],"coordinates":[],"confidence":{"state":"pre-added","who":["ml:dpeker"],"prob":0.9266},"fields":{},"normalizations":{"n_34":{"source":{"name":"GeoNamesSCAR","id":"129676","url":null},"recName":"Onyx River","confidence":{"state":"pre-added","who":["ml:dpeker"],"prob":0.9266}}}},{"classId":"e_4","part":"s25v1","offsets":[{"start":59,"text":"ONYX RIVER"}],"coordinates":[],"confidence":{"state":"pre-added","who":["ml:dpeker"],"prob":0.6023},"fields":{},"normalizations":{"n_34":{"source":{"name":"GeoNamesSCAR","id":"129676","url":null},"recName":"Onyx River","confidence":{"state":"pre-added","who":["ml:dpeker"],"prob":0.6023}}}},{"classId":"e_4","part":"s25v1","offsets":[{"start":84,"text":"ADAMS STREAM"}],"coordinates":[],"confidence":{"state":"pre-added","who":["ml:dpeker"],"prob":0.5885},"fields":{},"normalizations":{"n_34":{"source":{"name":"GeoNamesSCAR","id":"112601","url":null},"recName":"Adams Stream","confidence":{"state":"pre-added","who":["ml:dpeker"],"prob":0.5885}}}},{"classId":"e_4","part":"s25v1","offsets":[{"start":685,"text":"Onyx River"}],"coordinates":[],"confidence":{"state":"pre-added","who":["ml:dpeker"],"prob":0.9266},"fields":{},"normalizations":{"n_34":{"source":{"name":"GeoNamesSCAR","id":"129676","url":null},"recName":"Onyx River","confidence":{"state":"pre-added","who":["ml:dpeker"],"prob":0.9266}}}},{"classId":"e_4","part":"s25v1","offsets":[{"start":707,"text":"Adams Stream"}],"coordinates":[],"confidence":{"state":"pre-added","who":["ml:dpeker"],"prob":0.9416},"fields":{},"normalizations":{"n_34":{"source":{"name":"GeoNamesSCAR","id":"112601","url":null},"recName":"Adams Stream","confidence":{"state":"pre-added","who":["ml:dpeker"],"prob":0.9416}}}},{"classId":"e_4","part":"s26v1","offsets":[{"start":181,"text":"Onyx river"}],"coordinates":[],"confidence":{"state":"pre-added","who":["ml:dpeker"],"prob":0.8803},"fields":{},"normalizations":{"n_34":{"source":{"name":"GeoNamesSCAR","id":"129676","url":null},"recName":"Onyx River","confidence":{"state":"pre-added","who":["ml:dpeker"],"prob":0.8803}}}},{"classId":"e_40","part":"s26v1","offsets":[{"start":530,"text":"Stauroneis anaeps"}],"coordinates":[{"x":"383.00","y":"138.95"},{"x":"338.55","y":"154.48"}],"confidence":{"state":"pre-added","who":["user:ICTAR"],"prob":1},"fields":{},"normalizations":{"n_75":{"source":{"name":"AlgaeNames","id":"stance","url":null},"recName":"","confidence":{"state":"pre-added","who":["user:ICTAR"],"prob":1}}}},{"classId":"e_40","part":"s26v1","offsets":[{"start":549,"text":"Naeicula muticopsis"}],"coordinates":[{"x":"344.90","y":"148.85"},{"x":"421.83","y":"154.48"}],"confidence":{"state":"pre-added","who":["user:ICTAR"],"prob":1},"fields":{},"normalizations":{"n_75":{"source":{"name":"AlgaeNames","id":"namuti","url":null},"recName":"","confidence":{"state":"pre-added","who":["user:ICTAR"],"prob":1}}}},{"classId":"e_41","part":"s26v1","offsets":[{"start":582,"text":"Phormidium lamino-\n\nsum"}],"coordinates":[],"confidence":{"state":"pre-added","who":["ml:dpeker"],"prob":0.8575},"fields":{},"normalizations":{"n_55":{"source":{"name":"CyanobacteriaNames","id":"phlami","url":null},"recName":"Phormidium laminosum","confidence":{"state":"pre-added","who":["ml:dpeker"],"prob":0.8575}}}},{"classId":"e_41","part":"s26v1","offsets":[{"start":611,"text":"P .  frigidum"}],"coordinates":[{"x":"352.60","y":"182.15"},{"x":"395.74","y":"187.78"}],"confidence":{"state":"pre-added","who":["user:ICTAR"],"prob":1},"fields":{},"normalizations":{"n_55":{"source":{"name":"CyanobacteriaNames","id":"phfrig","url":null},"recName":"","confidence":{"state":"pre-added","who":["user:ICTAR"],"prob":1}}}},{"classId":"e_40","part":"s26v1","offsets":[{"start":659,"text":"N .  cryptooephala"}],"coordinates":[{"x":"340.30","y":"201.80"},{"x":"402.76","y":"207.68"}],"confidence":{"state":"pre-added","who":["user:ICTAR"],"prob":1},"fields":{},"normalizations":{"n_75":{"source":{"name":"AlgaeNames","id":"nacryp","url":null},"recName":"","confidence":{"state":"pre-added","who":["user:ICTAR"],"prob":1}}}},{"classId":"e_40","part":"s26v1","offsets":[{"start":679,"text":"Huntzschk amphyoxys"}],"coordinates":[{"x":"314.60","y":"211.47"},{"x":"398.65","y":"217.28"}],"confidence":{"state":"pre-added","who":["user:ICTAR"],"prob":1},"fields":{},"normalizations":{"n_75":{"source":{"name":"AlgaeNames","id":"haamph","url":null},"recName":"","confidence":{"state":"pre-added","who":["user:ICTAR"],"prob":1}}}},{"classId":"e_41","part":"s26v1","offsets":[{"start":708,"text":"Phormidium frigi- durn"}],"coordinates":[{"x":"344.20","y":"225.85"},{"x":"331.61","y":"241.08"}],"confidence":{"state":"pre-added","who":["user:ICTAR"],"prob":1},"fields":{},"normalizations":{"n_55":{"source":{"name":"CyanobacteriaNames","id":"phfrig","url":null},"recName":"","confidence":{"state":"pre-added","who":["user:ICTAR"],"prob":1}}}},{"classId":"e_41","part":"s26v1","offsets":[{"start":736,"text":"P .  laminosum"}],"coordinates":[{"x":"355.20","y":"235.20"},{"x":"406.36","y":"241.08"}],"confidence":{"state":"pre-added","who":["user:ICTAR"],"prob":1},"fields":{},"normalizations":{"n_55":{"source":{"name":"CyanobacteriaNames","id":"phlami","url":null},"recName":"","confidence":{"state":"pre-added","who":["user:ICTAR"],"prob":1}}}},{"classId":"e_40","part":"s26v1","offsets":[{"start":778,"text":"N. muticopsis,"}],"coordinates":[{"x":"314.20","y":"254.92"},{"x":"366.96","y":"260.48"}],"confidence":{"state":"pre-added","who":["user:ICTAR"],"prob":1},"fields":{},"normalizations":{"n_75":{"source":{"name":"AlgaeNames","id":"namuti","url":null},"recName":"","confidence":{"state":"pre-added","who":["user:ICTAR"],"prob":1}}}},{"classId":"e_40","part":"s26v1","offsets":[{"start":793,"text":"8urirella angmtata"}],"coordinates":[{"x":"370.30","y":"254.85"},{"x":"349.66","y":"270.09"}],"confidence":{"state":"pre-added","who":["user:ICTAR"],"prob":1},"fields":{},"normalizations":{"n_75":{"source":{"name":"AlgaeNames","id":"suangu","url":null},"recName":"","confidence":{"state":"pre-added","who":["user:ICTAR"],"prob":1}}}},{"classId":"e_41","part":"s26v1","offsets":[{"start":812,"text":"Phormidium laminosum"}],"coordinates":[],"confidence":{"state":"pre-added","who":["ml:dpeker"],"prob":0.9692},"fields":{},"normalizations":{"n_55":{"source":{"name":"CyanobacteriaNames","id":"phlami","url":null},"recName":"Phormidium laminosum","confidence":{"state":"pre-added","who":["ml:dpeker"],"prob":0.9692}}}},{"classId":"e_41","part":"s26v1","offsets":[{"start":837,"text":"P .  /rigidurn"}],"coordinates":[{"x":"314.60","y":"287.80"},{"x":"358.41","y":"293.68"}],"confidence":{"state":"pre-added","who":["user:ICTAR"],"prob":1},"fields":{},"normalizations":{"n_55":{"source":{"name":"CyanobacteriaNames","id":"phfrig","url":null},"recName":"","confidence":{"state":"pre-added","who":["user:ICTAR"],"prob":1}}}},{"classId":"e_40","part":"s26v1","offsets":[{"start":877,"text":"N .  muticopsis"}],"coordinates":[{"x":"369.10","y":"297.85"},{"x":"419.63","y":"303.48"}],"confidence":{"state":"pre-added","who":["user:ICTAR"],"prob":1},"fields":{},"normalizations":{"n_75":{"source":{"name":"AlgaeNames","id":"namuti","url":null},"recName":"","confidence":{"state":"pre-added","who":["user:ICTAR"],"prob":1}}}},{"classId":"e_40","part":"s26v1","offsets":[{"start":894,"text":"N .  cryptocephala"}],"coordinates":[{"x":"314.40","y":"307.20"},{"x":"378.02","y":"313.08"}],"confidence":{"state":"pre-added","who":["user:ICTAR"],"prob":1},"fields":{},"normalizations":{"n_75":{"source":{"name":"AlgaeNames","id":"nacryp","url":null},"recName":"","confidence":{"state":"pre-added","who":["user:ICTAR"],"prob":1}}}},{"classId":"e_40","part":"s26v1","offsets":[{"start":914,"text":"H .  amphy- oxys"}],"coordinates":[],"confidence":{"state":"pre-added","who":["ml:dpeker"],"prob":0.5708},"fields":{},"normalizations":{"n_75":{"source":{"name":"AlgaeNames","id":"haamph","url":null},"recName":"Hantzschia amphioxys","confidence":{"state":"pre-added","who":["ml:dpeker"],"prob":0.5708}}}},{"classId":"e_40","part":"s26v1","offsets":[{"start":932,"text":"Tabellaria."}],"coordinates":[{"x":"337.20","y":"317.55"},{"x":"377.00","y":"323.18"}],"confidence":{"state":"pre-added","who":["user:ICTAR"],"prob":1},"fields":{},"normalizations":{"n_75":{"source":{"name":"AlgaeNames","id":"tabesp","url":null},"recName":"","confidence":{"state":"pre-added","who":["user:ICTAR"],"prob":1}}}},{"classId":"e_4","part":"s26v1","offsets":[{"start":990,"text":"Onyx River"}],"coordinates":[],"confidence":{"state":"pre-added","who":["ml:dpeker"],"prob":0.9266},"fields":{},"normalizations":{"n_34":{"source":{"name":"GeoNamesSCAR","id":"129676","url":null},"recName":"Onyx River","confidence":{"state":"pre-added","who":["ml:dpeker"],"prob":0.9266}}}},{"classId":"e_41","part":"s26v1","offsets":[{"start":2301,"text":"Nos;toc"}],"coordinates":[],"confidence":{"state":"pre-added","who":["ml:dpeker"],"prob":0.7816},"fields":{},"normalizations":{"n_55":{"source":{"name":"CyanobacteriaNames","id":"nostoc","url":null},"recName":"Nostoc","confidence":{"state":"pre-added","who":["ml:dpeker"],"prob":0.7816}}}},{"classId":"e_4","part":"s26v1","offsets":[{"start":2329,"text":"Adams Stream"}],"coordinates":[],"confidence":{"state":"pre-added","who":["ml:dpeker"],"prob":0.9416},"fields":{},"normalizations":{"n_34":{"source":{"name":"GeoNamesSCAR","id":"112601","url":null},"recName":"Adams Stream","confidence":{"state":"pre-added","who":["ml:dpeker"],"prob":0.9416}}}},{"classId":"e_4","part":"s26v1","offsets":[{"start":2343,"text":"Fryxell Stream"}],"coordinates":[{"x":"391.20","y":"512.17"},{"x":"79.34","y":"529.28"}],"confidence":{"state":"pre-added","who":["user:ICTAR"],"prob":1},"fields":{},"normalizations":{"n_52":{"source":{"name":"GeoNamesCustom","id":"CKL008","url":null},"recName":"","confidence":{"state":"pre-added","who":["user:charlesklee"],"prob":1}}}},{"classId":"e_4","part":"s26v1","offsets":[{"start":2598,"text":"Onyx River"}],"coordinates":[],"confidence":{"state":"pre-added","who":["ml:dpeker"],"prob":0.9266},"fields":{},"normalizations":{"n_34":{"source":{"name":"GeoNamesSCAR","id":"129676","url":null},"recName":"Onyx River","confidence":{"state":"pre-added","who":["ml:dpeker"],"prob":0.9266}}}},{"classId":"e_4","part":"s27v1","offsets":[{"start":37,"text":"ONYX RIVER"}],"coordinates":[],"confidence":{"state":"pre-added","who":["ml:dpeker"],"prob":0.6023},"fields":{},"normalizations":{"n_34":{"source":{"name":"GeoNamesSCAR","id":"129676","url":null},"recName":"Onyx River","confidence":{"state":"pre-added","who":["ml:dpeker"],"prob":0.6023}}}},{"classId":"e_4","part":"s27v1","offsets":[{"start":264,"text":"Onyx River"}],"coordinates":[],"confidence":{"state":"pre-added","who":["ml:dpeker"],"prob":0.9266},"fields":{},"normalizations":{"n_34":{"source":{"name":"GeoNamesSCAR","id":"129676","url":null},"recName":"Onyx River","confidence":{"state":"pre-added","who":["ml:dpeker"],"prob":0.9266}}}},{"classId":"e_4","part":"s27v1","offsets":[{"start":303,"text":"Adams Stream"}],"coordinates":[],"confidence":{"state":"pre-added","who":["ml:dpeker"],"prob":0.9416},"fields":{},"normalizations":{"n_34":{"source":{"name":"GeoNamesSCAR","id":"112601","url":null},"recName":"Adams Stream","confidence":{"state":"pre-added","who":["ml:dpeker"],"prob":0.9416}}}},{"classId":"e_4","part":"s27v1","offsets":[{"start":1529,"text":"Adams stream"}],"coordinates":[],"confidence":{"state":"pre-added","who":["ml:dpeker"],"prob":0.9024},"fields":{},"normalizations":{"n_34":{"source":{"name":"GeoNamesSCAR","id":"112601","url":null},"recName":"Adams Stream","confidence":{"state":"pre-added","who":["ml:dpeker"],"prob":0.9024}}}},{"classId":"e_4","part":"s28v1","offsets":[{"start":166,"text":"Adams glacier"}],"coordinates":[],"confidence":{"state":"pre-added","who":["ml:dpeker"],"prob":0.9107},"fields":{},"normalizations":{"n_34":{"source":{"name":"GeoNamesSCAR","id":"121576","url":null},"recName":"Adams Glacier","confidence":{"state":"pre-added","who":["ml:dpeker"],"prob":0.9107}}}},{"classId":"e_41","part":"s28v1","offsets":[{"start":370,"text":"Phormidiumef. corium"}],"coordinates":[{"x":"290.20","y":"127.40"},{"x":"227.40","y":"143.18"}],"confidence":{"state":"pre-added","who":["user:ICTAR"],"prob":1},"fields":{},"normalizations":{"n_55":{"source":{"name":"CyanobacteriaNames","id":"phcori","url":null},"recName":"","confidence":{"state":"pre-added","who":["user:ICTAR"],"prob":1}}}},{"classId":"e_41","part":"s28v1","offsets":[{"start":392,"text":"Oscillatoria sancta"}],"coordinates":[{"x":"231.80","y":"137.49"},{"x":"300.01","y":"143.18"}],"confidence":{"state":"pre-added","who":["user:ICTAR"],"prob":1},"fields":{},"normalizations":{"n_55":{"source":{"name":"CyanobacteriaNames","id":"ossanc","url":null},"recName":"","confidence":{"state":"pre-added","who":["user:ICTAR"],"prob":1}}}},{"classId":"e_40","part":"s28v1","offsets":[{"start":416,"text":"Chlorosar- cimpsis"}],"coordinates":[{"x":"319.70","y":"137.49"},{"x":"232.09","y":"153.28"}],"confidence":{"state":"pre-added","who":["user:ICTAR"],"prob":1},"fields":{},"normalizations":{"n_75":{"source":{"name":"AlgaeNames","id":"chlosp","url":null},"recName":"","confidence":{"state":"pre-added","who":["user:ICTAR"],"prob":1}}}},{"classId":"e_41","part":"s28v1","offsets":[{"start":533,"text":"Phormidium spp"}],"coordinates":[],"confidence":{"state":"pre-added","who":["ml:dpeker"],"prob":0.9106},"fields":{},"normalizations":{"n_55":{"source":{"name":"CyanobacteriaNames","id":"phormi","url":null},"recName":"Phormidium spp.","confidence":{"state":"pre-added","who":["ml:dpeker"],"prob":0.9106}}}},{"classId":"e_41","part":"s28v1","offsets":[{"start":569,"text":"Nostoc Commune"}],"coordinates":[],"confidence":{"state":"pre-added","who":["ml:dpeker"],"prob":0.9178},"fields":{},"normalizations":{"n_55":{"source":{"name":"CyanobacteriaNames","id":"nostoc","url":null},"recName":"Nostoc","confidence":{"state":"pre-added","who":["ml:dpeker"],"prob":0.9178}}}},{"classId":"e_41","part":"s28v1","offsets":[{"start":630,"text":"N .  fuscescens"}],"coordinates":[{"x":"244.10","y":"195.10"},{"x":"293.57","y":"200.98"}],"confidence":{"state":"pre-added","who":["user:ICTAR"],"prob":1},"fields":{},"normalizations":{"n_55":{"source":{"name":"CyanobacteriaNames","id":"nofusc","url":null},"recName":"","confidence":{"state":"pre-added","who":["user:ICTAR"],"prob":1}}}},{"classId":"e_41","part":"s28v1","offsets":[{"start":668,"text":"Gloeocapa kuetzingiana"}],"coordinates":[{"x":"287.80","y":"209.19"},{"x":"251.35","y":"224.78"}],"confidence":{"state":"pre-added","who":["user:ICTAR"],"prob":1},"fields":{},"normalizations":{"n_55":{"source":{"name":"CyanobacteriaNames","id":"gloeku","url":null},"recName":"","confidence":{"state":"pre-added","who":["user:ICTAR"],"prob":1}}}},{"classId":"e_40","part":"s28v1","offsets":[{"start":692,"text":"Binzlclearia"}],"coordinates":[{"x":"255.10","y":"219.09"},{"x":"299.61","y":"224.78"}],"confidence":{"state":"pre-added","who":["user:ICTAR"],"prob":1},"fields":{},"normalizations":{"n_75":{"source":{"name":"AlgaeNames","id":"binusp","url":null},"recName":"","confidence":{"state":"pre-added","who":["user:ICTAR"],"prob":1}}}},{"classId":"e_41","part":"s28v1","offsets":[{"start":755,"text":"Phorrnidium frigidurn"}],"coordinates":[{"x":"202.30","y":"252.69"},{"x":"285.67","y":"258.38"}],"confidence":{"state":"pre-added","who":["user:ICTAR"],"prob":1},"fields":{},"normalizations":{"n_55":{"source":{"name":"CyanobacteriaNames","id":"phfrig","url":null},"recName":"","confidence":{"state":"pre-added","who":["user:ICTAR"],"prob":1}}}},{"classId":"e_40","part":"s28v1","offsets":[{"start":798,"text":"Hantzschia"}],"coordinates":[{"x":"217.90","y":"262.29"},{"x":"260.38","y":"267.98"}],"confidence":{"state":"pre-added","who":["user:ICTAR"],"prob":1},"fields":{},"normalizations":{"n_75":{"source":{"name":"AlgaeNames","id":"hantsp","url":null},"recName":"","confidence":{"state":"pre-added","who":["user:ICTAR"],"prob":1}}}},{"classId":"e_40","part":"s28v1","offsets":[{"start":810,"text":"Navicula"}],"coordinates":[{"x":"264.20","y":"262.29"},{"x":"298.07","y":"267.98"}],"confidence":{"state":"pre-added","who":["user:ICTAR"],"prob":1},"fields":{},"normalizations":{"n_75":{"source":{"name":"AlgaeNames","id":"navisp","url":null},"recName":"","confidence":{"state":"pre-added","who":["user:ICTAR"],"prob":1}}}},{"classId":"e_41","part":"s28v1","offsets":[{"start":912,"text":"sancta"}],"coordinates":[{"x":"201.60","y":"242.79"},{"x":"225.41","y":"248.48"}],"confidence":{"state":"pre-added","who":["user:ICTAR"],"prob":1},"fields":{},"normalizations":{"n_55":{"source":{"name":"CyanobacteriaNames","id":"ossanc","url":null},"recName":"","confidence":{"state":"pre-added","who":["user:ICTAR"],"prob":1}}}},{"classId":"e_41","part":"s28v1","offsets":[{"start":920,"text":"Microcoleus vaginatus"}],"coordinates":[],"confidence":{"state":"pre-added","who":["ml:dpeker"],"prob":0.971},"fields":{},"normalizations":{"n_55":{"source":{"name":"CyanobacteriaNames","id":"micrva","url":null},"recName":"Microcoleus vaginatus","confidence":{"state":"pre-added","who":["ml:dpeker"],"prob":0.971}}}},{"classId":"e_4","part":"s29v1","offsets":[{"start":767,"text":"days"}],"coordinates":[],"confidence":{"state":"pre-added","who":["ml:dpeker"],"prob":0.4836},"fields":{},"normalizations":{"n_34":{"source":{"name":"GeoNamesSCAR","id":"124046","url":null},"recName":"Dais","confidence":{"state":"pre-added","who":["ml:dpeker"],"prob":0.4836}}}},{"classId":"e_4","part":"s30v1","offsets":[{"start":411,"text":"Onyx River"}],"coordinates":[],"confidence":{"state":"pre-added","who":["ml:dpeker"],"prob":0.9266},"fields":{},"normalizations":{"n_34":{"source":{"name":"GeoNamesSCAR","id":"129676","url":null},"recName":"Onyx River","confidence":{"state":"pre-added","who":["ml:dpeker"],"prob":0.9266}}}},{"classId":"e_4","part":"s30v1","offsets":[{"start":1917,"text":"Northern Rookery"}],"coordinates":[{"x":"381.10","y":"295.33"},{"x":"82.17","y":"312.38"}],"confidence":{"state":"pre-added","who":["user:ICTAR"],"prob":1},"fields":{},"normalizations":{"n_52":{"source":{"name":"GeoNamesCustom","id":"CKL009","url":null},"recName":"","confidence":{"state":"pre-added","who":["user:charlesklee"],"prob":1}}}},{"classId":"e_47","part":"s30v1","offsets":[{"start":2182,"text":"it is note- worthy that  this stream, with its high nutrient concentrations, supported no signifi- cant algal growth"}],"coordinates":[{"x":"379.40","y":"327.43"},{"x":"122.91","y":"354.88"}],"confidence":{"state":"pre-added","who":["user:ICTAR"],"prob":1},"fields":{},"normalizations":{}},{"classId":"e_47","part":"s30v1","offsets":[{"start":2313,"text":"the Adams stream had fairly low nutrient levels and was biologically very rich."}],"coordinates":[{"x":"186.00","y":"348.63"},{"x":"160.79","y":"365.68"}],"confidence":{"state":"pre-added","who":["user:ICTAR"],"prob":1},"fields":{},"normalizations":{}},{"classId":"e_4","part":"s30v1","offsets":[{"start":2317,"text":"Adams stream"}],"coordinates":[],"confidence":{"state":"pre-added","who":["ml:dpeker"],"prob":0.9024},"fields":{},"normalizations":{"n_34":{"source":{"name":"GeoNamesSCAR","id":"112601","url":null},"recName":"Adams Stream","confidence":{"state":"pre-added","who":["ml:dpeker"],"prob":0.9024}}}},{"classId":"e_47","part":"s30v1","offsets":[{"start":2517,"text":"Streambed stability and  the amount of suspended sediments which scour the periphyton are apparently the major physical factors affecting algal growth."}],"coordinates":[{"x":"332.90","y":"370.23"},{"x":"271.91","y":"398.08"}],"confidence":{"state":"pre-added","who":["user:ICTAR"],"prob":1},"fields":{},"normalizations":{}},{"classId":"e_47","part":"s30v1","offsets":[{"start":2758,"text":"turbid streanis were largely devoid of algae while all clear waters had abundant growth"}],"coordinates":[{"x":"300.20","y":"402.83"},{"x":"313.90","y":"419.88"}],"confidence":{"state":"pre-added","who":["user:ICTAR"],"prob":1},"fields":{},"normalizations":{}},{"classId":"e_47","part":"s30v1","offsets":[{"start":2920,"text":"there was an  inverse correlation between algal biomass accumulation and maximum suspended sediment load"}],"coordinates":[{"x":"274.29","y":"424.43"},{"x":"394.33","y":"441.28"}],"confidence":{"state":"pre-added","who":["user:ICTAR"],"prob":1},"fields":{},"normalizations":{}},{"classId":"e_47","part":"s31v1","offsets":[{"start":118,"text":"Cyano- phyceans are known to be highly resistant to freezing stresses (DUBOISand KAWTSKA 1983) which could confer an advantage over other groups of algae."}],"coordinates":[{"x":"380.86","y":"57.35"},{"x":"353.87","y":"85.00"}],"confidence":{"state":"pre-added","who":["user:ICTAR"],"prob":1},"fields":{},"normalizations":{}},{"classId":"e_47","part":"s31v1","offsets":[{"start":273,"text":"The diatom flora of the streams is certainly impoverished relative to that in the benthos of the adjacent dry valley lakes where freezing would not occur"}],"coordinates":[{"x":"359.26","y":"78.75"},{"x":"309.24","y":"106.80"}],"confidence":{"state":"pre-added","who":["user:ICTAR"],"prob":1},"fields":{},"normalizations":{}},{"classId":"e_41","part":"s31v1","offsets":[{"start":774,"text":"Nostoc"}],"coordinates":[],"confidence":{"state":"pre-added","who":["ml:dpeker"],"prob":0.8617},"fields":{},"normalizations":{"n_55":{"source":{"name":"CyanobacteriaNames","id":"nostoc","url":null},"recName":"Nostoc","confidence":{"state":"pre-added","who":["ml:dpeker"],"prob":0.8617}}}},{"classId":"e_4","part":"s31v1","offsets":[{"start":936,"text":"Taylor Valley"}],"coordinates":[],"confidence":{"state":"pre-added","who":["ml:dpeker"],"prob":0.9472},"fields":{},"normalizations":{"n_34":{"source":{"name":"GeoNamesSCAR","id":"132512","url":null},"recName":"Taylor Valley","confidence":{"state":"pre-added","who":["ml:dpeker"],"prob":0.9472}}}},{"classId":"e_4","part":"s31v1","offsets":[{"start":2063,"text":"McMurdo Sound"}],"coordinates":[],"confidence":{"state":"pre-added","who":["ml:dpeker"],"prob":0.9472},"fields":{},"normalizations":{"n_34":{"source":{"name":"GeoNamesSCAR","id":"128724","url":null},"recName":"McMurdo Sound","confidence":{"state":"pre-added","who":["ml:dpeker"],"prob":0.9472}}}},{"classId":"e_4","part":"s31v1","offsets":[{"start":2401,"text":"Onyx River"}],"coordinates":[],"confidence":{"state":"pre-added","who":["ml:dpeker"],"prob":0.9266},"fields":{},"normalizations":{"n_34":{"source":{"name":"GeoNamesSCAR","id":"129676","url":null},"recName":"Onyx River","confidence":{"state":"pre-added","who":["ml:dpeker"],"prob":0.9266}}}},{"classId":"e_41","part":"s32v1","offsets":[{"start":45,"text":"Nostoc"}],"coordinates":[],"confidence":{"state":"pre-added","who":["ml:dpeker"],"prob":0.8617},"fields":{},"normalizations":{"n_55":{"source":{"name":"CyanobacteriaNames","id":"nostoc","url":null},"recName":"Nostoc","confidence":{"state":"pre-added","who":["ml:dpeker"],"prob":0.8617}}}},{"classId":"e_4","part":"s32v1","offsets":[{"start":1042,"text":"Onyx River"}],"coordinates":[],"confidence":{"state":"pre-added","who":["ml:dpeker"],"prob":0.9266},"fields":{},"normalizations":{"n_34":{"source":{"name":"GeoNamesSCAR","id":"129676","url":null},"recName":"Onyx River","confidence":{"state":"pre-added","who":["ml:dpeker"],"prob":0.9266}}}},{"classId":"e_4","part":"s32v1","offsets":[{"start":1245,"text":"Onyx River"}],"coordinates":[],"confidence":{"state":"pre-added","who":["ml:dpeker"],"prob":0.9266},"fields":{},"normalizations":{"n_34":{"source":{"name":"GeoNamesSCAR","id":"129676","url":null},"recName":"Onyx River","confidence":{"state":"pre-added","who":["ml:dpeker"],"prob":0.9266}}}},{"classId":"e_4","part":"s32v1","offsets":[{"start":1956,"text":"Cape Bird"}],"coordinates":[],"confidence":{"state":"pre-added","who":["ml:dpeker"],"prob":0.9163},"fields":{},"normalizations":{"n_34":{"source":{"name":"GeoNamesSCAR","id":"122545","url":null},"recName":"Bird, Cape","confidence":{"state":"pre-added","who":["ml:dpeker"],"prob":0.9163}}}},{"classId":"e_4","part":"s32v1","offsets":[{"start":1967,"text":"Ross Island"}],"coordinates":[],"confidence":{"state":"pre-added","who":["ml:dpeker"],"prob":0.9349},"fields":{},"normalizations":{"n_34":{"source":{"name":"GeoNamesSCAR","id":"130958","url":null},"recName":"Ross Island","confidence":{"state":"pre-added","who":["ml:dpeker"],"prob":0.9349}}}},{"classId":"e_4","part":"s32v1","offsets":[{"start":1983,"text":"Taylor Valley"}],"coordinates":[],"confidence":{"state":"pre-added","who":["ml:dpeker"],"prob":0.9472},"fields":{},"normalizations":{"n_34":{"source":{"name":"GeoNamesSCAR","id":"132512","url":null},"recName":"Taylor Valley","confidence":{"state":"pre-added","who":["ml:dpeker"],"prob":0.9472}}}},{"classId":"e_4","part":"s32v1","offsets":[{"start":2164,"text":"Taylor Valley"}],"coordinates":[],"confidence":{"state":"pre-added","who":["ml:dpeker"],"prob":0.9472},"fields":{},"normalizations":{"n_34":{"source":{"name":"GeoNamesSCAR","id":"132512","url":null},"recName":"Taylor Valley","confidence":{"state":"pre-added","who":["ml:dpeker"],"prob":0.9472}}}},{"classId":"e_4","part":"s32v1","offsets":[{"start":2321,"text":"Lake Vanda"}],"coordinates":[],"confidence":{"state":"pre-added","who":["ml:dpeker"],"prob":0.9266},"fields":{},"normalizations":{"n_34":{"source":{"name":"GeoNamesSCAR","id":"133142","url":null},"recName":"Vanda, Lake","confidence":{"state":"pre-added","who":["ml:dpeker"],"prob":0.9266}}}},{"classId":"e_4","part":"s33v1","offsets":[{"start":1463,"text":"Lake Bonney"}],"coordinates":[],"confidence":{"state":"pre-added","who":["ml:dpeker"],"prob":0.9349},"fields":{},"normalizations":{"n_34":{"source":{"name":"GeoNamesSCAR","id":"122715","url":null},"recName":"Bonney, Lake","confidence":{"state":"pre-added","who":["ml:dpeker"],"prob":0.9349}}}},{"classId":"e_4","part":"s33v1","offsets":[{"start":2846,"text":"Onyx River"}],"coordinates":[],"confidence":{"state":"pre-added","who":["ml:dpeker"],"prob":0.9266},"fields":{},"normalizations":{"n_34":{"source":{"name":"GeoNamesSCAR","id":"129676","url":null},"recName":"Onyx River","confidence":{"state":"pre-added","who":["ml:dpeker"],"prob":0.9266}}}},{"classId":"e_4","part":"s33v1","offsets":[{"start":2865,"text":"McMurdo Sound"}],"coordinates":[],"confidence":{"state":"pre-added","who":["ml:dpeker"],"prob":0.9472},"fields":{},"normalizations":{"n_34":{"source":{"name":"GeoNamesSCAR","id":"128724","url":null},"recName":"McMurdo Sound","confidence":{"state":"pre-added","who":["ml:dpeker"],"prob":0.9472}}}}],"relations":[{"classId":"r_71","type":"linked","directed":false,"entities":["s22v1|e_40|2491,2509","s22v1|e_4|1830,1845"],"confidence":{"state":"pre-added","who":["user:ICTAR"],"prob":1}},{"classId":"r_71","type":"linked","directed":false,"entities":["s22v1|e_40|2540,2550","s22v1|e_4|1830,1845"],"confidence":{"state":"pre-added","who":["user:ICTAR"],"prob":1}},{"classId":"r_71","type":"linked","directed":false,"entities":["s22v1|e_40|2756,2776","s22v1|e_4|1830,1845"],"confidence":{"state":"pre-added","who":["user:ICTAR"],"prob":1}},{"classId":"r_71","type":"linked","directed":false,"entities":["s22v1|e_40|2779,2792","s22v1|e_4|1830,1845"],"confidence":{"state":"pre-added","who":["user:ICTAR"],"prob":1}},{"classId":"r_71","type":"linked","directed":false,"entities":["s23v1|e_40|153,172","s23v1|e_4|721,732"],"confidence":{"state":"pre-added","who":["user:ICTAR"],"prob":1}},{"classId":"r_71","type":"linked","directed":false,"entities":["s23v1|e_40|178,190","s23v1|e_4|721,732"],"confidence":{"state":"pre-added","who":["user:ICTAR"],"prob":1}},{"classId":"r_71","type":"linked","directed":false,"entities":["s23v1|e_40|220,234","s23v1|e_4|721,732"],"confidence":{"state":"pre-added","who":["user:ICTAR"],"prob":1}},{"classId":"r_71","type":"linked","directed":false,"entities":["s23v1|e_40|248,261","s23v1|e_4|721,732"],"confidence":{"state":"pre-added","who":["user:ICTAR"],"prob":1}},{"classId":"r_71","type":"linked","directed":false,"entities":["s23v1|e_40|357,376","s23v1|e_4|721,732"],"confidence":{"state":"pre-added","who":["user:ICTAR"],"prob":1}},{"classId":"r_71","type":"linked","directed":false,"entities":["s23v1|e_40|382,392","s23v1|e_4|721,732"],"confidence":{"state":"pre-added","who":["user:ICTAR"],"prob":1}},{"classId":"r_71","type":"linked","directed":false,"entities":["s23v1|e_40|614,625","s23v1|e_4|721,732"],"confidence":{"state":"pre-added","who":["user:ICTAR"],"prob":1}},{"classId":"r_71","type":"linked","directed":false,"entities":["s23v1|e_40|943,961","s22v1|e_4|3029,3044"],"confidence":{"state":"pre-added","who":["user:ICTAR"],"prob":1}},{"classId":"r_71","type":"linked","directed":false,"entities":["s23v1|e_40|1654,1673","s23v1|e_4|1454,1472"],"confidence":{"state":"pre-added","who":["user:ICTAR"],"prob":1}},{"classId":"r_71","type":"linked","directed":false,"entities":["s23v1|e_40|1654,1673","s23v1|e_4|1324,1343"],"confidence":{"state":"pre-added","who":["user:ICTAR"],"prob":1}},{"classId":"r_71","type":"linked","directed":false,"entities":["s24v1|e_40|585,614","s24v1|e_4|283,297"],"confidence":{"state":"pre-added","who":["user:ICTAR"],"prob":1}},{"classId":"r_71","type":"linked","directed":false,"entities":["s24v1|e_40|585,614","s24v1|e_4|227,237"],"confidence":{"state":"pre-added","who":["user:ICTAR"],"prob":1}},{"classId":"r_71","type":"linked","directed":false,"entities":["s24v1|e_40|928,948","s24v1|e_4|351,360"],"confidence":{"state":"pre-added","who":["user:ICTAR"],"prob":1}},{"classId":"r_71","type":"linked","directed":false,"entities":["s24v1|e_40|928,948","s24v1|e_4|227,237"],"confidence":{"state":"pre-added","who":["user:ICTAR"],"prob":1}},{"classId":"r_71","type":"linked","directed":false,"entities":["s24v1|e_40|955,978","s24v1|e_4|227,237"],"confidence":{"state":"pre-added","who":["user:ICTAR"],"prob":1}},{"classId":"r_71","type":"linked","directed":false,"entities":["s24v1|e_40|955,978","s24v1|e_4|351,360"],"confidence":{"state":"pre-added","who":["user:ICTAR"],"prob":1}},{"classId":"r_71","type":"linked","directed":false,"entities":["s24v1|e_40|980,997","s24v1|e_4|351,360"],"confidence":{"state":"pre-added","who":["user:ICTAR"],"prob":1}},{"classId":"r_71","type":"linked","directed":false,"entities":["s24v1|e_40|980,997","s24v1|e_4|227,237"],"confidence":{"state":"pre-added","who":["user:ICTAR"],"prob":1}},{"classId":"r_71","type":"linked","directed":false,"entities":["s24v1|e_40|1000,1017","s24v1|e_4|351,360"],"confidence":{"state":"pre-added","who":["user:ICTAR"],"prob":1}},{"classId":"r_71","type":"linked","directed":false,"entities":["s24v1|e_40|1000,1017","s24v1|e_4|227,237"],"confidence":{"state":"pre-added","who":["user:ICTAR"],"prob":1}},{"classId":"r_71","type":"linked","directed":false,"entities":["s24v1|e_40|1023,1036","s24v1|e_4|351,360"],"confidence":{"state":"pre-added","who":["user:ICTAR"],"prob":1}},{"classId":"r_71","type":"linked","directed":false,"entities":["s24v1|e_40|1023,1036","s24v1|e_4|227,237"],"confidence":{"state":"pre-added","who":["user:ICTAR"],"prob":1}},{"classId":"r_71","type":"linked","directed":false,"entities":["s26v1|e_40|530,546","s26v1|e_4|181,190"],"confidence":{"state":"pre-added","who":["user:ICTAR"],"prob":1}},{"classId":"r_71","type":"linked","directed":false,"entities":["s26v1|e_40|549,567","s26v1|e_4|181,190"],"confidence":{"state":"pre-added","who":["user:ICTAR"],"prob":1}},{"classId":"r_71","type":"linked","directed":false,"entities":["s26v1|e_40|659,676","s26v1|e_4|181,190"],"confidence":{"state":"pre-added","who":["user:ICTAR"],"prob":1}},{"classId":"r_71","type":"linked","directed":false,"entities":["s26v1|e_40|679,697","s26v1|e_4|181,190"],"confidence":{"state":"pre-added","who":["user:ICTAR"],"prob":1}},{"classId":"r_71","type":"linked","directed":false,"entities":["s26v1|e_40|778,791","s26v1|e_4|181,190"],"confidence":{"state":"pre-added","who":["user:ICTAR"],"prob":1}},{"classId":"r_71","type":"linked","directed":false,"entities":["s26v1|e_40|793,810","s26v1|e_4|181,190"],"confidence":{"state":"pre-added","who":["user:ICTAR"],"prob":1}},{"classId":"r_71","type":"linked","directed":false,"entities":["s26v1|e_40|877,891","s26v1|e_4|181,190"],"confidence":{"state":"pre-added","who":["user:ICTAR"],"prob":1}},{"classId":"r_71","type":"linked","directed":false,"entities":["s26v1|e_40|894,911","s26v1|e_4|181,190"],"confidence":{"state":"pre-added","who":["user:ICTAR"],"prob":1}},{"classId":"r_71","type":"linked","directed":false,"entities":["s26v1|e_40|914,929","s26v1|e_4|181,190"],"confidence":{"state":"pre-added","who":["user:ICTAR"],"prob":1}},{"classId":"r_71","type":"linked","directed":false,"entities":["s26v1|e_40|932,942","s26v1|e_4|181,190"],"confidence":{"state":"pre-added","who":["user:ICTAR"],"prob":1}},{"classId":"r_71","type":"linked","directed":false,"entities":["s28v1|e_40|416,433","s28v1|e_4|166,178"],"confidence":{"state":"pre-added","who":["user:ICTAR"],"prob":1}},{"classId":"r_71","type":"linked","directed":false,"entities":["s28v1|e_40|692,703","s28v1|e_4|166,178"],"confidence":{"state":"pre-added","who":["user:ICTAR"],"prob":1}},{"classId":"r_71","type":"linked","directed":false,"entities":["s28v1|e_40|798,807","s28v1|e_4|166,178"],"confidence":{"state":"pre-added","who":["user:ICTAR"],"prob":1}},{"classId":"r_71","type":"linked","directed":false,"entities":["s28v1|e_40|810,817","s28v1|e_4|166,178"],"confidence":{"state":"pre-added","who":["user:ICTAR"],"prob":1}},{"classId":"r_72","type":"linked","directed":false,"entities":["s8v1|e_41|1954,1959","s8v1|e_4|1240,1251"],"confidence":{"state":"pre-added","who":["user:ICTAR"],"prob":1}},{"classId":"r_72","type":"linked","directed":false,"entities":["s19v1|e_41|285,297","s19v1|e_4|54,66"],"confidence":{"state":"pre-added","who":["user:ICTAR"],"prob":1}},{"classId":"r_72","type":"linked","directed":false,"entities":["s19v1|e_41|303,322","s19v1|e_4|54,66"],"confidence":{"state":"pre-added","who":["user:ICTAR"],"prob":1}},{"classId":"r_72","type":"linked","directed":false,"entities":["s22v1|e_41|1912,1926","s22v1|e_4|1830,1845"],"confidence":{"state":"pre-added","who":["user:ICTAR"],"prob":1}},{"classId":"r_72","type":"linked","directed":false,"entities":["s22v1|e_41|1941,1956","s22v1|e_4|1830,1845"],"confidence":{"state":"pre-added","who":["user:ICTAR"],"prob":1}},{"classId":"r_72","type":"linked","directed":false,"entities":["s22v1|e_41|2005,2017","s22v1|e_4|1830,1845"],"confidence":{"state":"pre-added","who":["user:ICTAR"],"prob":1}},{"classId":"r_72","type":"linked","directed":false,"entities":["s22v1|e_41|2020,2033","s22v1|e_4|1830,1845"],"confidence":{"state":"pre-added","who":["user:ICTAR"],"prob":1}},{"classId":"r_72","type":"linked","directed":false,"entities":["s22v1|e_41|2044,2056","s22v1|e_4|1830,1845"],"confidence":{"state":"pre-added","who":["user:ICTAR"],"prob":1}},{"classId":"r_72","type":"linked","directed":false,"entities":["s22v1|e_41|2271,2285","s22v1|e_4|1830,1845"],"confidence":{"state":"pre-added","who":["user:ICTAR"],"prob":1}},{"classId":"r_72","type":"linked","directed":false,"entities":["s22v1|e_41|2320,2335","s22v1|e_4|1830,1845"],"confidence":{"state":"pre-added","who":["user:ICTAR"],"prob":1}},{"classId":"r_72","type":"linked","directed":false,"entities":["s22v1|e_41|2358,2373","s22v1|e_4|1830,1845"],"confidence":{"state":"pre-added","who":["user:ICTAR"],"prob":1}},{"classId":"r_72","type":"linked","directed":false,"entities":["s22v1|e_41|3061,3084","s22v1|e_4|3029,3044"],"confidence":{"state":"pre-added","who":["user:ICTAR"],"prob":1}},{"classId":"r_72","type":"linked","directed":false,"entities":["s23v1|e_41|62,75","s23v1|e_4|721,732"],"confidence":{"state":"pre-added","who":["user:ICTAR"],"prob":1}},{"classId":"r_72","type":"linked","directed":false,"entities":["s23v1|e_41|102,110","s23v1|e_4|721,732"],"confidence":{"state":"pre-added","who":["user:ICTAR"],"prob":1}},{"classId":"r_72","type":"linked","directed":false,"entities":["s23v1|e_41|113,132","s23v1|e_4|721,732"],"confidence":{"state":"pre-added","who":["user:ICTAR"],"prob":1}},{"classId":"r_72","type":"linked","directed":false,"entities":["s23v1|e_41|135,146","s23v1|e_4|721,732"],"confidence":{"state":"pre-added","who":["user:ICTAR"],"prob":1}},{"classId":"r_72","type":"linked","directed":false,"entities":["s23v1|e_41|200,212","s23v1|e_4|721,732"],"confidence":{"state":"pre-added","who":["user:ICTAR"],"prob":1}},{"classId":"r_72","type":"linked","directed":false,"entities":["s23v1|e_41|294,308","s23v1|e_4|721,732"],"confidence":{"state":"pre-added","who":["user:ICTAR"],"prob":1}},{"classId":"r_72","type":"linked","directed":false,"entities":["s23v1|e_41|315,330","s23v1|e_4|721,732"],"confidence":{"state":"pre-added","who":["user:ICTAR"],"prob":1}},{"classId":"r_72","type":"linked","directed":false,"entities":["s23v1|e_41|424,437","s23v1|e_4|721,732"],"confidence":{"state":"pre-added","who":["user:ICTAR"],"prob":1}},{"classId":"r_72","type":"linked","directed":false,"entities":["s23v1|e_41|483,501","s23v1|e_4|721,732"],"confidence":{"state":"pre-added","who":["user:ICTAR"],"prob":1}},{"classId":"r_72","type":"linked","directed":false,"entities":["s23v1|e_41|504,512","s23v1|e_4|721,732"],"confidence":{"state":"pre-added","who":["user:ICTAR"],"prob":1}},{"classId":"r_72","type":"linked","directed":false,"entities":["s23v1|e_41|522,535","s23v1|e_4|721,732"],"confidence":{"state":"pre-added","who":["user:ICTAR"],"prob":1}},{"classId":"r_72","type":"linked","directed":false,"entities":["s23v1|e_41|574,589","s23v1|e_4|721,732"],"confidence":{"state":"pre-added","who":["user:ICTAR"],"prob":1}},{"classId":"r_72","type":"linked","directed":false,"entities":["s23v1|e_41|1236,1241","s23v1|e_4|1288,1299"],"confidence":{"state":"pre-added","who":["user:ICTAR"],"prob":1}},{"classId":"r_72","type":"linked","directed":false,"entities":["s23v1|e_41|1517,1535","s23v1|e_4|1454,1472"],"confidence":{"state":"pre-added","who":["user:ICTAR"],"prob":1}},{"classId":"r_72","type":"linked","directed":false,"entities":["s23v1|e_41|1517,1535","s23v1|e_4|1324,1343"],"confidence":{"state":"pre-added","who":["user:ICTAR"],"prob":1}},{"classId":"r_72","type":"linked","directed":false,"entities":["s23v1|e_41|1541,1559","s23v1|e_4|1454,1472"],"confidence":{"state":"pre-added","who":["user:ICTAR"],"prob":1}},{"classId":"r_72","type":"linked","directed":false,"entities":["s23v1|e_41|1541,1559","s23v1|e_4|1324,1343"],"confidence":{"state":"pre-added","who":["user:ICTAR"],"prob":1}},{"classId":"r_72","type":"linked","directed":false,"entities":["s23v1|e_41|1615,1637","s23v1|e_4|1454,1472"],"confidence":{"state":"pre-added","who":["user:ICTAR"],"prob":1}},{"classId":"r_72","type":"linked","directed":false,"entities":["s23v1|e_41|1615,1637","s23v1|e_4|1324,1343"],"confidence":{"state":"pre-added","who":["user:ICTAR"],"prob":1}},{"classId":"r_72","type":"linked","directed":false,"entities":["s23v1|e_41|1885,1897","s23v1|e_4|1324,1343"],"confidence":{"state":"pre-added","who":["user:ICTAR"],"prob":1}},{"classId":"r_72","type":"linked","directed":false,"entities":["s24v1|e_4|64,75","s23v1|e_41|1903,1921"],"confidence":{"state":"pre-added","who":["user:ICTAR"],"prob":1}},{"classId":"r_72","type":"linked","directed":false,"entities":["s24v1|e_4|64,75","s23v1|e_41|1885,1897"],"confidence":{"state":"pre-added","who":["user:ICTAR"],"prob":1}},{"classId":"r_72","type":"linked","directed":false,"entities":["s24v1|e_41|422,450","s24v1|e_4|283,297"],"confidence":{"state":"pre-added","who":["user:ICTAR"],"prob":1}},{"classId":"r_72","type":"linked","directed":false,"entities":["s24v1|e_41|422,450","s24v1|e_4|227,237"],"confidence":{"state":"pre-added","who":["user:ICTAR"],"prob":1}},{"classId":"r_72","type":"linked","directed":false,"entities":["s24v1|e_41|455,483","s24v1|e_4|283,297"],"confidence":{"state":"pre-added","who":["user:ICTAR"],"prob":1}},{"classId":"r_72","type":"linked","directed":false,"entities":["s24v1|e_41|455,483","s24v1|e_4|227,237"],"confidence":{"state":"pre-added","who":["user:ICTAR"],"prob":1}},{"classId":"r_72","type":"linked","directed":false,"entities":["s24v1|e_41|491,508","s24v1|e_4|283,297"],"confidence":{"state":"pre-added","who":["user:ICTAR"],"prob":1}},{"classId":"r_72","type":"linked","directed":false,"entities":["s24v1|e_41|491,508","s24v1|e_4|227,237"],"confidence":{"state":"pre-added","who":["user:ICTAR"],"prob":1}},{"classId":"r_72","type":"linked","directed":false,"entities":["s24v1|e_41|568,582","s24v1|e_4|283,297"],"confidence":{"state":"pre-added","who":["user:ICTAR"],"prob":1}},{"classId":"r_72","type":"linked","directed":false,"entities":["s24v1|e_41|568,582","s24v1|e_4|227,237"],"confidence":{"state":"pre-added","who":["user:ICTAR"],"prob":1}},{"classId":"r_72","type":"linked","directed":false,"entities":["s24v1|e_41|835,851","s24v1|e_4|351,360"],"confidence":{"state":"pre-added","who":["user:ICTAR"],"prob":1}},{"classId":"r_72","type":"linked","directed":false,"entities":["s24v1|e_41|858,872","s24v1|e_4|351,360"],"confidence":{"state":"pre-added","who":["user:ICTAR"],"prob":1}},{"classId":"r_72","type":"linked","directed":false,"entities":["s24v1|e_41|882,897","s24v1|e_4|351,360"],"confidence":{"state":"pre-added","who":["user:ICTAR"],"prob":1}},{"classId":"r_72","type":"linked","directed":false,"entities":["s24v1|e_41|2267,2277","s24v1|e_4|2143,2157"],"confidence":{"state":"pre-added","who":["user:ICTAR"],"prob":1}},{"classId":"r_72","type":"linked","directed":false,"entities":["s24v1|e_41|2497,2512","s24v1|e_4|2143,2157"],"confidence":{"state":"pre-added","who":["user:ICTAR"],"prob":1}},{"classId":"r_72","type":"linked","directed":false,"entities":["s24v1|e_41|2558,2564","s24v1|e_4|2143,2157"],"confidence":{"state":"pre-added","who":["user:ICTAR"],"prob":1}},{"classId":"r_72","type":"linked","directed":false,"entities":["s24v1|e_41|2711,2728","s24v1|e_4|2143,2157"],"confidence":{"state":"pre-added","who":["user:ICTAR"],"prob":1}},{"classId":"r_72","type":"linked","directed":false,"entities":["s24v1|e_41|2734,2759","s24v1|e_4|2143,2157"],"confidence":{"state":"pre-added","who":["user:ICTAR"],"prob":1}},{"classId":"r_72","type":"linked","directed":false,"entities":["s24v1|e_41|2813,2824","s24v1|e_4|2143,2157"],"confidence":{"state":"pre-added","who":["user:ICTAR"],"prob":1}},{"classId":"r_72","type":"linked","directed":false,"entities":["s24v1|e_41|2987,3020","s24v1|e_4|2143,2157"],"confidence":{"state":"pre-added","who":["user:ICTAR"],"prob":1}},{"classId":"r_72","type":"linked","directed":false,"entities":["s26v1|e_41|582,604","s26v1|e_4|181,190"],"confidence":{"state":"pre-added","who":["user:ICTAR"],"prob":1}},{"classId":"r_72","type":"linked","directed":false,"entities":["s26v1|e_41|611,623","s26v1|e_4|181,190"],"confidence":{"state":"pre-added","who":["user:ICTAR"],"prob":1}},{"classId":"r_72","type":"linked","directed":false,"entities":["s26v1|e_41|708,729","s26v1|e_4|181,190"],"confidence":{"state":"pre-added","who":["user:ICTAR"],"prob":1}},{"classId":"r_72","type":"linked","directed":false,"entities":["s26v1|e_41|736,749","s26v1|e_4|181,190"],"confidence":{"state":"pre-added","who":["user:ICTAR"],"prob":1}},{"classId":"r_72","type":"linked","directed":false,"entities":["s26v1|e_41|812,831","s26v1|e_4|181,190"],"confidence":{"state":"pre-added","who":["user:ICTAR"],"prob":1}},{"classId":"r_72","type":"linked","directed":false,"entities":["s26v1|e_41|837,850","s26v1|e_4|181,190"],"confidence":{"state":"pre-added","who":["user:ICTAR"],"prob":1}},{"classId":"r_72","type":"linked","directed":false,"entities":["s26v1|e_41|2301,2307","s26v1|e_4|2329,2340"],"confidence":{"state":"pre-added","who":["user:ICTAR"],"prob":1}},{"classId":"r_72","type":"linked","directed":false,"entities":["s26v1|e_41|2301,2307","s26v1|e_4|2343,2356"],"confidence":{"state":"pre-added","who":["user:ICTAR"],"prob":1}},{"classId":"r_72","type":"linked","directed":false,"entities":["s28v1|e_41|370,389","s28v1|e_4|166,178"],"confidence":{"state":"pre-added","who":["user:ICTAR"],"prob":1}},{"classId":"r_72","type":"linked","directed":false,"entities":["s28v1|e_41|392,410","s28v1|e_4|166,178"],"confidence":{"state":"pre-added","who":["user:ICTAR"],"prob":1}},{"classId":"r_72","type":"linked","directed":false,"entities":["s28v1|e_41|533,546","s28v1|e_4|166,178"],"confidence":{"state":"pre-added","who":["user:ICTAR"],"prob":1}},{"classId":"r_72","type":"linked","directed":false,"entities":["s28v1|e_41|569,582","s28v1|e_4|166,178"],"confidence":{"state":"pre-added","who":["user:ICTAR"],"prob":1}},{"classId":"r_72","type":"linked","directed":false,"entities":["s28v1|e_41|630,644","s28v1|e_4|166,178"],"confidence":{"state":"pre-added","who":["user:ICTAR"],"prob":1}},{"classId":"r_72","type":"linked","directed":false,"entities":["s28v1|e_41|668,689","s28v1|e_4|166,178"],"confidence":{"state":"pre-added","who":["user:ICTAR"],"prob":1}},{"classId":"r_72","type":"linked","directed":false,"entities":["s28v1|e_41|755,775","s28v1|e_4|166,178"],"confidence":{"state":"pre-added","who":["user:ICTAR"],"prob":1}},{"classId":"r_72","type":"linked","directed":false,"entities":["s28v1|e_41|912,917","s28v1|e_4|166,178"],"confidence":{"state":"pre-added","who":["user:ICTAR"],"prob":1}},{"classId":"r_72","type":"linked","directed":false,"entities":["s28v1|e_41|920,940","s28v1|e_4|166,178"],"confidence":{"state":"pre-added","who":["user:ICTAR"],"prob":1}}]}