{"annotatable":{"parts":["s1v1","s2v1","s3v1","s4v1","s5v1","s6v1","s7v1","s8v1","s9v1"]},"anncomplete":true,"sources":[],"metas":{"m_76":{"value":true,"confidence":{"state":"pre-added","who":["user:ICTAR"],"prob":1}},"m_14":{"value":false,"confidence":{"state":"pre-added","who":["user:ICTAR"],"prob":1}},"m_16":{"value":"South Victoria Land","confidence":{"state":"pre-added","who":["user:ICTAR"],"prob":1}}},"entities":[{"classId":"e_4","part":"s1v1","offsets":[{"start":94,"text":"Mackay Glacier"}],"coordinates":[],"confidence":{"state":"pre-added","who":["ml:dpeker"],"prob":0.9518},"fields":{},"normalizations":{"n_34":{"source":{"name":"GeoNamesSCAR","id":"128291","url":null},"recName":"Mackay Glacier","confidence":{"state":"pre-added","who":["ml:dpeker"],"prob":0.9518}}}},{"classId":"e_4","part":"s1v1","offsets":[{"start":593,"text":"Mackay Glacier"}],"coordinates":[],"confidence":{"state":"pre-added","who":["ml:dpeker"],"prob":0.9518},"fields":{},"normalizations":{"n_34":{"source":{"name":"GeoNamesSCAR","id":"128291","url":null},"recName":"Mackay Glacier","confidence":{"state":"pre-added","who":["ml:dpeker"],"prob":0.9518}}}},{"classId":"e_4","part":"s1v1","offsets":[{"start":1603,"text":"Mackay Glacier"}],"coordinates":[],"confidence":{"state":"pre-added","who":["ml:dpeker"],"prob":0.9518},"fields":{},"normalizations":{"n_34":{"source":{"name":"GeoNamesSCAR","id":"128291","url":null},"recName":"Mackay Glacier","confidence":{"state":"pre-added","who":["ml:dpeker"],"prob":0.9518}}}},{"classId":"e_39","part":"s1v1","offsets":[{"start":1639,"text":"Antarcticinella monoculata"}],"coordinates":[],"confidence":{"state":"pre-added","who":["ml:dpeker"],"prob":0.9778},"fields":{},"normalizations":{"n_44":{"source":{"name":"SpringtailNames","id":"anmono","url":null},"recName":"Antarcticinella monoculata","confidence":{"state":"pre-added","who":["ml:dpeker"],"prob":0.9778}}}},{"classId":"e_39","part":"s1v1","offsets":[{"start":1721,"text":"Gomphiocephalus hodgsoni"}],"coordinates":[],"confidence":{"state":"pre-added","who":["ml:dpeker"],"prob":0.9754},"fields":{},"normalizations":{"n_44":{"source":{"name":"SpringtailNames","id":"gohodg","url":null},"recName":"Gomphiocephalus hodgsoni","confidence":{"state":"pre-added","who":["ml:dpeker"],"prob":0.9754}}}},{"classId":"e_39","part":"s1v1","offsets":[{"start":3464,"text":"Gomphiocephalus hodgsoni"}],"coordinates":[],"confidence":{"state":"pre-added","who":["ml:dpeker"],"prob":0.9754},"fields":{},"normalizations":{"n_44":{"source":{"name":"SpringtailNames","id":"gohodg","url":null},"recName":"Gomphiocephalus hodgsoni","confidence":{"state":"pre-added","who":["ml:dpeker"],"prob":0.9754}}}},{"classId":"e_39","part":"s1v1","offsets":[{"start":3490,"text":"Antarcticinella monoculata"}],"coordinates":[],"confidence":{"state":"pre-added","who":["ml:dpeker"],"prob":0.9778},"fields":{},"normalizations":{"n_44":{"source":{"name":"SpringtailNames","id":"anmono","url":null},"recName":"Antarcticinella monoculata","confidence":{"state":"pre-added","who":["ml:dpeker"],"prob":0.9778}}}},{"classId":"e_4","part":"s2v1","offsets":[{"start":1326,"text":"Mackay Glacier"}],"coordinates":[],"confidence":{"state":"pre-added","who":["ml:dpeker"],"prob":0.9518},"fields":{},"normalizations":{"n_34":{"source":{"name":"GeoNamesSCAR","id":"128291","url":null},"recName":"Mackay Glacier","confidence":{"state":"pre-added","who":["ml:dpeker"],"prob":0.9518}}}},{"classId":"e_4","part":"s2v1","offsets":[{"start":1411,"text":"McMurdo Dry Valleys"}],"coordinates":[],"confidence":{"state":"pre-added","who":["ml:dpeker"],"prob":0.9671},"fields":{},"normalizations":{"n_34":{"source":{"name":"GeoNamesSCAR","id":"113892","url":null},"recName":"McMurdo Dry Valleys","confidence":{"state":"pre-added","who":["ml:dpeker"],"prob":0.9671}}}},{"classId":"e_39","part":"s2v1","offsets":[{"start":1724,"text":"Gomphiocephalus hodgsoni"}],"coordinates":[],"confidence":{"state":"pre-added","who":["ml:dpeker"],"prob":0.9754},"fields":{},"normalizations":{"n_44":{"source":{"name":"SpringtailNames","id":"gohodg","url":null},"recName":"Gomphiocephalus hodgsoni","confidence":{"state":"pre-added","who":["ml:dpeker"],"prob":0.9754}}}},{"classId":"e_4","part":"s2v1","offsets":[{"start":1768,"text":"McMurdo Dry Valleys"}],"coordinates":[],"confidence":{"state":"pre-added","who":["ml:dpeker"],"prob":0.9671},"fields":{},"normalizations":{"n_34":{"source":{"name":"GeoNamesSCAR","id":"113892","url":null},"recName":"McMurdo Dry Valleys","confidence":{"state":"pre-added","who":["ml:dpeker"],"prob":0.9671}}}},{"classId":"e_39","part":"s2v1","offsets":[{"start":1824,"text":"Antarcticinella monoculata"}],"coordinates":[],"confidence":{"state":"pre-added","who":["ml:dpeker"],"prob":0.9778},"fields":{},"normalizations":{"n_44":{"source":{"name":"SpringtailNames","id":"anmono","url":null},"recName":"Antarcticinella monoculata","confidence":{"state":"pre-added","who":["ml:dpeker"],"prob":0.9778}}}},{"classId":"e_39","part":"s2v1","offsets":[{"start":1855,"text":"Cryptopygus nivicolis"}],"coordinates":[{"x":"47.50","y":"478.40"},{"x":"129.65","y":"484.00"}],"confidence":{"state":"pre-added","who":["user:ICTAR"],"prob":1},"fields":{},"normalizations":{"n_44":{"source":{"name":"SpringtailNames","id":"nenivi","url":null},"recName":"","confidence":{"state":"pre-added","who":["user:ICTAR"],"prob":1}}}},{"classId":"e_4","part":"s2v1","offsets":[{"start":1961,"text":"Mackay Glacier"}],"coordinates":[],"confidence":{"state":"pre-added","who":["ml:dpeker"],"prob":0.9518},"fields":{},"normalizations":{"n_34":{"source":{"name":"GeoNamesSCAR","id":"128291","url":null},"recName":"Mackay Glacier","confidence":{"state":"pre-added","who":["ml:dpeker"],"prob":0.9518}}}},{"classId":"e_4","part":"s2v1","offsets":[{"start":2190,"text":"Queen Maud Mountains"}],"coordinates":[],"confidence":{"state":"pre-added","who":["ml:dpeker"],"prob":0.9692},"fields":{},"normalizations":{"n_34":{"source":{"name":"GeoNamesSCAR","id":"130480","url":null},"recName":"Queen Maud Mountains","confidence":{"state":"pre-added","who":["ml:dpeker"],"prob":0.9692}}}},{"classId":"e_4","part":"s2v1","offsets":[{"start":3062,"text":"Mackay Glacier"}],"coordinates":[],"confidence":{"state":"pre-added","who":["ml:dpeker"],"prob":0.9518},"fields":{},"normalizations":{"n_34":{"source":{"name":"GeoNamesSCAR","id":"128291","url":null},"recName":"Mackay Glacier","confidence":{"state":"pre-added","who":["ml:dpeker"],"prob":0.9518}}}},{"classId":"e_39","part":"s2v1","offsets":[{"start":3085,"text":"Gomphiocephalus hodgsoni"}],"coordinates":[],"confidence":{"state":"pre-added","who":["ml:dpeker"],"prob":0.9754},"fields":{},"normalizations":{"n_44":{"source":{"name":"SpringtailNames","id":"gohodg","url":null},"recName":"Gomphiocephalus hodgsoni","confidence":{"state":"pre-added","who":["ml:dpeker"],"prob":0.9754}}}},{"classId":"e_39","part":"s2v1","offsets":[{"start":3128,"text":"Antarcticinella monoculata"}],"coordinates":[],"confidence":{"state":"pre-added","who":["ml:dpeker"],"prob":0.9778},"fields":{},"normalizations":{"n_44":{"source":{"name":"SpringtailNames","id":"anmono","url":null},"recName":"Antarcticinella monoculata","confidence":{"state":"pre-added","who":["ml:dpeker"],"prob":0.9778}}}},{"classId":"e_39","part":"s2v1","offsets":[{"start":3174,"text":"Cryptopygus nivicolus"}],"coordinates":[{"x":"449.58","y":"115.71"},{"x":"529.42","y":"121.31"}],"confidence":{"state":"pre-added","who":["user:ICTAR"],"prob":1},"fields":{},"normalizations":{"n_44":{"source":{"name":"SpringtailNames","id":"nenivi","url":null},"recName":"","confidence":{"state":"pre-added","who":["user:ICTAR"],"prob":1}}}},{"classId":"e_39","part":"s2v1","offsets":[{"start":3212,"text":"G. hodgsoni"}],"coordinates":[],"confidence":{"state":"pre-added","who":["ml:dpeker"],"prob":0.9349},"fields":{},"normalizations":{"n_44":{"source":{"name":"SpringtailNames","id":"gohodg","url":null},"recName":"Gomphiocephalus hodgsoni","confidence":{"state":"pre-added","who":["ml:dpeker"],"prob":0.9349}}}},{"classId":"e_39","part":"s2v1","offsets":[{"start":3290,"text":"A. monoculata"}],"coordinates":[],"confidence":{"state":"pre-added","who":["ml:dpeker"],"prob":0.9472},"fields":{},"normalizations":{"n_44":{"source":{"name":"SpringtailNames","id":"anmono","url":null},"recName":"Antarcticinella monoculata","confidence":{"state":"pre-added","who":["ml:dpeker"],"prob":0.9472}}}},{"classId":"e_39","part":"s2v1","offsets":[{"start":3422,"text":"A. monoculata"}],"coordinates":[],"confidence":{"state":"pre-added","who":["ml:dpeker"],"prob":0.9472},"fields":{},"normalizations":{"n_44":{"source":{"name":"SpringtailNames","id":"anmono","url":null},"recName":"Antarcticinella monoculata","confidence":{"state":"pre-added","who":["ml:dpeker"],"prob":0.9472}}}},{"classId":"e_4","part":"s2v1","offsets":[{"start":3697,"text":"Mackay Glacier"}],"coordinates":[],"confidence":{"state":"pre-added","who":["ml:dpeker"],"prob":0.9518},"fields":{},"normalizations":{"n_34":{"source":{"name":"GeoNamesSCAR","id":"128291","url":null},"recName":"Mackay Glacier","confidence":{"state":"pre-added","who":["ml:dpeker"],"prob":0.9518}}}},{"classId":"e_4","part":"s2v1","offsets":[{"start":4146,"text":"Mackay Glacier"}],"coordinates":[],"confidence":{"state":"pre-added","who":["ml:dpeker"],"prob":0.9518},"fields":{},"normalizations":{"n_34":{"source":{"name":"GeoNamesSCAR","id":"128291","url":null},"recName":"Mackay Glacier","confidence":{"state":"pre-added","who":["ml:dpeker"],"prob":0.9518}}}},{"classId":"e_4","part":"s2v1","offsets":[{"start":4592,"text":"McMurdo Station"}],"coordinates":[],"confidence":{"state":"pre-added","who":["ml:dpeker"],"prob":0.9558},"fields":{},"normalizations":{"n_34":{"source":{"name":"GeoNamesSCAR","id":"128725","url":null},"recName":"McMurdo Station","confidence":{"state":"pre-added","who":["ml:dpeker"],"prob":0.9558}}}},{"classId":"e_4","part":"s3v1","offsets":[{"start":1602,"text":"Ross Dependency"}],"coordinates":[],"confidence":{"state":"pre-added","who":["ml:dpeker"],"prob":0.9558},"fields":{},"normalizations":{"n_34":{"source":{"name":"GeoNamesSCAR","id":"134188","url":null},"recName":"Ross Dependency","confidence":{"state":"pre-added","who":["ml:dpeker"],"prob":0.9558}}}},{"classId":"e_4","part":"s3v1","offsets":[{"start":1765,"text":"Queen Maud Mountains"}],"coordinates":[],"confidence":{"state":"pre-added","who":["ml:dpeker"],"prob":0.9692},"fields":{},"normalizations":{"n_34":{"source":{"name":"GeoNamesSCAR","id":"130480","url":null},"recName":"Queen Maud Mountains","confidence":{"state":"pre-added","who":["ml:dpeker"],"prob":0.9692}}}},{"classId":"e_4","part":"s3v1","offsets":[{"start":1961,"text":"Mackay Glacier"}],"coordinates":[],"confidence":{"state":"pre-added","who":["ml:dpeker"],"prob":0.9518},"fields":{},"normalizations":{"n_34":{"source":{"name":"GeoNamesSCAR","id":"128291","url":null},"recName":"Mackay Glacier","confidence":{"state":"pre-added","who":["ml:dpeker"],"prob":0.9518}}}},{"classId":"e_4","part":"s3v1","offsets":[{"start":1993,"text":"Ross Island"}],"coordinates":[],"confidence":{"state":"pre-added","who":["ml:dpeker"],"prob":0.9349},"fields":{},"normalizations":{"n_34":{"source":{"name":"GeoNamesSCAR","id":"130958","url":null},"recName":"Ross Island","confidence":{"state":"pre-added","who":["ml:dpeker"],"prob":0.9349}}}},{"classId":"e_4","part":"s3v1","offsets":[{"start":2125,"text":"Mount Murray"}],"coordinates":[],"confidence":{"state":"pre-added","who":["ml:dpeker"],"prob":0.9416},"fields":{},"normalizations":{"n_34":{"source":{"name":"GeoNamesSCAR","id":"129232","url":null},"recName":"Murray, Mount","confidence":{"state":"pre-added","who":["ml:dpeker"],"prob":0.9416}}}},{"classId":"e_4","part":"s3v1","offsets":[{"start":2156,"text":"Towle Glacier"}],"coordinates":[],"confidence":{"state":"pre-added","who":["ml:dpeker"],"prob":0.9472},"fields":{},"normalizations":{"n_34":{"source":{"name":"GeoNamesSCAR","id":"132820","url":null},"recName":"Towle Glacier","confidence":{"state":"pre-added","who":["ml:dpeker"],"prob":0.9472}}}},{"classId":"e_4","part":"s3v1","offsets":[{"start":2174,"text":"Benson Glacier"}],"coordinates":[],"confidence":{"state":"pre-added","who":["ml:dpeker"],"prob":0.9518},"fields":{},"normalizations":{"n_34":{"source":{"name":"GeoNamesSCAR","id":"122420","url":null},"recName":"Benson Glacier","confidence":{"state":"pre-added","who":["ml:dpeker"],"prob":0.9518}}}},{"classId":"e_4","part":"s3v1","offsets":[{"start":2193,"text":"Tiger Island"}],"coordinates":[],"confidence":{"state":"pre-added","who":["ml:dpeker"],"prob":0.9416},"fields":{},"normalizations":{"n_34":{"source":{"name":"GeoNamesSCAR","id":"132702","url":null},"recName":"Tiger Island","confidence":{"state":"pre-added","who":["ml:dpeker"],"prob":0.9416}}}},{"classId":"e_4","part":"s3v1","offsets":[{"start":2210,"text":"Mount Gran"}],"coordinates":[],"confidence":{"state":"pre-added","who":["ml:dpeker"],"prob":0.9266},"fields":{},"normalizations":{"n_34":{"source":{"name":"GeoNamesSCAR","id":"113422","url":null},"recName":"Gran, Mount","confidence":{"state":"pre-added","who":["ml:dpeker"],"prob":0.9266}}}},{"classId":"e_4","part":"s3v1","offsets":[{"start":2225,"text":"Pegtop Moun- tain"}],"coordinates":[],"confidence":{"state":"pre-added","who":["ml:dpeker"],"prob":0.8068},"fields":{},"normalizations":{"n_34":{"source":{"name":"GeoNamesSCAR","id":"129967","url":null},"recName":"Pegtop Mountain","confidence":{"state":"pre-added","who":["ml:dpeker"],"prob":0.8068}}}},{"classId":"e_4","part":"s3v1","offsets":[{"start":2247,"text":"Mount Seuss"}],"coordinates":[{"x":"78.13","y":"132.74"},{"x":"129.83","y":"138.00"}],"confidence":{"state":"pre-added","who":["user:ICTAR"],"prob":1},"fields":{},"normalizations":{"n_52":{"source":{"name":"GeoNamesCustom","id":"AV011","url":null},"recName":"","confidence":{"state":"pre-added","who":["user:ICTAR"],"prob":1}}}},{"classId":"e_4","part":"s3v1","offsets":[{"start":2263,"text":"The Flatiron"}],"coordinates":[],"confidence":{"state":"pre-added","who":["ml:dpeker"],"prob":0.9416},"fields":{},"normalizations":{"n_34":{"source":{"name":"GeoNamesSCAR","id":"125175","url":null},"recName":"Flatiron, The","confidence":{"state":"pre-added","who":["ml:dpeker"],"prob":0.9416}}}},{"classId":"e_4","part":"s3v1","offsets":[{"start":2280,"text":"Sperm Bluff"}],"coordinates":[],"confidence":{"state":"pre-added","who":["ml:dpeker"],"prob":0.9349},"fields":{},"normalizations":{"n_34":{"source":{"name":"GeoNamesSCAR","id":"131987","url":null},"recName":"Sperm Bluff","confidence":{"state":"pre-added","who":["ml:dpeker"],"prob":0.9349}}}},{"classId":"e_4","part":"s3v1","offsets":[{"start":2297,"text":"Springtail Pt"}],"coordinates":[{"x":"276.69","y":"132.74"},{"x":"327.76","y":"138.00"}],"confidence":{"state":"pre-added","who":["user:ICTAR"],"prob":1},"fields":{},"normalizations":{"n_34":{"source":{"name":"GeoNamesSCAR","id":"132046","url":null},"recName":"","confidence":{"state":"pre-added","who":["user:ICTAR"],"prob":1}}}},{"classId":"e_4","part":"s3v1","offsets":[{"start":2316,"text":"St Johns Range"}],"coordinates":[{"x":"344.95","y":"132.74"},{"x":"405.74","y":"138.00"}],"confidence":{"state":"pre-added","who":["user:ICTAR"],"prob":1},"fields":{},"normalizations":{"n_34":{"source":{"name":"GeoNamesSCAR","id":"131124","url":null},"recName":"","confidence":{"state":"pre-added","who":["user:ICTAR"],"prob":1}}}},{"classId":"e_4","part":"s4v1","offsets":[{"start":3994,"text":"Mackay Glacier"}],"coordinates":[],"confidence":{"state":"pre-added","who":["ml:dpeker"],"prob":0.9518},"fields":{},"normalizations":{"n_34":{"source":{"name":"GeoNamesSCAR","id":"128291","url":null},"recName":"Mackay Glacier","confidence":{"state":"pre-added","who":["ml:dpeker"],"prob":0.9518}}}},{"classId":"e_39","part":"s4v1","offsets":[{"start":4288,"text":"G. hodgsoni"}],"coordinates":[],"confidence":{"state":"pre-added","who":["ml:dpeker"],"prob":0.9349},"fields":{},"normalizations":{"n_44":{"source":{"name":"SpringtailNames","id":"gohodg","url":null},"recName":"Gomphiocephalus hodgsoni","confidence":{"state":"pre-added","who":["ml:dpeker"],"prob":0.9349}}}},{"classId":"e_39","part":"s4v1","offsets":[{"start":4303,"text":"C. nivicolus"}],"coordinates":[{"x":"385.51","y":"339.65"},{"x":"426.18","y":"345.25"}],"confidence":{"state":"pre-added","who":["user:ICTAR"],"prob":1},"fields":{},"normalizations":{"n_44":{"source":{"name":"SpringtailNames","id":"nenivi","url":null},"recName":"","confidence":{"state":"pre-added","who":["user:ICTAR"],"prob":1}}}},{"classId":"e_4","part":"s4v1","offsets":[{"start":4334,"text":"TowleGlacier"}],"coordinates":[{"x":"507.26","y":"339.69"},{"x":"563.14","y":"345.24"}],"confidence":{"state":"pre-added","who":["user:ICTAR"],"prob":1},"fields":{},"normalizations":{"n_34":{"source":{"name":"GeoNamesSCAR","id":"132820","url":null},"recName":"","confidence":{"state":"pre-added","who":["user:ICTAR"],"prob":1}}}},{"classId":"e_39","part":"s4v1","offsets":[{"start":4433,"text":"Antarcticinella monoculata"}],"coordinates":[],"confidence":{"state":"pre-added","who":["ml:dpeker"],"prob":0.9778},"fields":{},"normalizations":{"n_44":{"source":{"name":"SpringtailNames","id":"anmono","url":null},"recName":"Antarcticinella monoculata","confidence":{"state":"pre-added","who":["ml:dpeker"],"prob":0.9778}}}},{"classId":"e_4","part":"s4v1","offsets":[{"start":4492,"text":"Benson Glacier"}],"coordinates":[],"confidence":{"state":"pre-added","who":["ml:dpeker"],"prob":0.9518},"fields":{},"normalizations":{"n_34":{"source":{"name":"GeoNamesSCAR","id":"122420","url":null},"recName":"Benson Glacier","confidence":{"state":"pre-added","who":["ml:dpeker"],"prob":0.9518}}}},{"classId":"e_4","part":"s4v1","offsets":[{"start":4508,"text":"Pegtop Mountain"}],"coordinates":[],"confidence":{"state":"pre-added","who":["ml:dpeker"],"prob":0.9558},"fields":{},"normalizations":{"n_34":{"source":{"name":"GeoNamesSCAR","id":"129967","url":null},"recName":"Pegtop Mountain","confidence":{"state":"pre-added","who":["ml:dpeker"],"prob":0.9558}}}},{"classId":"e_39","part":"s4v1","offsets":[{"start":4529,"text":"C. nivicolus"}],"coordinates":[{"x":"342.52","y":"389.24"},{"x":"384.04","y":"394.84"}],"confidence":{"state":"pre-added","who":["user:ICTAR"],"prob":1},"fields":{},"normalizations":{"n_44":{"source":{"name":"SpringtailNames","id":"nenivi","url":null},"recName":"","confidence":{"state":"pre-added","who":["user:ICTAR"],"prob":1}}}},{"classId":"e_4","part":"s4v1","offsets":[{"start":4574,"text":"Tiger Island"}],"coordinates":[],"confidence":{"state":"pre-added","who":["ml:dpeker"],"prob":0.9416},"fields":{},"normalizations":{"n_34":{"source":{"name":"GeoNamesSCAR","id":"132702","url":null},"recName":"Tiger Island","confidence":{"state":"pre-added","who":["ml:dpeker"],"prob":0.9416}}}},{"classId":"e_4","part":"s4v1","offsets":[{"start":4588,"text":"Towle Glacier"}],"coordinates":[],"confidence":{"state":"pre-added","who":["ml:dpeker"],"prob":0.9472},"fields":{},"normalizations":{"n_34":{"source":{"name":"GeoNamesSCAR","id":"132820","url":null},"recName":"Towle Glacier","confidence":{"state":"pre-added","who":["ml:dpeker"],"prob":0.9472}}}},{"classId":"e_39","part":"s4v1","offsets":[{"start":4619,"text":"G. hodgsoni"}],"coordinates":[],"confidence":{"state":"pre-added","who":["ml:dpeker"],"prob":0.9349},"fields":{},"normalizations":{"n_44":{"source":{"name":"SpringtailNames","id":"gohodg","url":null},"recName":"Gomphiocephalus hodgsoni","confidence":{"state":"pre-added","who":["ml:dpeker"],"prob":0.9349}}}},{"classId":"e_4","part":"s4v1","offsets":[{"start":4670,"text":"Mt. Murray"}],"coordinates":[{"x":"417.49","y":"414.08"},{"x":"464.23","y":"419.63"}],"confidence":{"state":"pre-added","who":["user:ICTAR"],"prob":1},"fields":{},"normalizations":{"n_34":{"source":{"name":"GeoNamesSCAR","id":"129232","url":null},"recName":"","confidence":{"state":"pre-added","who":["user:ICTAR"],"prob":1}}}},{"classId":"e_4","part":"s4v1","offsets":[{"start":4870,"text":"Mackay Glacier"}],"coordinates":[],"confidence":{"state":"pre-added","who":["ml:dpeker"],"prob":0.9518},"fields":{},"normalizations":{"n_34":{"source":{"name":"GeoNamesSCAR","id":"128291","url":null},"recName":"Mackay Glacier","confidence":{"state":"pre-added","who":["ml:dpeker"],"prob":0.9518}}}},{"classId":"e_39","part":"s4v1","offsets":[{"start":4909,"text":"G. hodgsoni"}],"coordinates":[],"confidence":{"state":"pre-added","who":["ml:dpeker"],"prob":0.9349},"fields":{},"normalizations":{"n_44":{"source":{"name":"SpringtailNames","id":"gohodg","url":null},"recName":"Gomphiocephalus hodgsoni","confidence":{"state":"pre-added","who":["ml:dpeker"],"prob":0.9349}}}},{"classId":"e_39","part":"s4v1","offsets":[{"start":5320,"text":"G. hodgsoni"}],"coordinates":[],"confidence":{"state":"pre-added","who":["ml:dpeker"],"prob":0.9349},"fields":{},"normalizations":{"n_44":{"source":{"name":"SpringtailNames","id":"gohodg","url":null},"recName":"Gomphiocephalus hodgsoni","confidence":{"state":"pre-added","who":["ml:dpeker"],"prob":0.9349}}}},{"classId":"e_4","part":"s4v1","offsets":[{"start":5401,"text":"Towle Glacier"}],"coordinates":[],"confidence":{"state":"pre-added","who":["ml:dpeker"],"prob":0.9472},"fields":{},"normalizations":{"n_34":{"source":{"name":"GeoNamesSCAR","id":"132820","url":null},"recName":"Towle Glacier","confidence":{"state":"pre-added","who":["ml:dpeker"],"prob":0.9472}}}},{"classId":"e_4","part":"s4v1","offsets":[{"start":5481,"text":"Mackay Glacier"}],"coordinates":[],"confidence":{"state":"pre-added","who":["ml:dpeker"],"prob":0.9518},"fields":{},"normalizations":{"n_34":{"source":{"name":"GeoNamesSCAR","id":"128291","url":null},"recName":"Mackay Glacier","confidence":{"state":"pre-added","who":["ml:dpeker"],"prob":0.9518}}}},{"classId":"e_4","part":"s4v1","offsets":[{"start":5616,"text":"Mackay Glacier"}],"coordinates":[],"confidence":{"state":"pre-added","who":["ml:dpeker"],"prob":0.9518},"fields":{},"normalizations":{"n_34":{"source":{"name":"GeoNamesSCAR","id":"128291","url":null},"recName":"Mackay Glacier","confidence":{"state":"pre-added","who":["ml:dpeker"],"prob":0.9518}}}},{"classId":"e_39","part":"s4v1","offsets":[{"start":5820,"text":"G. hodgsoni"}],"coordinates":[],"confidence":{"state":"pre-added","who":["ml:dpeker"],"prob":0.9349},"fields":{},"normalizations":{"n_44":{"source":{"name":"SpringtailNames","id":"gohodg","url":null},"recName":"Gomphiocephalus hodgsoni","confidence":{"state":"pre-added","who":["ml:dpeker"],"prob":0.9349}}}},{"classId":"e_39","part":"s5v1","offsets":[{"start":105,"text":"Antarcticinella monoculata"}],"coordinates":[],"confidence":{"state":"pre-added","who":["ml:dpeker"],"prob":0.9778},"fields":{},"normalizations":{"n_44":{"source":{"name":"SpringtailNames","id":"anmono","url":null},"recName":"Antarcticinella monoculata","confidence":{"state":"pre-added","who":["ml:dpeker"],"prob":0.9778}}}},{"classId":"e_39","part":"s5v1","offsets":[{"start":495,"text":"A. monoculata"}],"coordinates":[],"confidence":{"state":"pre-added","who":["ml:dpeker"],"prob":0.9472},"fields":{},"normalizations":{"n_44":{"source":{"name":"SpringtailNames","id":"anmono","url":null},"recName":"Antarcticinella monoculata","confidence":{"state":"pre-added","who":["ml:dpeker"],"prob":0.9472}}}},{"classId":"e_4","part":"s5v1","offsets":[{"start":542,"text":"Mackay Glacier"}],"coordinates":[],"confidence":{"state":"pre-added","who":["ml:dpeker"],"prob":0.9518},"fields":{},"normalizations":{"n_34":{"source":{"name":"GeoNamesSCAR","id":"128291","url":null},"recName":"Mackay Glacier","confidence":{"state":"pre-added","who":["ml:dpeker"],"prob":0.9518}}}},{"classId":"e_39","part":"s5v1","offsets":[{"start":573,"text":"G. hodgsoni"}],"coordinates":[],"confidence":{"state":"pre-added","who":["ml:dpeker"],"prob":0.9349},"fields":{},"normalizations":{"n_44":{"source":{"name":"SpringtailNames","id":"gohodg","url":null},"recName":"Gomphiocephalus hodgsoni","confidence":{"state":"pre-added","who":["ml:dpeker"],"prob":0.9349}}}},{"classId":"e_39","part":"s5v1","offsets":[{"start":589,"text":"C. nivicolus"}],"coordinates":[{"x":"223.20","y":"688.38"},{"x":"268.27","y":"693.98"}],"confidence":{"state":"pre-added","who":["user:ICTAR"],"prob":1},"fields":{},"normalizations":{"n_44":{"source":{"name":"SpringtailNames","id":"nenivi","url":null},"recName":"","confidence":{"state":"pre-added","who":["user:ICTAR"],"prob":1}}}},{"classId":"e_4","part":"s5v1","offsets":[{"start":662,"text":"Mackay Glacier"}],"coordinates":[],"confidence":{"state":"pre-added","who":["ml:dpeker"],"prob":0.9518},"fields":{},"normalizations":{"n_34":{"source":{"name":"GeoNamesSCAR","id":"128291","url":null},"recName":"Mackay Glacier","confidence":{"state":"pre-added","who":["ml:dpeker"],"prob":0.9518}}}},{"classId":"e_4","part":"s5v1","offsets":[{"start":783,"text":"Springtail Point"}],"coordinates":[],"confidence":{"state":"pre-added","who":["ml:dpeker"],"prob":0.9592},"fields":{},"normalizations":{"n_34":{"source":{"name":"GeoNamesSCAR","id":"132046","url":null},"recName":"Springtail Point","confidence":{"state":"pre-added","who":["ml:dpeker"],"prob":0.9592}}}},{"classId":"e_39","part":"s5v1","offsets":[{"start":851,"text":"A. monoculata"}],"coordinates":[],"confidence":{"state":"pre-added","who":["ml:dpeker"],"prob":0.9472},"fields":{},"normalizations":{"n_44":{"source":{"name":"SpringtailNames","id":"anmono","url":null},"recName":"Antarcticinella monoculata","confidence":{"state":"pre-added","who":["ml:dpeker"],"prob":0.9472}}}},{"classId":"e_4","part":"s5v1","offsets":[{"start":898,"text":"Mackay Glacier"}],"coordinates":[],"confidence":{"state":"pre-added","who":["ml:dpeker"],"prob":0.9518},"fields":{},"normalizations":{"n_34":{"source":{"name":"GeoNamesSCAR","id":"128291","url":null},"recName":"Mackay Glacier","confidence":{"state":"pre-added","who":["ml:dpeker"],"prob":0.9518}}}},{"classId":"e_4","part":"s5v1","offsets":[{"start":1252,"text":"Towle Glacier"}],"coordinates":[],"confidence":{"state":"pre-added","who":["ml:dpeker"],"prob":0.9472},"fields":{},"normalizations":{"n_34":{"source":{"name":"GeoNamesSCAR","id":"132820","url":null},"recName":"Towle Glacier","confidence":{"state":"pre-added","who":["ml:dpeker"],"prob":0.9472}}}},{"classId":"e_39","part":"s5v1","offsets":[{"start":1439,"text":"G. hodgsoni"}],"coordinates":[],"confidence":{"state":"pre-added","who":["ml:dpeker"],"prob":0.9349},"fields":{},"normalizations":{"n_44":{"source":{"name":"SpringtailNames","id":"gohodg","url":null},"recName":"Gomphiocephalus hodgsoni","confidence":{"state":"pre-added","who":["ml:dpeker"],"prob":0.9349}}}},{"classId":"e_39","part":"s5v1","offsets":[{"start":1515,"text":"A. monoculata"}],"coordinates":[],"confidence":{"state":"pre-added","who":["ml:dpeker"],"prob":0.9472},"fields":{},"normalizations":{"n_44":{"source":{"name":"SpringtailNames","id":"anmono","url":null},"recName":"Antarcticinella monoculata","confidence":{"state":"pre-added","who":["ml:dpeker"],"prob":0.9472}}}},{"classId":"e_39","part":"s6v1","offsets":[{"start":32,"text":"Gomphiocephalus hodgsoni"}],"coordinates":[],"confidence":{"state":"pre-added","who":["ml:dpeker"],"prob":0.9754},"fields":{},"normalizations":{"n_44":{"source":{"name":"SpringtailNames","id":"gohodg","url":null},"recName":"Gomphiocephalus hodgsoni","confidence":{"state":"pre-added","who":["ml:dpeker"],"prob":0.9754}}}},{"classId":"e_39","part":"s6v1","offsets":[{"start":100,"text":"Antarcticinella monoculata"}],"coordinates":[],"confidence":{"state":"pre-added","who":["ml:dpeker"],"prob":0.9778},"fields":{},"normalizations":{"n_44":{"source":{"name":"SpringtailNames","id":"anmono","url":null},"recName":"Antarcticinella monoculata","confidence":{"state":"pre-added","who":["ml:dpeker"],"prob":0.9778}}}},{"classId":"e_39","part":"s6v1","offsets":[{"start":475,"text":"G. hodgsoni"}],"coordinates":[],"confidence":{"state":"pre-added","who":["ml:dpeker"],"prob":0.9349},"fields":{},"normalizations":{"n_44":{"source":{"name":"SpringtailNames","id":"gohodg","url":null},"recName":"Gomphiocephalus hodgsoni","confidence":{"state":"pre-added","who":["ml:dpeker"],"prob":0.9349}}}},{"classId":"e_4","part":"s7v1","offsets":[{"start":349,"text":"Mackay Glacier"}],"coordinates":[],"confidence":{"state":"pre-added","who":["ml:dpeker"],"prob":0.9518},"fields":{},"normalizations":{"n_34":{"source":{"name":"GeoNamesSCAR","id":"128291","url":null},"recName":"Mackay Glacier","confidence":{"state":"pre-added","who":["ml:dpeker"],"prob":0.9518}}}},{"classId":"e_39","part":"s7v1","offsets":[{"start":1812,"text":"A. monoculata"}],"coordinates":[],"confidence":{"state":"pre-added","who":["ml:dpeker"],"prob":0.9472},"fields":{},"normalizations":{"n_44":{"source":{"name":"SpringtailNames","id":"anmono","url":null},"recName":"Antarcticinella monoculata","confidence":{"state":"pre-added","who":["ml:dpeker"],"prob":0.9472}}}},{"classId":"e_39","part":"s7v1","offsets":[{"start":2322,"text":"G. hodgsoni"}],"coordinates":[],"confidence":{"state":"pre-added","who":["ml:dpeker"],"prob":0.9349},"fields":{},"normalizations":{"n_44":{"source":{"name":"SpringtailNames","id":"gohodg","url":null},"recName":"Gomphiocephalus hodgsoni","confidence":{"state":"pre-added","who":["ml:dpeker"],"prob":0.9349}}}},{"classId":"e_39","part":"s7v1","offsets":[{"start":3326,"text":"G. hodgsoni"}],"coordinates":[],"confidence":{"state":"pre-added","who":["ml:dpeker"],"prob":0.9349},"fields":{},"normalizations":{"n_44":{"source":{"name":"SpringtailNames","id":"gohodg","url":null},"recName":"Gomphiocephalus hodgsoni","confidence":{"state":"pre-added","who":["ml:dpeker"],"prob":0.9349}}}},{"classId":"e_4","part":"s7v1","offsets":[{"start":3967,"text":"Mackay Glacier"}],"coordinates":[],"confidence":{"state":"pre-added","who":["ml:dpeker"],"prob":0.9518},"fields":{},"normalizations":{"n_34":{"source":{"name":"GeoNamesSCAR","id":"128291","url":null},"recName":"Mackay Glacier","confidence":{"state":"pre-added","who":["ml:dpeker"],"prob":0.9518}}}},{"classId":"e_39","part":"s7v1","offsets":[{"start":4133,"text":"A. monoculata"}],"coordinates":[],"confidence":{"state":"pre-added","who":["ml:dpeker"],"prob":0.9472},"fields":{},"normalizations":{"n_44":{"source":{"name":"SpringtailNames","id":"anmono","url":null},"recName":"Antarcticinella monoculata","confidence":{"state":"pre-added","who":["ml:dpeker"],"prob":0.9472}}}},{"classId":"e_4","part":"s7v1","offsets":[{"start":4150,"text":"Mt. Murray"}],"coordinates":[{"x":"324.50","y":"272.43"},{"x":"372.59","y":"277.98"}],"confidence":{"state":"pre-added","who":["user:ICTAR"],"prob":1},"fields":{},"normalizations":{"n_34":{"source":{"name":"GeoNamesSCAR","id":"129232","url":null},"recName":"","confidence":{"state":"pre-added","who":["user:ICTAR"],"prob":1}}}},{"classId":"e_4","part":"s7v1","offsets":[{"start":4165,"text":"Cliff Nunatak"}],"coordinates":[{"x":"393.86","y":"272.43"},{"x":"452.25","y":"277.98"}],"confidence":{"state":"pre-added","who":["user:ICTAR"],"prob":1},"fields":{},"normalizations":{"n_52":{"source":{"name":"GeoNamesCustom","id":"AV010","url":null},"recName":"","confidence":{"state":"pre-added","who":["user:ICTAR"],"prob":1}}}},{"classId":"e_39","part":"s7v1","offsets":[{"start":4319,"text":"G. hodgsoni"}],"coordinates":[],"confidence":{"state":"pre-added","who":["ml:dpeker"],"prob":0.9349},"fields":{},"normalizations":{"n_44":{"source":{"name":"SpringtailNames","id":"gohodg","url":null},"recName":"Gomphiocephalus hodgsoni","confidence":{"state":"pre-added","who":["ml:dpeker"],"prob":0.9349}}}},{"classId":"e_4","part":"s7v1","offsets":[{"start":4399,"text":"Mt. Murray"}],"coordinates":[{"x":"446.74","y":"320.44"},{"x":"497.60","y":"325.99"}],"confidence":{"state":"pre-added","who":["user:ICTAR"],"prob":1},"fields":{},"normalizations":{"n_34":{"source":{"name":"GeoNamesSCAR","id":"129232","url":null},"recName":"","confidence":{"state":"pre-added","who":["user:ICTAR"],"prob":1}}}},{"classId":"e_4","part":"s7v1","offsets":[{"start":5661,"text":"Mackay Glacier"}],"coordinates":[],"confidence":{"state":"pre-added","who":["ml:dpeker"],"prob":0.9518},"fields":{},"normalizations":{"n_34":{"source":{"name":"GeoNamesSCAR","id":"128291","url":null},"recName":"Mackay Glacier","confidence":{"state":"pre-added","who":["ml:dpeker"],"prob":0.9518}}}},{"classId":"e_39","part":"s8v1","offsets":[{"start":2522,"text":"Gomphiocephalus hodgsoni"}],"coordinates":[],"confidence":{"state":"pre-added","who":["ml:dpeker"],"prob":0.9754},"fields":{},"normalizations":{"n_44":{"source":{"name":"SpringtailNames","id":"gohodg","url":null},"recName":"Gomphiocephalus hodgsoni","confidence":{"state":"pre-added","who":["ml:dpeker"],"prob":0.9754}}}},{"classId":"e_4","part":"s8v1","offsets":[{"start":2598,"text":"Taylor Valley"}],"coordinates":[],"confidence":{"state":"pre-added","who":["ml:dpeker"],"prob":0.9472},"fields":{},"normalizations":{"n_34":{"source":{"name":"GeoNamesSCAR","id":"132512","url":null},"recName":"Taylor Valley","confidence":{"state":"pre-added","who":["ml:dpeker"],"prob":0.9472}}}},{"classId":"e_39","part":"s8v1","offsets":[{"start":3585,"text":"Gressittacantha terranova"}],"coordinates":[],"confidence":{"state":"pre-added","who":["ml:dpeker"],"prob":0.9766},"fields":{},"normalizations":{"n_44":{"source":{"name":"SpringtailNames","id":"grterr","url":null},"recName":"Gressittacantha terranova","confidence":{"state":"pre-added","who":["ml:dpeker"],"prob":0.9766}}}},{"classId":"e_4","part":"s8v1","offsets":[{"start":4058,"text":"McMurdo Dry Valleys"}],"coordinates":[],"confidence":{"state":"pre-added","who":["ml:dpeker"],"prob":0.9671},"fields":{},"normalizations":{"n_34":{"source":{"name":"GeoNamesSCAR","id":"113892","url":null},"recName":"McMurdo Dry Valleys","confidence":{"state":"pre-added","who":["ml:dpeker"],"prob":0.9671}}}},{"classId":"e_4","part":"s8v1","offsets":[{"start":4138,"text":"McMurdo Dry Valleys"}],"coordinates":[],"confidence":{"state":"pre-added","who":["ml:dpeker"],"prob":0.9671},"fields":{},"normalizations":{"n_34":{"source":{"name":"GeoNamesSCAR","id":"113892","url":null},"recName":"McMurdo Dry Valleys","confidence":{"state":"pre-added","who":["ml:dpeker"],"prob":0.9671}}}},{"classId":"e_39","part":"s8v1","offsets":[{"start":4588,"text":"Gomphio- cephalus hodgsoni"}],"coordinates":[],"confidence":{"state":"pre-added","who":["ml:dpeker"],"prob":0.876},"fields":{},"normalizations":{"n_44":{"source":{"name":"SpringtailNames","id":"gohodg","url":null},"recName":"Gomphiocephalus hodgsoni","confidence":{"state":"pre-added","who":["ml:dpeker"],"prob":0.876}}}},{"classId":"e_39","part":"s8v1","offsets":[{"start":5011,"text":"Gressittacantha terranova"}],"coordinates":[],"confidence":{"state":"pre-added","who":["ml:dpeker"],"prob":0.9766},"fields":{},"normalizations":{"n_44":{"source":{"name":"SpringtailNames","id":"grterr","url":null},"recName":"Gressittacantha terranova","confidence":{"state":"pre-added","who":["ml:dpeker"],"prob":0.9766}}}},{"classId":"e_4","part":"s9v1","offsets":[{"start":2763,"text":"Queen Maud Mountains"}],"coordinates":[],"confidence":{"state":"pre-added","who":["ml:dpeker"],"prob":0.9692},"fields":{},"normalizations":{"n_34":{"source":{"name":"GeoNamesSCAR","id":"130480","url":null},"recName":"Queen Maud Mountains","confidence":{"state":"pre-added","who":["ml:dpeker"],"prob":0.9692}}}},{"classId":"e_39","part":"s9v1","offsets":[{"start":3491,"text":"Gomphiocephalus hodgsoni"}],"coordinates":[],"confidence":{"state":"pre-added","who":["ml:dpeker"],"prob":0.9754},"fields":{},"normalizations":{"n_44":{"source":{"name":"SpringtailNames","id":"gohodg","url":null},"recName":"Gomphiocephalus hodgsoni","confidence":{"state":"pre-added","who":["ml:dpeker"],"prob":0.9754}}}},{"classId":"e_4","part":"s9v1","offsets":[{"start":3794,"text":"Trans-Antarctic Mountains"}],"coordinates":[],"confidence":{"state":"pre-added","who":["ml:dpeker"],"prob":0.9306},"fields":{},"normalizations":{"n_34":{"source":{"name":"GeoNamesSCAR","id":"132843","url":null},"recName":"Transantarctic Mountains","confidence":{"state":"pre-added","who":["ml:dpeker"],"prob":0.9306}}}},{"classId":"e_39","part":"s9v1","offsets":[{"start":4821,"text":"Friesea grisea"}],"coordinates":[],"confidence":{"state":"pre-added","who":["ml:dpeker"],"prob":0.9518},"fields":{},"normalizations":{"n_44":{"source":{"name":"SpringtailNames","id":"frgris","url":null},"recName":"Friesea grisea","confidence":{"state":"pre-added","who":["ml:dpeker"],"prob":0.9518}}}},{"classId":"e_39","part":"s9v1","offsets":[{"start":5037,"text":"Friesea grisea"}],"coordinates":[],"confidence":{"state":"pre-added","who":["ml:dpeker"],"prob":0.9518},"fields":{},"normalizations":{"n_44":{"source":{"name":"SpringtailNames","id":"frgris","url":null},"recName":"Friesea grisea","confidence":{"state":"pre-added","who":["ml:dpeker"],"prob":0.9518}}}}],"relations":[{"classId":"r_46","type":"linked","directed":false,"entities":["s2v1|e_39|1724,1747","s2v1|e_4|1768,1786"],"confidence":{"state":"pre-added","who":["user:ICTAR"],"prob":1}},{"classId":"r_46","type":"linked","directed":false,"entities":["s2v1|e_39|1724,1747","s3v1|e_4|2174,2187"],"confidence":{"state":"pre-added","who":["user:ICTAR"],"prob":1}},{"classId":"r_46","type":"linked","directed":false,"entities":["s2v1|e_39|1824,1849","s3v1|e_4|2125,2136"],"confidence":{"state":"pre-added","who":["user:ICTAR"],"prob":1}},{"classId":"r_46","type":"linked","directed":false,"entities":["s2v1|e_39|1855,1875","s3v1|e_4|2156,2168"],"confidence":{"state":"pre-added","who":["user:ICTAR"],"prob":1}},{"classId":"r_46","type":"linked","directed":false,"entities":["s2v1|e_39|1855,1875","s3v1|e_4|2210,2219"],"confidence":{"state":"pre-added","who":["user:ICTAR"],"prob":1}},{"classId":"r_46","type":"linked","directed":false,"entities":["s2v1|e_39|1855,1875","s3v1|e_4|2297,2309"],"confidence":{"state":"pre-added","who":["user:ICTAR"],"prob":1}},{"classId":"r_46","type":"linked","directed":false,"entities":["s2v1|e_4|3062,3075","s2v1|e_39|3085,3108"],"confidence":{"state":"pre-added","who":["user:ICTAR"],"prob":1}},{"classId":"r_46","type":"linked","directed":false,"entities":["s2v1|e_4|3062,3075","s2v1|e_39|3128,3153"],"confidence":{"state":"pre-added","who":["user:ICTAR"],"prob":1}},{"classId":"r_46","type":"linked","directed":false,"entities":["s2v1|e_4|3062,3075","s2v1|e_39|3174,3194"],"confidence":{"state":"pre-added","who":["user:ICTAR"],"prob":1}},{"classId":"r_46","type":"linked","directed":false,"entities":["s3v1|e_4|2156,2168","s2v1|e_39|1724,1747"],"confidence":{"state":"pre-added","who":["user:ICTAR"],"prob":1}},{"classId":"r_46","type":"linked","directed":false,"entities":["s3v1|e_4|2193,2204","s2v1|e_39|1724,1747"],"confidence":{"state":"pre-added","who":["user:ICTAR"],"prob":1}},{"classId":"r_46","type":"linked","directed":false,"entities":["s3v1|e_4|2193,2204","s2v1|e_39|1855,1875"],"confidence":{"state":"pre-added","who":["user:ICTAR"],"prob":1}},{"classId":"r_46","type":"linked","directed":false,"entities":["s3v1|e_4|2210,2219","s2v1|e_39|1724,1747"],"confidence":{"state":"pre-added","who":["user:ICTAR"],"prob":1}},{"classId":"r_46","type":"linked","directed":false,"entities":["s3v1|e_4|2225,2241","s2v1|e_39|1824,1849"],"confidence":{"state":"pre-added","who":["user:ICTAR"],"prob":1}},{"classId":"r_46","type":"linked","directed":false,"entities":["s3v1|e_4|2247,2257","s2v1|e_39|1724,1747"],"confidence":{"state":"pre-added","who":["user:ICTAR"],"prob":1}},{"classId":"r_46","type":"linked","directed":false,"entities":["s3v1|e_4|2247,2257","s2v1|e_39|1855,1875"],"confidence":{"state":"pre-added","who":["user:ICTAR"],"prob":1}},{"classId":"r_46","type":"linked","directed":false,"entities":["s3v1|e_4|2263,2274","s2v1|e_39|1724,1747"],"confidence":{"state":"pre-added","who":["user:ICTAR"],"prob":1}},{"classId":"r_46","type":"linked","directed":false,"entities":["s3v1|e_4|2280,2290","s2v1|e_39|1724,1747"],"confidence":{"state":"pre-added","who":["user:ICTAR"],"prob":1}},{"classId":"r_46","type":"linked","directed":false,"entities":["s3v1|e_4|2297,2309","s2v1|e_39|1824,1849"],"confidence":{"state":"pre-added","who":["user:ICTAR"],"prob":1}},{"classId":"r_46","type":"linked","directed":false,"entities":["s3v1|e_4|2316,2329","s2v1|e_39|1724,1747"],"confidence":{"state":"pre-added","who":["user:ICTAR"],"prob":1}},{"classId":"r_46","type":"linked","directed":false,"entities":["s4v1|e_39|4288,4298","s4v1|e_4|4334,4345"],"confidence":{"state":"pre-added","who":["user:ICTAR"],"prob":1}},{"classId":"r_46","type":"linked","directed":false,"entities":["s4v1|e_39|4303,4314","s4v1|e_4|4334,4345"],"confidence":{"state":"pre-added","who":["user:ICTAR"],"prob":1}},{"classId":"r_46","type":"linked","directed":false,"entities":["s4v1|e_39|4433,4458","s4v1|e_4|4492,4505"],"confidence":{"state":"pre-added","who":["user:ICTAR"],"prob":1}},{"classId":"r_46","type":"linked","directed":false,"entities":["s4v1|e_39|4433,4458","s4v1|e_4|4508,4522"],"confidence":{"state":"pre-added","who":["user:ICTAR"],"prob":1}},{"classId":"r_46","type":"linked","directed":false,"entities":["s4v1|e_39|4529,4540","s4v1|e_4|4574,4585"],"confidence":{"state":"pre-added","who":["user:ICTAR"],"prob":1}},{"classId":"r_46","type":"linked","directed":false,"entities":["s4v1|e_39|4529,4540","s4v1|e_4|4588,4600"],"confidence":{"state":"pre-added","who":["user:ICTAR"],"prob":1}},{"classId":"r_46","type":"linked","directed":false,"entities":["s4v1|e_4|4670,4679","s4v1|e_39|4619,4629"],"confidence":{"state":"pre-added","who":["user:ICTAR"],"prob":1}},{"classId":"r_46","type":"linked","directed":false,"entities":["s4v1|e_39|5320,5330","s4v1|e_4|5401,5413"],"confidence":{"state":"pre-added","who":["user:ICTAR"],"prob":1}},{"classId":"r_46","type":"linked","directed":false,"entities":["s5v1|e_39|495,507","s5v1|e_4|542,555"],"confidence":{"state":"pre-added","who":["user:ICTAR"],"prob":1}},{"classId":"r_46","type":"linked","directed":false,"entities":["s5v1|e_39|573,583","s5v1|e_4|662,675"],"confidence":{"state":"pre-added","who":["user:ICTAR"],"prob":1}},{"classId":"r_46","type":"linked","directed":false,"entities":["s5v1|e_39|589,600","s5v1|e_4|662,675"],"confidence":{"state":"pre-added","who":["user:ICTAR"],"prob":1}},{"classId":"r_46","type":"linked","directed":false,"entities":["s5v1|e_39|851,863","s5v1|e_4|898,911"],"confidence":{"state":"pre-added","who":["user:ICTAR"],"prob":1}},{"classId":"r_46","type":"linked","directed":false,"entities":["s7v1|e_39|4133,4145","s7v1|e_4|4165,4177"],"confidence":{"state":"pre-added","who":["user:ICTAR"],"prob":1}},{"classId":"r_46","type":"linked","directed":false,"entities":["s7v1|e_4|4150,4159","s7v1|e_39|4133,4145"],"confidence":{"state":"pre-added","who":["user:ICTAR"],"prob":1}},{"classId":"r_46","type":"linked","directed":false,"entities":["s7v1|e_4|4399,4408","s7v1|e_39|4319,4329"],"confidence":{"state":"pre-added","who":["user:ICTAR"],"prob":1}}]}