{"annotatable":{"parts":["s1v1","s2v1","s3v1","s4v1","s5v1","s6v1","s7v1","s8v1","s9v1","s10v1","s11v1","s12v1","s13v1","s14v1","s15v1","s16v1","s17v1","s18v1","s19v1","s20v1","s21v1","s22v1","s23v1","s24v1","s25v1","s26v1","s27v1","s28v1","s29v1","s30v1","s31v1","s32v1","s33v1","s34v1","s35v1","s36v1"]},"anncomplete":true,"sources":[],"metas":{"m_76":{"value":true,"confidence":{"state":"pre-added","who":["user:ICTAR"],"prob":1}},"m_14":{"value":false,"confidence":{"state":"pre-added","who":["user:ICTAR"],"prob":1}},"m_16":{"value":"South Victoria Land","confidence":{"state":"pre-added","who":["user:ICTAR"],"prob":1}}},"entities":[{"classId":"e_4","part":"s2v1","offsets":[{"start":284,"text":"Ross Dependency"}],"coordinates":[],"confidence":{"state":"pre-added","who":["ml:dpeker"],"prob":0.9558},"fields":{},"normalizations":{"n_34":{"source":{"name":"GeoNamesSCAR","id":"134188","url":null},"recName":"Ross Dependency","confidence":{"state":"pre-added","who":["ml:dpeker"],"prob":0.9558}}}},{"classId":"e_4","part":"s2v1","offsets":[{"start":385,"text":"Mackay Glacier"}],"coordinates":[],"confidence":{"state":"pre-added","who":["ml:dpeker"],"prob":0.9518},"fields":{},"normalizations":{"n_34":{"source":{"name":"GeoNamesSCAR","id":"128291","url":null},"recName":"Mackay Glacier","confidence":{"state":"pre-added","who":["ml:dpeker"],"prob":0.9518}}}},{"classId":"e_39","part":"s2v1","offsets":[{"start":509,"text":"Gomphiocephalus hodgsoni"}],"coordinates":[],"confidence":{"state":"pre-added","who":["ml:dpeker"],"prob":0.9754},"fields":{},"normalizations":{"n_44":{"source":{"name":"SpringtailNames","id":"gohodg","url":null},"recName":"Gomphiocephalus hodgsoni","confidence":{"state":"pre-added","who":["ml:dpeker"],"prob":0.9754}}}},{"classId":"e_39","part":"s2v1","offsets":[{"start":540,"text":"Cryptopygus nivicolus"}],"coordinates":[{"x":"282.12","y":"304.06"},{"x":"389.75","y":"312.00"}],"confidence":{"state":"pre-added","who":["user:ICTAR"],"prob":1},"fields":{},"normalizations":{"n_44":{"source":{"name":"SpringtailNames","id":"nenivi","url":null},"recName":"","confidence":{"state":"pre-added","who":["user:ICTAR"],"prob":1}}}},{"classId":"e_39","part":"s2v1","offsets":[{"start":587,"text":"monoculata"}],"coordinates":[{"x":"72.00","y":"331.66"},{"x":"128.64","y":"339.60"}],"confidence":{"state":"pre-added","who":["user:ICTAR"],"prob":1},"fields":{},"normalizations":{"n_44":{"source":{"name":"SpringtailNames","id":"anmono","url":null},"recName":"","confidence":{"state":"pre-added","who":["user:ICTAR"],"prob":1}}}},{"classId":"e_39","part":"s2v1","offsets":[{"start":886,"text":"Gomphiocephalus hodgsoni"}],"coordinates":[],"confidence":{"state":"pre-added","who":["ml:dpeker"],"prob":0.9754},"fields":{},"normalizations":{"n_44":{"source":{"name":"SpringtailNames","id":"gohodg","url":null},"recName":"Gomphiocephalus hodgsoni","confidence":{"state":"pre-added","who":["ml:dpeker"],"prob":0.9754}}}},{"classId":"e_4","part":"s2v1","offsets":[{"start":1003,"text":"Mackay Glacier"}],"coordinates":[],"confidence":{"state":"pre-added","who":["ml:dpeker"],"prob":0.9518},"fields":{},"normalizations":{"n_34":{"source":{"name":"GeoNamesSCAR","id":"128291","url":null},"recName":"Mackay Glacier","confidence":{"state":"pre-added","who":["ml:dpeker"],"prob":0.9518}}}},{"classId":"e_39","part":"s2v1","offsets":[{"start":1059,"text":"nivicolus"}],"coordinates":[{"x":"72.00","y":"509.26"},{"x":"115.31","y":"517.20"}],"confidence":{"state":"pre-added","who":["user:ICTAR"],"prob":1},"fields":{},"normalizations":{"n_44":{"source":{"name":"SpringtailNames","id":"nenivi","url":null},"recName":"","confidence":{"state":"pre-added","who":["user:ICTAR"],"prob":1}}}},{"classId":"e_39","part":"s2v1","offsets":[{"start":1141,"text":"Antarcticinella monoculata"}],"coordinates":[],"confidence":{"state":"pre-added","who":["ml:dpeker"],"prob":0.9778},"fields":{},"normalizations":{"n_44":{"source":{"name":"SpringtailNames","id":"anmono","url":null},"recName":"Antarcticinella monoculata","confidence":{"state":"pre-added","who":["ml:dpeker"],"prob":0.9778}}}},{"classId":"e_4","part":"s2v1","offsets":[{"start":1598,"text":"Mackay Glacier"}],"coordinates":[],"confidence":{"state":"pre-added","who":["ml:dpeker"],"prob":0.9518},"fields":{},"normalizations":{"n_34":{"source":{"name":"GeoNamesSCAR","id":"128291","url":null},"recName":"Mackay Glacier","confidence":{"state":"pre-added","who":["ml:dpeker"],"prob":0.9518}}}},{"classId":"e_4","part":"s4v1","offsets":[{"start":322,"text":"Transantarctic Mountains"}],"coordinates":[],"confidence":{"state":"pre-added","who":["ml:dpeker"],"prob":0.9754},"fields":{},"normalizations":{"n_34":{"source":{"name":"GeoNamesSCAR","id":"132843","url":null},"recName":"Transantarctic Mountains","confidence":{"state":"pre-added","who":["ml:dpeker"],"prob":0.9754}}}},{"classId":"e_4","part":"s4v1","offsets":[{"start":1627,"text":"Transantarctic Mountains"}],"coordinates":[],"confidence":{"state":"pre-added","who":["ml:dpeker"],"prob":0.9754},"fields":{},"normalizations":{"n_34":{"source":{"name":"GeoNamesSCAR","id":"132843","url":null},"recName":"Transantarctic Mountains","confidence":{"state":"pre-added","who":["ml:dpeker"],"prob":0.9754}}}},{"classId":"e_4","part":"s4v1","offsets":[{"start":1819,"text":"Transantarctic Mountain"}],"coordinates":[],"confidence":{"state":"pre-added","who":["ml:dpeker"],"prob":0.9335},"fields":{},"normalizations":{"n_34":{"source":{"name":"GeoNamesSCAR","id":"132843","url":null},"recName":"Transantarctic Mountains","confidence":{"state":"pre-added","who":["ml:dpeker"],"prob":0.9335}}}},{"classId":"e_4","part":"s4v1","offsets":[{"start":1870,"text":"Ross Ice Shelf"}],"coordinates":[],"confidence":{"state":"pre-added","who":["ml:dpeker"],"prob":0.9518},"fields":{},"normalizations":{"n_34":{"source":{"name":"GeoNamesSCAR","id":"130957","url":null},"recName":"Ross Ice Shelf","confidence":{"state":"pre-added","who":["ml:dpeker"],"prob":0.9518}}}},{"classId":"e_4","part":"s5v1","offsets":[{"start":1013,"text":"Ross Dependency"}],"coordinates":[],"confidence":{"state":"pre-added","who":["ml:dpeker"],"prob":0.9558},"fields":{},"normalizations":{"n_34":{"source":{"name":"GeoNamesSCAR","id":"134188","url":null},"recName":"Ross Dependency","confidence":{"state":"pre-added","who":["ml:dpeker"],"prob":0.9558}}}},{"classId":"e_4","part":"s5v1","offsets":[{"start":1217,"text":"Land, the"}],"coordinates":[],"confidence":{"state":"pre-added","who":["ml:dpeker"],"prob":0.6491},"fields":{},"normalizations":{"n_34":{"source":{"name":"GeoNamesSCAR","id":"127761","url":null},"recName":"Landing, The","confidence":{"state":"pre-added","who":["ml:dpeker"],"prob":0.6491}}}},{"classId":"e_39","part":"s5v1","offsets":[{"start":1329,"text":"Gomphiocephalus hodgsoni"}],"coordinates":[],"confidence":{"state":"pre-added","who":["ml:dpeker"],"prob":0.9754},"fields":{},"normalizations":{"n_44":{"source":{"name":"SpringtailNames","id":"gohodg","url":null},"recName":"Gomphiocephalus hodgsoni","confidence":{"state":"pre-added","who":["ml:dpeker"],"prob":0.9754}}}},{"classId":"e_39","part":"s5v1","offsets":[{"start":1606,"text":"Antarcticinella monoculata"}],"coordinates":[],"confidence":{"state":"pre-added","who":["ml:dpeker"],"prob":0.9778},"fields":{},"normalizations":{"n_44":{"source":{"name":"SpringtailNames","id":"anmono","url":null},"recName":"Antarcticinella monoculata","confidence":{"state":"pre-added","who":["ml:dpeker"],"prob":0.9778}}}},{"classId":"e_4","part":"s5v1","offsets":[{"start":1717,"text":"Mackay Glacier"}],"coordinates":[],"confidence":{"state":"pre-added","who":["ml:dpeker"],"prob":0.9518},"fields":{},"normalizations":{"n_34":{"source":{"name":"GeoNamesSCAR","id":"128291","url":null},"recName":"Mackay Glacier","confidence":{"state":"pre-added","who":["ml:dpeker"],"prob":0.9518}}}},{"classId":"e_4","part":"s5v1","offsets":[{"start":1895,"text":"Mackay Glacier"}],"coordinates":[],"confidence":{"state":"pre-added","who":["ml:dpeker"],"prob":0.9518},"fields":{},"normalizations":{"n_34":{"source":{"name":"GeoNamesSCAR","id":"128291","url":null},"recName":"Mackay Glacier","confidence":{"state":"pre-added","who":["ml:dpeker"],"prob":0.9518}}}},{"classId":"e_39","part":"s5v1","offsets":[{"start":1983,"text":"G. hodgsoni"}],"coordinates":[{"x":"75.96","y":"694.06"},{"x":"134.86","y":"702.00"}],"confidence":{"state":"pre-added","who":["user:ICTAR"],"prob":1},"fields":{},"normalizations":{"n_44":{"source":{"name":"SpringtailNames","id":"gohodg","url":null},"recName":"","confidence":{"state":"pre-added","who":["user:ICTAR"],"prob":1}}}},{"classId":"e_38","part":"s5v1","offsets":[{"start":2006,"text":"Stereotydeus. mollis"}],"coordinates":[{"x":"191.16","y":"694.06"},{"x":"287.99","y":"702.00"}],"confidence":{"state":"pre-added","who":["user:ICTAR"],"prob":1},"fields":{},"normalizations":{"n_43":{"source":{"name":"MiteNames","id":"stmoll","url":null},"recName":"","confidence":{"state":"pre-added","who":["user:ICTAR"],"prob":1}}}},{"classId":"e_4","part":"s6v1","offsets":[{"start":218,"text":"Mackay Glacier"}],"coordinates":[],"confidence":{"state":"pre-added","who":["ml:dpeker"],"prob":0.9518},"fields":{},"normalizations":{"n_34":{"source":{"name":"GeoNamesSCAR","id":"128291","url":null},"recName":"Mackay Glacier","confidence":{"state":"pre-added","who":["ml:dpeker"],"prob":0.9518}}}},{"classId":"e_4","part":"s6v1","offsets":[{"start":343,"text":"Ross Ice Shelf"}],"coordinates":[],"confidence":{"state":"pre-added","who":["ml:dpeker"],"prob":0.9518},"fields":{},"normalizations":{"n_34":{"source":{"name":"GeoNamesSCAR","id":"130957","url":null},"recName":"Ross Ice Shelf","confidence":{"state":"pre-added","who":["ml:dpeker"],"prob":0.9518}}}},{"classId":"e_4","part":"s6v1","offsets":[{"start":859,"text":"Victoria Valley"}],"coordinates":[],"confidence":{"state":"pre-added","who":["ml:dpeker"],"prob":0.9558},"fields":{},"normalizations":{"n_34":{"source":{"name":"GeoNamesSCAR","id":"133250","url":null},"recName":"Victoria Valley","confidence":{"state":"pre-added","who":["ml:dpeker"],"prob":0.9558}}}},{"classId":"e_4","part":"s6v1","offsets":[{"start":924,"text":"Mackay Glacier"}],"coordinates":[],"confidence":{"state":"pre-added","who":["ml:dpeker"],"prob":0.9518},"fields":{},"normalizations":{"n_34":{"source":{"name":"GeoNamesSCAR","id":"128291","url":null},"recName":"Mackay Glacier","confidence":{"state":"pre-added","who":["ml:dpeker"],"prob":0.9518}}}},{"classId":"e_39","part":"s7v1","offsets":[{"start":914,"text":"A. monoculata"}],"coordinates":[],"confidence":{"state":"pre-added","who":["ml:dpeker"],"prob":0.9472},"fields":{},"normalizations":{"n_44":{"source":{"name":"SpringtailNames","id":"anmono","url":null},"recName":"Antarcticinella monoculata","confidence":{"state":"pre-added","who":["ml:dpeker"],"prob":0.9472}}}},{"classId":"e_39","part":"s8v1","offsets":[{"start":588,"text":"G. hodgsoni"}],"coordinates":[],"confidence":{"state":"pre-added","who":["ml:dpeker"],"prob":0.9349},"fields":{},"normalizations":{"n_44":{"source":{"name":"SpringtailNames","id":"gohodg","url":null},"recName":"Gomphiocephalus hodgsoni","confidence":{"state":"pre-added","who":["ml:dpeker"],"prob":0.9349}}}},{"classId":"e_39","part":"s8v1","offsets":[{"start":741,"text":"A. monoculata"}],"coordinates":[],"confidence":{"state":"pre-added","who":["ml:dpeker"],"prob":0.9472},"fields":{},"normalizations":{"n_44":{"source":{"name":"SpringtailNames","id":"anmono","url":null},"recName":"Antarcticinella monoculata","confidence":{"state":"pre-added","who":["ml:dpeker"],"prob":0.9472}}}},{"classId":"e_39","part":"s8v1","offsets":[{"start":812,"text":"G. hodgsoni"}],"coordinates":[],"confidence":{"state":"pre-added","who":["ml:dpeker"],"prob":0.9349},"fields":{},"normalizations":{"n_44":{"source":{"name":"SpringtailNames","id":"gohodg","url":null},"recName":"Gomphiocephalus hodgsoni","confidence":{"state":"pre-added","who":["ml:dpeker"],"prob":0.9349}}}},{"classId":"e_39","part":"s8v1","offsets":[{"start":924,"text":"A. monoculata"}],"coordinates":[],"confidence":{"state":"pre-added","who":["ml:dpeker"],"prob":0.9472},"fields":{},"normalizations":{"n_44":{"source":{"name":"SpringtailNames","id":"anmono","url":null},"recName":"Antarcticinella monoculata","confidence":{"state":"pre-added","who":["ml:dpeker"],"prob":0.9472}}}},{"classId":"e_39","part":"s8v1","offsets":[{"start":1174,"text":"A. monoculata"}],"coordinates":[],"confidence":{"state":"pre-added","who":["ml:dpeker"],"prob":0.9472},"fields":{},"normalizations":{"n_44":{"source":{"name":"SpringtailNames","id":"anmono","url":null},"recName":"Antarcticinella monoculata","confidence":{"state":"pre-added","who":["ml:dpeker"],"prob":0.9472}}}},{"classId":"e_39","part":"s9v1","offsets":[{"start":1457,"text":"G. hodgsoni"}],"coordinates":[],"confidence":{"state":"pre-added","who":["ml:dpeker"],"prob":0.9349},"fields":{},"normalizations":{"n_44":{"source":{"name":"SpringtailNames","id":"gohodg","url":null},"recName":"Gomphiocephalus hodgsoni","confidence":{"state":"pre-added","who":["ml:dpeker"],"prob":0.9349}}}},{"classId":"e_39","part":"s9v1","offsets":[{"start":1832,"text":"A. monoculata"}],"coordinates":[],"confidence":{"state":"pre-added","who":["ml:dpeker"],"prob":0.9472},"fields":{},"normalizations":{"n_44":{"source":{"name":"SpringtailNames","id":"anmono","url":null},"recName":"Antarcticinella monoculata","confidence":{"state":"pre-added","who":["ml:dpeker"],"prob":0.9472}}}},{"classId":"e_39","part":"s10v1","offsets":[{"start":133,"text":"G. hodgsoni"}],"coordinates":[],"confidence":{"state":"pre-added","who":["ml:dpeker"],"prob":0.9349},"fields":{},"normalizations":{"n_44":{"source":{"name":"SpringtailNames","id":"gohodg","url":null},"recName":"Gomphiocephalus hodgsoni","confidence":{"state":"pre-added","who":["ml:dpeker"],"prob":0.9349}}}},{"classId":"e_39","part":"s10v1","offsets":[{"start":1213,"text":"G. hodgsoni"}],"coordinates":[],"confidence":{"state":"pre-added","who":["ml:dpeker"],"prob":0.9349},"fields":{},"normalizations":{"n_44":{"source":{"name":"SpringtailNames","id":"gohodg","url":null},"recName":"Gomphiocephalus hodgsoni","confidence":{"state":"pre-added","who":["ml:dpeker"],"prob":0.9349}}}},{"classId":"e_39","part":"s11v1","offsets":[{"start":136,"text":"A. monoculata"}],"coordinates":[],"confidence":{"state":"pre-added","who":["ml:dpeker"],"prob":0.9472},"fields":{},"normalizations":{"n_44":{"source":{"name":"SpringtailNames","id":"anmono","url":null},"recName":"Antarcticinella monoculata","confidence":{"state":"pre-added","who":["ml:dpeker"],"prob":0.9472}}}},{"classId":"e_39","part":"s11v1","offsets":[{"start":981,"text":"C. nivicolus"}],"coordinates":[{"x":"90.36","y":"430.06"},{"x":"148.43","y":"438.00"}],"confidence":{"state":"pre-added","who":["user:ICTAR"],"prob":1},"fields":{},"normalizations":{"n_44":{"source":{"name":"SpringtailNames","id":"nenivi","url":null},"recName":"","confidence":{"state":"pre-added","who":["user:ICTAR"],"prob":1}}}},{"classId":"e_4","part":"s11v1","offsets":[{"start":1008,"text":"Springtail Point"}],"coordinates":[],"confidence":{"state":"pre-added","who":["ml:dpeker"],"prob":0.9592},"fields":{},"normalizations":{"n_34":{"source":{"name":"GeoNamesSCAR","id":"132046","url":null},"recName":"Springtail Point","confidence":{"state":"pre-added","who":["ml:dpeker"],"prob":0.9592}}}},{"classId":"e_4","part":"s11v1","offsets":[{"start":1032,"text":"Mt Gran"}],"coordinates":[{"x":"333.84","y":"430.12"},{"x":"375.48","y":"438.00"}],"confidence":{"state":"pre-added","who":["user:ICTAR"],"prob":1},"fields":{},"normalizations":{"n_34":{"source":{"name":"GeoNamesSCAR","id":"113422","url":null},"recName":"","confidence":{"state":"pre-added","who":["user:ICTAR"],"prob":1}}}},{"classId":"e_4","part":"s11v1","offsets":[{"start":1129,"text":"Mt England"}],"coordinates":[{"x":"350.52","y":"457.72"},{"x":"407.64","y":"465.60"}],"confidence":{"state":"pre-added","who":["user:ICTAR"],"prob":1},"fields":{},"normalizations":{"n_34":{"source":{"name":"GeoNamesSCAR","id":"113242","url":null},"recName":"","confidence":{"state":"pre-added","who":["user:ICTAR"],"prob":1}}}},{"classId":"e_39","part":"s11v1","offsets":[{"start":1140,"text":"C. nivicolus"}],"coordinates":[{"x":"410.76","y":"457.66"},{"x":"468.23","y":"465.60"}],"confidence":{"state":"pre-added","who":["user:ICTAR"],"prob":1},"fields":{},"normalizations":{"n_44":{"source":{"name":"SpringtailNames","id":"nenivi","url":null},"recName":"","confidence":{"state":"pre-added","who":["user:ICTAR"],"prob":1}}}},{"classId":"e_39","part":"s11v1","offsets":[{"start":1564,"text":"A. monoculata"}],"coordinates":[],"confidence":{"state":"pre-added","who":["ml:dpeker"],"prob":0.9472},"fields":{},"normalizations":{"n_44":{"source":{"name":"SpringtailNames","id":"anmono","url":null},"recName":"Antarcticinella monoculata","confidence":{"state":"pre-added","who":["ml:dpeker"],"prob":0.9472}}}},{"classId":"e_39","part":"s11v1","offsets":[{"start":1616,"text":"C. nivicolus"}],"coordinates":[{"x":"465.24","y":"595.66"},{"x":"523.43","y":"603.60"}],"confidence":{"state":"pre-added","who":["user:ICTAR"],"prob":1},"fields":{},"normalizations":{"n_44":{"source":{"name":"SpringtailNames","id":"nenivi","url":null},"recName":"","confidence":{"state":"pre-added","who":["user:ICTAR"],"prob":1}}}},{"classId":"e_4","part":"s11v1","offsets":[{"start":1646,"text":"Springtail Point"}],"coordinates":[],"confidence":{"state":"pre-added","who":["ml:dpeker"],"prob":0.9592},"fields":{},"normalizations":{"n_34":{"source":{"name":"GeoNamesSCAR","id":"132046","url":null},"recName":"Springtail Point","confidence":{"state":"pre-added","who":["ml:dpeker"],"prob":0.9592}}}},{"classId":"e_4","part":"s11v1","offsets":[{"start":1670,"text":"Mt Gran"}],"coordinates":[{"x":"265.20","y":"623.32"},{"x":"308.88","y":"631.20"}],"confidence":{"state":"pre-added","who":["user:ICTAR"],"prob":1},"fields":{},"normalizations":{"n_34":{"source":{"name":"GeoNamesSCAR","id":"113422","url":null},"recName":"","confidence":{"state":"pre-added","who":["user:ICTAR"],"prob":1}}}},{"classId":"e_4","part":"s11v1","offsets":[{"start":1721,"text":"England"}],"coordinates":[{"x":"72.00","y":"650.92"},{"x":"111.84","y":"658.80"}],"confidence":{"state":"pre-added","who":["user:ICTAR"],"prob":1},"fields":{},"normalizations":{"n_34":{"source":{"name":"GeoNamesSCAR","id":"113242","url":null},"recName":"","confidence":{"state":"pre-added","who":["user:ICTAR"],"prob":1}}}},{"classId":"e_4","part":"s11v1","offsets":[{"start":1733,"text":"Mt Gran"}],"coordinates":[{"x":"136.68","y":"650.92"},{"x":"178.44","y":"658.80"}],"confidence":{"state":"pre-added","who":["user:ICTAR"],"prob":1},"fields":{},"normalizations":{"n_34":{"source":{"name":"GeoNamesSCAR","id":"113422","url":null},"recName":"","confidence":{"state":"pre-added","who":["user:ICTAR"],"prob":1}}}},{"classId":"e_4","part":"s11v1","offsets":[{"start":1866,"text":"Mackay Glacier"}],"coordinates":[],"confidence":{"state":"pre-added","who":["ml:dpeker"],"prob":0.9518},"fields":{},"normalizations":{"n_34":{"source":{"name":"GeoNamesSCAR","id":"128291","url":null},"recName":"Mackay Glacier","confidence":{"state":"pre-added","who":["ml:dpeker"],"prob":0.9518}}}},{"classId":"e_39","part":"s12v1","offsets":[{"start":55,"text":"G. hodgsoni"}],"coordinates":[],"confidence":{"state":"pre-added","who":["ml:dpeker"],"prob":0.9349},"fields":{},"normalizations":{"n_44":{"source":{"name":"SpringtailNames","id":"gohodg","url":null},"recName":"Gomphiocephalus hodgsoni","confidence":{"state":"pre-added","who":["ml:dpeker"],"prob":0.9349}}}},{"classId":"e_4","part":"s12v1","offsets":[{"start":1414,"text":"Springtail Point"}],"coordinates":[],"confidence":{"state":"pre-added","who":["ml:dpeker"],"prob":0.9592},"fields":{},"normalizations":{"n_34":{"source":{"name":"GeoNamesSCAR","id":"132046","url":null},"recName":"Springtail Point","confidence":{"state":"pre-added","who":["ml:dpeker"],"prob":0.9592}}}},{"classId":"e_4","part":"s12v1","offsets":[{"start":1452,"text":"Mackay Glacier"}],"coordinates":[],"confidence":{"state":"pre-added","who":["ml:dpeker"],"prob":0.9518},"fields":{},"normalizations":{"n_34":{"source":{"name":"GeoNamesSCAR","id":"128291","url":null},"recName":"Mackay Glacier","confidence":{"state":"pre-added","who":["ml:dpeker"],"prob":0.9518}}}},{"classId":"e_39","part":"s12v1","offsets":[{"start":1851,"text":"G. hodgsoni"}],"coordinates":[],"confidence":{"state":"pre-added","who":["ml:dpeker"],"prob":0.9349},"fields":{},"normalizations":{"n_44":{"source":{"name":"SpringtailNames","id":"gohodg","url":null},"recName":"Gomphiocephalus hodgsoni","confidence":{"state":"pre-added","who":["ml:dpeker"],"prob":0.9349}}}},{"classId":"e_4","part":"s12v1","offsets":[{"start":1964,"text":"Mt Gran"}],"coordinates":[{"x":"432.36","y":"718.12"},{"x":"477.24","y":"726.00"}],"confidence":{"state":"pre-added","who":["user:ICTAR"],"prob":1},"fields":{},"normalizations":{"n_34":{"source":{"name":"GeoNamesSCAR","id":"113422","url":null},"recName":"","confidence":{"state":"pre-added","who":["user:ICTAR"],"prob":1}}}},{"classId":"e_39","part":"s12v1","offsets":[{"start":2000,"text":"G. hodgsoni"}],"coordinates":[],"confidence":{"state":"pre-added","who":["ml:dpeker"],"prob":0.9349},"fields":{},"normalizations":{"n_44":{"source":{"name":"SpringtailNames","id":"gohodg","url":null},"recName":"Gomphiocephalus hodgsoni","confidence":{"state":"pre-added","who":["ml:dpeker"],"prob":0.9349}}}},{"classId":"e_39","part":"s12v1","offsets":[{"start":2057,"text":"C. nivicolus"}],"coordinates":[{"x":"463.32","y":"745.66"},{"x":"523.31","y":"753.60"}],"confidence":{"state":"pre-added","who":["user:ICTAR"],"prob":1},"fields":{},"normalizations":{"n_44":{"source":{"name":"SpringtailNames","id":"nenivi","url":null},"recName":"","confidence":{"state":"pre-added","who":["user:ICTAR"],"prob":1}}}},{"classId":"e_4","part":"s13v1","offsets":[{"start":14,"text":"Mt Gran"}],"coordinates":[{"x":"140.88","y":"74.92"},{"x":"183.00","y":"82.80"}],"confidence":{"state":"pre-added","who":["user:ICTAR"],"prob":1},"fields":{},"normalizations":{"n_34":{"source":{"name":"GeoNamesSCAR","id":"113422","url":null},"recName":"","confidence":{"state":"pre-added","who":["user:ICTAR"],"prob":1}}}},{"classId":"e_4","part":"s13v1","offsets":[{"start":26,"text":"Mt England"}],"coordinates":[{"x":"208.80","y":"74.92"},{"x":"266.88","y":"82.80"}],"confidence":{"state":"pre-added","who":["user:ICTAR"],"prob":1},"fields":{},"normalizations":{"n_34":{"source":{"name":"GeoNamesSCAR","id":"113242","url":null},"recName":"","confidence":{"state":"pre-added","who":["user:ICTAR"],"prob":1}}}},{"classId":"e_4","part":"s13v1","offsets":[{"start":51,"text":"Springtail Point"}],"coordinates":[],"confidence":{"state":"pre-added","who":["ml:dpeker"],"prob":0.9592},"fields":{},"normalizations":{"n_34":{"source":{"name":"GeoNamesSCAR","id":"132046","url":null},"recName":"Springtail Point","confidence":{"state":"pre-added","who":["ml:dpeker"],"prob":0.9592}}}},{"classId":"e_4","part":"s13v1","offsets":[{"start":73,"text":"St John's Range"}],"coordinates":[{"x":"444.72","y":"74.92"},{"x":"523.25","y":"82.80"}],"confidence":{"state":"pre-added","who":["user:ICTAR"],"prob":1},"fields":{},"normalizations":{"n_34":{"source":{"name":"GeoNamesSCAR","id":"131124","url":null},"recName":"","confidence":{"state":"pre-added","who":["user:ICTAR"],"prob":1}}}},{"classId":"e_4","part":"s13v1","offsets":[{"start":96,"text":"Mt Seuss"}],"coordinates":[{"x":"94.44","y":"102.52"},{"x":"140.99","y":"110.40"}],"confidence":{"state":"pre-added","who":["user:ICTAR"],"prob":1},"fields":{},"normalizations":{"n_52":{"source":{"name":"GeoNamesCustom","id":"AV011","url":null},"recName":"","confidence":{"state":"pre-added","who":["user:ICTAR"],"prob":1}}}},{"classId":"e_39","part":"s13v1","offsets":[{"start":105,"text":"G. hodgsoni"}],"coordinates":[],"confidence":{"state":"pre-added","who":["ml:dpeker"],"prob":0.9349},"fields":{},"normalizations":{"n_44":{"source":{"name":"SpringtailNames","id":"gohodg","url":null},"recName":"Gomphiocephalus hodgsoni","confidence":{"state":"pre-added","who":["ml:dpeker"],"prob":0.9349}}}},{"classId":"e_39","part":"s13v1","offsets":[{"start":352,"text":"C. nivicolus"}],"coordinates":[{"x":"280.32","y":"197.26"},{"x":"338.39","y":"205.20"}],"confidence":{"state":"pre-added","who":["user:ICTAR"],"prob":1},"fields":{},"normalizations":{"n_44":{"source":{"name":"SpringtailNames","id":"nenivi","url":null},"recName":"","confidence":{"state":"pre-added","who":["user:ICTAR"],"prob":1}}}},{"classId":"e_4","part":"s13v1","offsets":[{"start":414,"text":"Mt Gran"}],"coordinates":[{"x":"114.00","y":"224.92"},{"x":"156.24","y":"232.80"}],"confidence":{"state":"pre-added","who":["user:ICTAR"],"prob":1},"fields":{},"normalizations":{"n_34":{"source":{"name":"GeoNamesSCAR","id":"113422","url":null},"recName":"","confidence":{"state":"pre-added","who":["user:ICTAR"],"prob":1}}}},{"classId":"e_4","part":"s13v1","offsets":[{"start":431,"text":"Springtail Point"}],"coordinates":[],"confidence":{"state":"pre-added","who":["ml:dpeker"],"prob":0.9592},"fields":{},"normalizations":{"n_34":{"source":{"name":"GeoNamesSCAR","id":"132046","url":null},"recName":"Springtail Point","confidence":{"state":"pre-added","who":["ml:dpeker"],"prob":0.9592}}}},{"classId":"e_4","part":"s13v1","offsets":[{"start":460,"text":"Mt England"}],"coordinates":[{"x":"350.28","y":"224.92"},{"x":"408.48","y":"232.80"}],"confidence":{"state":"pre-added","who":["user:ICTAR"],"prob":1},"fields":{},"normalizations":{"n_34":{"source":{"name":"GeoNamesSCAR","id":"113242","url":null},"recName":"","confidence":{"state":"pre-added","who":["user:ICTAR"],"prob":1}}}},{"classId":"e_4","part":"s13v1","offsets":[{"start":627,"text":"Springtail Point"}],"coordinates":[],"confidence":{"state":"pre-added","who":["ml:dpeker"],"prob":0.9592},"fields":{},"normalizations":{"n_34":{"source":{"name":"GeoNamesSCAR","id":"132046","url":null},"recName":"Springtail Point","confidence":{"state":"pre-added","who":["ml:dpeker"],"prob":0.9592}}}},{"classId":"e_39","part":"s13v1","offsets":[{"start":1074,"text":"G. hodgsoni"}],"coordinates":[],"confidence":{"state":"pre-added","who":["ml:dpeker"],"prob":0.9349},"fields":{},"normalizations":{"n_44":{"source":{"name":"SpringtailNames","id":"gohodg","url":null},"recName":"Gomphiocephalus hodgsoni","confidence":{"state":"pre-added","who":["ml:dpeker"],"prob":0.9349}}}},{"classId":"e_4","part":"s13v1","offsets":[{"start":1100,"text":"Mt Gran"}],"coordinates":[{"x":"480.00","y":"430.12"},{"x":"523.32","y":"438.00"}],"confidence":{"state":"pre-added","who":["user:ICTAR"],"prob":1},"fields":{},"normalizations":{"n_34":{"source":{"name":"GeoNamesSCAR","id":"113422","url":null},"recName":"","confidence":{"state":"pre-added","who":["user:ICTAR"],"prob":1}}}},{"classId":"e_4","part":"s13v1","offsets":[{"start":1135,"text":"St John's Range"}],"coordinates":[{"x":"195.48","y":"457.72"},{"x":"276.77","y":"465.60"}],"confidence":{"state":"pre-added","who":["user:ICTAR"],"prob":1},"fields":{},"normalizations":{"n_34":{"source":{"name":"GeoNamesSCAR","id":"131124","url":null},"recName":"","confidence":{"state":"pre-added","who":["user:ICTAR"],"prob":1}}}},{"classId":"e_4","part":"s13v1","offsets":[{"start":1158,"text":"Mt Seuss"}],"coordinates":[{"x":"319.80","y":"457.72"},{"x":"366.83","y":"465.60"}],"confidence":{"state":"pre-added","who":["user:ICTAR"],"prob":1},"fields":{},"normalizations":{"n_52":{"source":{"name":"GeoNamesCustom","id":"AV011","url":null},"recName":"","confidence":{"state":"pre-added","who":["user:ICTAR"],"prob":1}}}},{"classId":"e_39","part":"s13v1","offsets":[{"start":1217,"text":"C. nivicolus"}],"coordinates":[{"x":"166.32","y":"485.26"},{"x":"225.95","y":"493.20"}],"confidence":{"state":"pre-added","who":["user:ICTAR"],"prob":1},"fields":{},"normalizations":{"n_44":{"source":{"name":"SpringtailNames","id":"nenivi","url":null},"recName":"","confidence":{"state":"pre-added","who":["user:ICTAR"],"prob":1}}}},{"classId":"e_4","part":"s13v1","offsets":[{"start":1261,"text":"Springtail Point"}],"coordinates":[],"confidence":{"state":"pre-added","who":["ml:dpeker"],"prob":0.9592},"fields":{},"normalizations":{"n_34":{"source":{"name":"GeoNamesSCAR","id":"132046","url":null},"recName":"Springtail Point","confidence":{"state":"pre-added","who":["ml:dpeker"],"prob":0.9592}}}},{"classId":"e_4","part":"s13v1","offsets":[{"start":1685,"text":"Mackay Glacier"}],"coordinates":[],"confidence":{"state":"pre-added","who":["ml:dpeker"],"prob":0.9518},"fields":{},"normalizations":{"n_34":{"source":{"name":"GeoNamesSCAR","id":"128291","url":null},"recName":"Mackay Glacier","confidence":{"state":"pre-added","who":["ml:dpeker"],"prob":0.9518}}}},{"classId":"e_39","part":"s13v1","offsets":[{"start":1720,"text":"Gomphiocephalus hodgsoni"}],"coordinates":[],"confidence":{"state":"pre-added","who":["ml:dpeker"],"prob":0.9754},"fields":{},"normalizations":{"n_44":{"source":{"name":"SpringtailNames","id":"gohodg","url":null},"recName":"Gomphiocephalus hodgsoni","confidence":{"state":"pre-added","who":["ml:dpeker"],"prob":0.9754}}}},{"classId":"e_39","part":"s13v1","offsets":[{"start":1749,"text":"Cryptopygus nivicolus"}],"coordinates":[{"x":"304.20","y":"690.70"},{"x":"412.19","y":"698.64"}],"confidence":{"state":"pre-added","who":["user:ICTAR"],"prob":1},"fields":{},"normalizations":{"n_44":{"source":{"name":"SpringtailNames","id":"nenivi","url":null},"recName":"","confidence":{"state":"pre-added","who":["user:ICTAR"],"prob":1}}}},{"classId":"e_4","part":"s13v1","offsets":[{"start":1798,"text":"Mt Gran"}],"coordinates":[{"x":"72.00","y":"718.36"},{"x":"115.80","y":"726.24"}],"confidence":{"state":"pre-added","who":["user:ICTAR"],"prob":1},"fields":{},"normalizations":{"n_34":{"source":{"name":"GeoNamesSCAR","id":"113422","url":null},"recName":"","confidence":{"state":"pre-added","who":["user:ICTAR"],"prob":1}}}},{"classId":"e_39","part":"s13v1","offsets":[{"start":1899,"text":"G. hodgsoni"}],"coordinates":[],"confidence":{"state":"pre-added","who":["ml:dpeker"],"prob":0.9349},"fields":{},"normalizations":{"n_44":{"source":{"name":"SpringtailNames","id":"gohodg","url":null},"recName":"Gomphiocephalus hodgsoni","confidence":{"state":"pre-added","who":["ml:dpeker"],"prob":0.9349}}}},{"classId":"e_4","part":"s14v1","offsets":[{"start":90,"text":"McMurdo Dry Valleys"}],"coordinates":[],"confidence":{"state":"pre-added","who":["ml:dpeker"],"prob":0.9671},"fields":{},"normalizations":{"n_34":{"source":{"name":"GeoNamesSCAR","id":"113892","url":null},"recName":"McMurdo Dry Valleys","confidence":{"state":"pre-added","who":["ml:dpeker"],"prob":0.9671}}}},{"classId":"e_4","part":"s14v1","offsets":[{"start":514,"text":"Mackay Glacier"}],"coordinates":[],"confidence":{"state":"pre-added","who":["ml:dpeker"],"prob":0.9518},"fields":{},"normalizations":{"n_34":{"source":{"name":"GeoNamesSCAR","id":"128291","url":null},"recName":"Mackay Glacier","confidence":{"state":"pre-added","who":["ml:dpeker"],"prob":0.9518}}}},{"classId":"e_39","part":"s14v1","offsets":[{"start":751,"text":"G. hodgsoni"}],"coordinates":[],"confidence":{"state":"pre-added","who":["ml:dpeker"],"prob":0.9349},"fields":{},"normalizations":{"n_44":{"source":{"name":"SpringtailNames","id":"gohodg","url":null},"recName":"Gomphiocephalus hodgsoni","confidence":{"state":"pre-added","who":["ml:dpeker"],"prob":0.9349}}}},{"classId":"e_39","part":"s14v1","offsets":[{"start":781,"text":"A. monoculata"}],"coordinates":[],"confidence":{"state":"pre-added","who":["ml:dpeker"],"prob":0.9472},"fields":{},"normalizations":{"n_44":{"source":{"name":"SpringtailNames","id":"anmono","url":null},"recName":"Antarcticinella monoculata","confidence":{"state":"pre-added","who":["ml:dpeker"],"prob":0.9472}}}},{"classId":"e_4","part":"s14v1","offsets":[{"start":942,"text":"Mackay Glacier"}],"coordinates":[],"confidence":{"state":"pre-added","who":["ml:dpeker"],"prob":0.9518},"fields":{},"normalizations":{"n_34":{"source":{"name":"GeoNamesSCAR","id":"128291","url":null},"recName":"Mackay Glacier","confidence":{"state":"pre-added","who":["ml:dpeker"],"prob":0.9518}}}},{"classId":"e_4","part":"s14v1","offsets":[{"start":1321,"text":"Mackay Glacier"}],"coordinates":[],"confidence":{"state":"pre-added","who":["ml:dpeker"],"prob":0.9518},"fields":{},"normalizations":{"n_34":{"source":{"name":"GeoNamesSCAR","id":"128291","url":null},"recName":"Mackay Glacier","confidence":{"state":"pre-added","who":["ml:dpeker"],"prob":0.9518}}}},{"classId":"e_39","part":"s14v1","offsets":[{"start":1427,"text":"G. hodgsoni"}],"coordinates":[],"confidence":{"state":"pre-added","who":["ml:dpeker"],"prob":0.9349},"fields":{},"normalizations":{"n_44":{"source":{"name":"SpringtailNames","id":"gohodg","url":null},"recName":"Gomphiocephalus hodgsoni","confidence":{"state":"pre-added","who":["ml:dpeker"],"prob":0.9349}}}},{"classId":"e_4","part":"s14v1","offsets":[{"start":1473,"text":"Mt Gran"}],"coordinates":[{"x":"150.72","y":"528.52"},{"x":"192.48","y":"536.40"}],"confidence":{"state":"pre-added","who":["user:ICTAR"],"prob":1},"fields":{},"normalizations":{"n_34":{"source":{"name":"GeoNamesSCAR","id":"113422","url":null},"recName":"","confidence":{"state":"pre-added","who":["user:ICTAR"],"prob":1}}}},{"classId":"e_39","part":"s14v1","offsets":[{"start":1516,"text":"G. hodgsoni"}],"coordinates":[],"confidence":{"state":"pre-added","who":["ml:dpeker"],"prob":0.9349},"fields":{},"normalizations":{"n_44":{"source":{"name":"SpringtailNames","id":"gohodg","url":null},"recName":"Gomphiocephalus hodgsoni","confidence":{"state":"pre-added","who":["ml:dpeker"],"prob":0.9349}}}},{"classId":"e_39","part":"s14v1","offsets":[{"start":1604,"text":"C. nivicolus"}],"coordinates":[{"x":"347.28","y":"556.06"},{"x":"405.71","y":"564.00"}],"confidence":{"state":"pre-added","who":["user:ICTAR"],"prob":1},"fields":{},"normalizations":{"n_44":{"source":{"name":"SpringtailNames","id":"nenivi","url":null},"recName":"","confidence":{"state":"pre-added","who":["user:ICTAR"],"prob":1}}}},{"classId":"e_4","part":"s14v1","offsets":[{"start":1695,"text":"Springtail Point"}],"coordinates":[],"confidence":{"state":"pre-added","who":["ml:dpeker"],"prob":0.9592},"fields":{},"normalizations":{"n_34":{"source":{"name":"GeoNamesSCAR","id":"132046","url":null},"recName":"Springtail Point","confidence":{"state":"pre-added","who":["ml:dpeker"],"prob":0.9592}}}},{"classId":"e_39","part":"s14v1","offsets":[{"start":1757,"text":"A. monoculata"}],"coordinates":[],"confidence":{"state":"pre-added","who":["ml:dpeker"],"prob":0.9472},"fields":{},"normalizations":{"n_44":{"source":{"name":"SpringtailNames","id":"anmono","url":null},"recName":"Antarcticinella monoculata","confidence":{"state":"pre-added","who":["ml:dpeker"],"prob":0.9472}}}},{"classId":"e_4","part":"s14v1","offsets":[{"start":1774,"text":"Springtail Point"}],"coordinates":[],"confidence":{"state":"pre-added","who":["ml:dpeker"],"prob":0.9592},"fields":{},"normalizations":{"n_34":{"source":{"name":"GeoNamesSCAR","id":"132046","url":null},"recName":"Springtail Point","confidence":{"state":"pre-added","who":["ml:dpeker"],"prob":0.9592}}}},{"classId":"e_4","part":"s14v1","offsets":[{"start":1844,"text":"Mt Gran"}],"coordinates":[{"x":"142.68","y":"638.92"},{"x":"183.60","y":"646.80"}],"confidence":{"state":"pre-added","who":["user:ICTAR"],"prob":1},"fields":{},"normalizations":{"n_34":{"source":{"name":"GeoNamesSCAR","id":"113422","url":null},"recName":"","confidence":{"state":"pre-added","who":["user:ICTAR"],"prob":1}}}},{"classId":"e_39","part":"s14v1","offsets":[{"start":1966,"text":"G. hodgsoni"}],"coordinates":[],"confidence":{"state":"pre-added","who":["ml:dpeker"],"prob":0.9349},"fields":{},"normalizations":{"n_44":{"source":{"name":"SpringtailNames","id":"gohodg","url":null},"recName":"Gomphiocephalus hodgsoni","confidence":{"state":"pre-added","who":["ml:dpeker"],"prob":0.9349}}}},{"classId":"e_39","part":"s15v1","offsets":[{"start":33,"text":"G. hodgsoni"}],"coordinates":[],"confidence":{"state":"pre-added","who":["ml:dpeker"],"prob":0.9349},"fields":{},"normalizations":{"n_44":{"source":{"name":"SpringtailNames","id":"gohodg","url":null},"recName":"Gomphiocephalus hodgsoni","confidence":{"state":"pre-added","who":["ml:dpeker"],"prob":0.9349}}}},{"classId":"e_38","part":"s15v1","offsets":[{"start":58,"text":"Stereotydeus mollis"}],"coordinates":[],"confidence":{"state":"pre-added","who":["ml:dpeker"],"prob":0.9671},"fields":{},"normalizations":{"n_43":{"source":{"name":"MiteNames","id":"stmoll","url":null},"recName":"Stereotydeus mollis","confidence":{"state":"pre-added","who":["ml:dpeker"],"prob":0.9671}}}},{"classId":"e_39","part":"s15v1","offsets":[{"start":470,"text":"G. hodgsoni"}],"coordinates":[],"confidence":{"state":"pre-added","who":["ml:dpeker"],"prob":0.9349},"fields":{},"normalizations":{"n_44":{"source":{"name":"SpringtailNames","id":"gohodg","url":null},"recName":"Gomphiocephalus hodgsoni","confidence":{"state":"pre-added","who":["ml:dpeker"],"prob":0.9349}}}},{"classId":"e_4","part":"s15v1","offsets":[{"start":711,"text":"Mackay Glacier"}],"coordinates":[],"confidence":{"state":"pre-added","who":["ml:dpeker"],"prob":0.9518},"fields":{},"normalizations":{"n_34":{"source":{"name":"GeoNamesSCAR","id":"128291","url":null},"recName":"Mackay Glacier","confidence":{"state":"pre-added","who":["ml:dpeker"],"prob":0.9518}}}},{"classId":"e_4","part":"s15v1","offsets":[{"start":993,"text":"Mt Gran"}],"coordinates":[{"x":"90.00","y":"390.52"},{"x":"131.28","y":"398.40"}],"confidence":{"state":"pre-added","who":["user:ICTAR"],"prob":1},"fields":{},"normalizations":{"n_34":{"source":{"name":"GeoNamesSCAR","id":"113422","url":null},"recName":"","confidence":{"state":"pre-added","who":["user:ICTAR"],"prob":1}}}},{"classId":"e_39","part":"s15v1","offsets":[{"start":1015,"text":"G. hodgsoni"}],"coordinates":[],"confidence":{"state":"pre-added","who":["ml:dpeker"],"prob":0.9349},"fields":{},"normalizations":{"n_44":{"source":{"name":"SpringtailNames","id":"gohodg","url":null},"recName":"Gomphiocephalus hodgsoni","confidence":{"state":"pre-added","who":["ml:dpeker"],"prob":0.9349}}}},{"classId":"e_4","part":"s15v1","offsets":[{"start":1051,"text":"Mt Seuss"}],"coordinates":[{"x":"384.24","y":"390.52"},{"x":"428.87","y":"398.40"}],"confidence":{"state":"pre-added","who":["user:ICTAR"],"prob":1},"fields":{},"normalizations":{"n_52":{"source":{"name":"GeoNamesCustom","id":"AV011","url":null},"recName":"","confidence":{"state":"pre-added","who":["user:ICTAR"],"prob":1}}}},{"classId":"e_4","part":"s15v1","offsets":[{"start":1110,"text":"St John's Range"}],"coordinates":[{"x":"197.76","y":"418.12"},{"x":"277.25","y":"426.00"}],"confidence":{"state":"pre-added","who":["user:ICTAR"],"prob":1},"fields":{},"normalizations":{"n_34":{"source":{"name":"GeoNamesSCAR","id":"131124","url":null},"recName":"","confidence":{"state":"pre-added","who":["user:ICTAR"],"prob":1}}}},{"classId":"e_4","part":"s15v1","offsets":[{"start":1136,"text":"Victoria Valley"}],"coordinates":[],"confidence":{"state":"pre-added","who":["ml:dpeker"],"prob":0.9558},"fields":{},"normalizations":{"n_34":{"source":{"name":"GeoNamesSCAR","id":"133250","url":null},"recName":"Victoria Valley","confidence":{"state":"pre-added","who":["ml:dpeker"],"prob":0.9558}}}},{"classId":"e_39","part":"s15v1","offsets":[{"start":1332,"text":"C. nivicolus"}],"coordinates":[{"x":"349.20","y":"473.26"},{"x":"407.03","y":"481.20"}],"confidence":{"state":"pre-added","who":["user:ICTAR"],"prob":1},"fields":{},"normalizations":{"n_44":{"source":{"name":"SpringtailNames","id":"nenivi","url":null},"recName":"","confidence":{"state":"pre-added","who":["user:ICTAR"],"prob":1}}}},{"classId":"e_4","part":"s15v1","offsets":[{"start":1371,"text":"Gran"}],"coordinates":[{"x":"72.00","y":"500.92"},{"x":"95.88","y":"508.80"}],"confidence":{"state":"pre-added","who":["user:ICTAR"],"prob":1},"fields":{},"normalizations":{"n_34":{"source":{"name":"GeoNamesSCAR","id":"113422","url":null},"recName":"","confidence":{"state":"pre-added","who":["user:ICTAR"],"prob":1}}}},{"classId":"e_4","part":"s15v1","offsets":[{"start":1380,"text":"Mt Seuss"}],"coordinates":[{"x":"125.16","y":"500.92"},{"x":"172.55","y":"508.80"}],"confidence":{"state":"pre-added","who":["user:ICTAR"],"prob":1},"fields":{},"normalizations":{"n_52":{"source":{"name":"GeoNamesCustom","id":"AV011","url":null},"recName":"","confidence":{"state":"pre-added","who":["user:ICTAR"],"prob":1}}}},{"classId":"e_4","part":"s15v1","offsets":[{"start":1438,"text":"Mt Gran"}],"coordinates":[{"x":"422.64","y":"500.92"},{"x":"466.68","y":"508.80"}],"confidence":{"state":"pre-added","who":["user:ICTAR"],"prob":1},"fields":{},"normalizations":{"n_34":{"source":{"name":"GeoNamesSCAR","id":"113422","url":null},"recName":"","confidence":{"state":"pre-added","who":["user:ICTAR"],"prob":1}}}},{"classId":"e_39","part":"s15v1","offsets":[{"start":1732,"text":"hodgsoni"}],"coordinates":[{"x":"72.00","y":"611.26"},{"x":"116.02","y":"619.20"}],"confidence":{"state":"pre-added","who":["user:ICTAR"],"prob":1},"fields":{},"normalizations":{"n_44":{"source":{"name":"SpringtailNames","id":"gohodg","url":null},"recName":"","confidence":{"state":"pre-added","who":["user:ICTAR"],"prob":1}}}},{"classId":"e_4","part":"s15v1","offsets":[{"start":1770,"text":"Mt Gran"}],"coordinates":[{"x":"254.16","y":"611.32"},{"x":"295.20","y":"619.20"}],"confidence":{"state":"pre-added","who":["user:ICTAR"],"prob":1},"fields":{},"normalizations":{"n_34":{"source":{"name":"GeoNamesSCAR","id":"113422","url":null},"recName":"","confidence":{"state":"pre-added","who":["user:ICTAR"],"prob":1}}}},{"classId":"e_39","part":"s15v1","offsets":[{"start":1808,"text":"A. monoculata"}],"coordinates":[],"confidence":{"state":"pre-added","who":["ml:dpeker"],"prob":0.9472},"fields":{},"normalizations":{"n_44":{"source":{"name":"SpringtailNames","id":"anmono","url":null},"recName":"Antarcticinella monoculata","confidence":{"state":"pre-added","who":["ml:dpeker"],"prob":0.9472}}}},{"classId":"e_4","part":"s15v1","offsets":[{"start":1927,"text":"Mt Murray"}],"coordinates":[{"x":"286.56","y":"678.52"},{"x":"341.04","y":"686.40"}],"confidence":{"state":"pre-added","who":["user:ICTAR"],"prob":1},"fields":{},"normalizations":{"n_34":{"source":{"name":"GeoNamesSCAR","id":"129232","url":null},"recName":"","confidence":{"state":"pre-added","who":["user:ICTAR"],"prob":1}}}},{"classId":"e_39","part":"s15v1","offsets":[{"start":2011,"text":"C. nivicolus"}],"coordinates":[{"x":"228.36","y":"706.06"},{"x":"286.67","y":"714.00"}],"confidence":{"state":"pre-added","who":["user:ICTAR"],"prob":1},"fields":{},"normalizations":{"n_44":{"source":{"name":"SpringtailNames","id":"nenivi","url":null},"recName":"","confidence":{"state":"pre-added","who":["user:ICTAR"],"prob":1}}}},{"classId":"e_4","part":"s15v1","offsets":[{"start":2092,"text":"Springtail Point"}],"coordinates":[],"confidence":{"state":"pre-added","who":["ml:dpeker"],"prob":0.9592},"fields":{},"normalizations":{"n_34":{"source":{"name":"GeoNamesSCAR","id":"132046","url":null},"recName":"Springtail Point","confidence":{"state":"pre-added","who":["ml:dpeker"],"prob":0.9592}}}},{"classId":"e_39","part":"s16v1","offsets":[{"start":439,"text":"A. monoculata"}],"coordinates":[],"confidence":{"state":"pre-added","who":["ml:dpeker"],"prob":0.9472},"fields":{},"normalizations":{"n_44":{"source":{"name":"SpringtailNames","id":"anmono","url":null},"recName":"Antarcticinella monoculata","confidence":{"state":"pre-added","who":["ml:dpeker"],"prob":0.9472}}}},{"classId":"e_39","part":"s16v1","offsets":[{"start":602,"text":"A. monoculata"}],"coordinates":[],"confidence":{"state":"pre-added","who":["ml:dpeker"],"prob":0.9472},"fields":{},"normalizations":{"n_44":{"source":{"name":"SpringtailNames","id":"anmono","url":null},"recName":"Antarcticinella monoculata","confidence":{"state":"pre-added","who":["ml:dpeker"],"prob":0.9472}}}},{"classId":"e_4","part":"s16v1","offsets":[{"start":710,"text":"Mackay Glacier"}],"coordinates":[],"confidence":{"state":"pre-added","who":["ml:dpeker"],"prob":0.9518},"fields":{},"normalizations":{"n_34":{"source":{"name":"GeoNamesSCAR","id":"128291","url":null},"recName":"Mackay Glacier","confidence":{"state":"pre-added","who":["ml:dpeker"],"prob":0.9518}}}},{"classId":"e_4","part":"s16v1","offsets":[{"start":1553,"text":"Transantarctic Mountains"}],"coordinates":[],"confidence":{"state":"pre-added","who":["ml:dpeker"],"prob":0.9754},"fields":{},"normalizations":{"n_34":{"source":{"name":"GeoNamesSCAR","id":"132843","url":null},"recName":"Transantarctic Mountains","confidence":{"state":"pre-added","who":["ml:dpeker"],"prob":0.9754}}}},{"classId":"e_4","part":"s16v1","offsets":[{"start":1585,"text":"Ross Dependency"}],"coordinates":[],"confidence":{"state":"pre-added","who":["ml:dpeker"],"prob":0.9558},"fields":{},"normalizations":{"n_34":{"source":{"name":"GeoNamesSCAR","id":"134188","url":null},"recName":"Ross Dependency","confidence":{"state":"pre-added","who":["ml:dpeker"],"prob":0.9558}}}},{"classId":"e_4","part":"s18v1","offsets":[{"start":1437,"text":"Transantarctic Mountains"}],"coordinates":[],"confidence":{"state":"pre-added","who":["ml:dpeker"],"prob":0.9754},"fields":{},"normalizations":{"n_34":{"source":{"name":"GeoNamesSCAR","id":"132843","url":null},"recName":"Transantarctic Mountains","confidence":{"state":"pre-added","who":["ml:dpeker"],"prob":0.9754}}}},{"classId":"e_39","part":"s19v1","offsets":[{"start":498,"text":"Isotoma klovstadi"}],"coordinates":[],"confidence":{"state":"pre-added","who":["ml:dpeker"],"prob":0.9622},"fields":{},"normalizations":{"n_44":{"source":{"name":"SpringtailNames","id":"isklov","url":null},"recName":"Isotoma klovstadi","confidence":{"state":"pre-added","who":["ml:dpeker"],"prob":0.9622}}}},{"classId":"e_4","part":"s19v1","offsets":[{"start":720,"text":"Queen Maud Mountains"}],"coordinates":[],"confidence":{"state":"pre-added","who":["ml:dpeker"],"prob":0.9692},"fields":{},"normalizations":{"n_34":{"source":{"name":"GeoNamesSCAR","id":"130480","url":null},"recName":"Queen Maud Mountains","confidence":{"state":"pre-added","who":["ml:dpeker"],"prob":0.9692}}}},{"classId":"e_39","part":"s20v1","offsets":[{"start":53,"text":"Gomphiocephalus hodgsoni"}],"coordinates":[],"confidence":{"state":"pre-added","who":["ml:dpeker"],"prob":0.9754},"fields":{},"normalizations":{"n_44":{"source":{"name":"SpringtailNames","id":"gohodg","url":null},"recName":"Gomphiocephalus hodgsoni","confidence":{"state":"pre-added","who":["ml:dpeker"],"prob":0.9754}}}},{"classId":"e_39","part":"s20v1","offsets":[{"start":213,"text":"Gressittacantha terranova"}],"coordinates":[],"confidence":{"state":"pre-added","who":["ml:dpeker"],"prob":0.9766},"fields":{},"normalizations":{"n_44":{"source":{"name":"SpringtailNames","id":"grterr","url":null},"recName":"Gressittacantha terranova","confidence":{"state":"pre-added","who":["ml:dpeker"],"prob":0.9766}}}},{"classId":"e_4","part":"s21v1","offsets":[{"start":128,"text":"Ross Island"}],"coordinates":[],"confidence":{"state":"pre-added","who":["ml:dpeker"],"prob":0.9349},"fields":{},"normalizations":{"n_34":{"source":{"name":"GeoNamesSCAR","id":"130958","url":null},"recName":"Ross Island","confidence":{"state":"pre-added","who":["ml:dpeker"],"prob":0.9349}}}},{"classId":"e_4","part":"s21v1","offsets":[{"start":765,"text":"Transantarctic Mountains"}],"coordinates":[],"confidence":{"state":"pre-added","who":["ml:dpeker"],"prob":0.9754},"fields":{},"normalizations":{"n_34":{"source":{"name":"GeoNamesSCAR","id":"132843","url":null},"recName":"Transantarctic Mountains","confidence":{"state":"pre-added","who":["ml:dpeker"],"prob":0.9754}}}},{"classId":"e_4","part":"s21v1","offsets":[{"start":884,"text":"McMurdo Dry Valleys"}],"coordinates":[],"confidence":{"state":"pre-added","who":["ml:dpeker"],"prob":0.9671},"fields":{},"normalizations":{"n_34":{"source":{"name":"GeoNamesSCAR","id":"113892","url":null},"recName":"McMurdo Dry Valleys","confidence":{"state":"pre-added","who":["ml:dpeker"],"prob":0.9671}}}},{"classId":"e_39","part":"s21v1","offsets":[{"start":1323,"text":"Gomphiocephalus hodgsoni"}],"coordinates":[],"confidence":{"state":"pre-added","who":["ml:dpeker"],"prob":0.9754},"fields":{},"normalizations":{"n_44":{"source":{"name":"SpringtailNames","id":"gohodg","url":null},"recName":"Gomphiocephalus hodgsoni","confidence":{"state":"pre-added","who":["ml:dpeker"],"prob":0.9754}}}},{"classId":"e_4","part":"s22v1","offsets":[{"start":631,"text":"McMurdo Dry Valleys"}],"coordinates":[],"confidence":{"state":"pre-added","who":["ml:dpeker"],"prob":0.9671},"fields":{},"normalizations":{"n_34":{"source":{"name":"GeoNamesSCAR","id":"113892","url":null},"recName":"McMurdo Dry Valleys","confidence":{"state":"pre-added","who":["ml:dpeker"],"prob":0.9671}}}},{"classId":"e_39","part":"s22v1","offsets":[{"start":811,"text":"Gomphiocephalus hodgsoni"}],"coordinates":[],"confidence":{"state":"pre-added","who":["ml:dpeker"],"prob":0.9754},"fields":{},"normalizations":{"n_44":{"source":{"name":"SpringtailNames","id":"gohodg","url":null},"recName":"Gomphiocephalus hodgsoni","confidence":{"state":"pre-added","who":["ml:dpeker"],"prob":0.9754}}}},{"classId":"e_4","part":"s22v1","offsets":[{"start":891,"text":"Taylor Valley"}],"coordinates":[],"confidence":{"state":"pre-added","who":["ml:dpeker"],"prob":0.9472},"fields":{},"normalizations":{"n_34":{"source":{"name":"GeoNamesSCAR","id":"132512","url":null},"recName":"Taylor Valley","confidence":{"state":"pre-added","who":["ml:dpeker"],"prob":0.9472}}}},{"classId":"e_39","part":"s23v1","offsets":[{"start":712,"text":"Gomphiocephalus hodgsoni"}],"coordinates":[],"confidence":{"state":"pre-added","who":["ml:dpeker"],"prob":0.9754},"fields":{},"normalizations":{"n_44":{"source":{"name":"SpringtailNames","id":"gohodg","url":null},"recName":"Gomphiocephalus hodgsoni","confidence":{"state":"pre-added","who":["ml:dpeker"],"prob":0.9754}}}},{"classId":"e_4","part":"s23v1","offsets":[{"start":1473,"text":"Royal Society Range"}],"coordinates":[],"confidence":{"state":"pre-added","who":["ml:dpeker"],"prob":0.9671},"fields":{},"normalizations":{"n_34":{"source":{"name":"GeoNamesSCAR","id":"131003","url":null},"recName":"Royal Society Range","confidence":{"state":"pre-added","who":["ml:dpeker"],"prob":0.9671}}}},{"classId":"e_39","part":"s25v1","offsets":[{"start":305,"text":"G. hodgsoni"}],"coordinates":[],"confidence":{"state":"pre-added","who":["ml:dpeker"],"prob":0.9349},"fields":{},"normalizations":{"n_44":{"source":{"name":"SpringtailNames","id":"gohodg","url":null},"recName":"Gomphiocephalus hodgsoni","confidence":{"state":"pre-added","who":["ml:dpeker"],"prob":0.9349}}}},{"classId":"e_4","part":"s26v1","offsets":[{"start":159,"text":"Springtail Point"}],"coordinates":[],"confidence":{"state":"pre-added","who":["ml:dpeker"],"prob":0.9592},"fields":{},"normalizations":{"n_34":{"source":{"name":"GeoNamesSCAR","id":"132046","url":null},"recName":"Springtail Point","confidence":{"state":"pre-added","who":["ml:dpeker"],"prob":0.9592}}}},{"classId":"e_39","part":"s26v1","offsets":[{"start":558,"text":"A. monoculata"}],"coordinates":[],"confidence":{"state":"pre-added","who":["ml:dpeker"],"prob":0.9472},"fields":{},"normalizations":{"n_44":{"source":{"name":"SpringtailNames","id":"anmono","url":null},"recName":"Antarcticinella monoculata","confidence":{"state":"pre-added","who":["ml:dpeker"],"prob":0.9472}}}},{"classId":"e_4","part":"s26v1","offsets":[{"start":587,"text":"Springtail Point"}],"coordinates":[],"confidence":{"state":"pre-added","who":["ml:dpeker"],"prob":0.9592},"fields":{},"normalizations":{"n_34":{"source":{"name":"GeoNamesSCAR","id":"132046","url":null},"recName":"Springtail Point","confidence":{"state":"pre-added","who":["ml:dpeker"],"prob":0.9592}}}},{"classId":"e_4","part":"s27v1","offsets":[{"start":91,"text":"Mackay Glacier"}],"coordinates":[],"confidence":{"state":"pre-added","who":["ml:dpeker"],"prob":0.9518},"fields":{},"normalizations":{"n_34":{"source":{"name":"GeoNamesSCAR","id":"128291","url":null},"recName":"Mackay Glacier","confidence":{"state":"pre-added","who":["ml:dpeker"],"prob":0.9518}}}},{"classId":"e_39","part":"s27v1","offsets":[{"start":1583,"text":"G. hodgsoni"}],"coordinates":[],"confidence":{"state":"pre-added","who":["ml:dpeker"],"prob":0.9349},"fields":{},"normalizations":{"n_44":{"source":{"name":"SpringtailNames","id":"gohodg","url":null},"recName":"Gomphiocephalus hodgsoni","confidence":{"state":"pre-added","who":["ml:dpeker"],"prob":0.9349}}}},{"classId":"e_39","part":"s28v1","offsets":[{"start":632,"text":"G. hodgsoni"}],"coordinates":[],"confidence":{"state":"pre-added","who":["ml:dpeker"],"prob":0.9349},"fields":{},"normalizations":{"n_44":{"source":{"name":"SpringtailNames","id":"gohodg","url":null},"recName":"Gomphiocephalus hodgsoni","confidence":{"state":"pre-added","who":["ml:dpeker"],"prob":0.9349}}}},{"classId":"e_39","part":"s28v1","offsets":[{"start":996,"text":"G. hodgsoni"}],"coordinates":[],"confidence":{"state":"pre-added","who":["ml:dpeker"],"prob":0.9349},"fields":{},"normalizations":{"n_44":{"source":{"name":"SpringtailNames","id":"gohodg","url":null},"recName":"Gomphiocephalus hodgsoni","confidence":{"state":"pre-added","who":["ml:dpeker"],"prob":0.9349}}}},{"classId":"e_4","part":"s28v1","offsets":[{"start":1136,"text":"Springtail Point"}],"coordinates":[],"confidence":{"state":"pre-added","who":["ml:dpeker"],"prob":0.9592},"fields":{},"normalizations":{"n_34":{"source":{"name":"GeoNamesSCAR","id":"132046","url":null},"recName":"Springtail Point","confidence":{"state":"pre-added","who":["ml:dpeker"],"prob":0.9592}}}}],"relations":[{"classId":"r_45","type":"linked","directed":false,"entities":["s5v1|e_38|2006,2025","s5v1|e_4|1895,1908"],"confidence":{"state":"pre-added","who":["user:ICTAR"],"prob":1}},{"classId":"r_46","type":"linked","directed":false,"entities":["s2v1|e_4|385,398","s2v1|e_39|509,532"],"confidence":{"state":"pre-added","who":["user:ICTAR"],"prob":1}},{"classId":"r_46","type":"linked","directed":false,"entities":["s2v1|e_39|540,560","s2v1|e_4|385,398"],"confidence":{"state":"pre-added","who":["user:ICTAR"],"prob":1}},{"classId":"r_46","type":"linked","directed":false,"entities":["s2v1|e_39|587,596","s2v1|e_4|385,398"],"confidence":{"state":"pre-added","who":["user:ICTAR"],"prob":1}},{"classId":"r_46","type":"linked","directed":false,"entities":["s2v1|e_39|886,909","s2v1|e_4|1003,1016"],"confidence":{"state":"pre-added","who":["user:ICTAR"],"prob":1}},{"classId":"r_46","type":"linked","directed":false,"entities":["s2v1|e_39|1059,1067","s2v1|e_4|1003,1016"],"confidence":{"state":"pre-added","who":["user:ICTAR"],"prob":1}},{"classId":"r_46","type":"linked","directed":false,"entities":["s2v1|e_39|1141,1166","s2v1|e_4|1003,1016"],"confidence":{"state":"pre-added","who":["user:ICTAR"],"prob":1}},{"classId":"r_46","type":"linked","directed":false,"entities":["s5v1|e_39|1606,1631","s5v1|e_4|1717,1730"],"confidence":{"state":"pre-added","who":["user:ICTAR"],"prob":1}},{"classId":"r_46","type":"linked","directed":false,"entities":["s5v1|e_39|1983,1993","s5v1|e_4|1895,1908"],"confidence":{"state":"pre-added","who":["user:ICTAR"],"prob":1}},{"classId":"r_46","type":"linked","directed":false,"entities":["s11v1|e_39|981,992","s11v1|e_4|1008,1023"],"confidence":{"state":"pre-added","who":["user:ICTAR"],"prob":1}},{"classId":"r_46","type":"linked","directed":false,"entities":["s11v1|e_4|1032,1038","s11v1|e_39|981,992"],"confidence":{"state":"pre-added","who":["user:ICTAR"],"prob":1}},{"classId":"r_46","type":"linked","directed":false,"entities":["s11v1|e_39|1140,1151","s11v1|e_4|1129,1138"],"confidence":{"state":"pre-added","who":["user:ICTAR"],"prob":1}},{"classId":"r_46","type":"linked","directed":false,"entities":["s11v1|e_39|1616,1627","s11v1|e_4|1646,1661"],"confidence":{"state":"pre-added","who":["user:ICTAR"],"prob":1}},{"classId":"r_46","type":"linked","directed":false,"entities":["s11v1|e_39|1616,1627","s11v1|e_4|1670,1676"],"confidence":{"state":"pre-added","who":["user:ICTAR"],"prob":1}},{"classId":"r_46","type":"linked","directed":false,"entities":["s11v1|e_39|1616,1627","s11v1|e_4|1721,1727"],"confidence":{"state":"pre-added","who":["user:ICTAR"],"prob":1}},{"classId":"r_46","type":"linked","directed":false,"entities":["s11v1|e_39|1616,1627","s11v1|e_4|1733,1739"],"confidence":{"state":"pre-added","who":["user:ICTAR"],"prob":1}},{"classId":"r_46","type":"linked","directed":false,"entities":["s12v1|e_4|1964,1970","s12v1|e_39|2000,2010"],"confidence":{"state":"pre-added","who":["user:ICTAR"],"prob":1}},{"classId":"r_46","type":"linked","directed":false,"entities":["s12v1|e_39|2057,2068","s13v1|e_4|14,20"],"confidence":{"state":"pre-added","who":["user:ICTAR"],"prob":1}},{"classId":"r_46","type":"linked","directed":false,"entities":["s13v1|e_4|26,35","s12v1|e_39|2057,2068"],"confidence":{"state":"pre-added","who":["user:ICTAR"],"prob":1}},{"classId":"r_46","type":"linked","directed":false,"entities":["s13v1|e_4|51,66","s12v1|e_39|2057,2068"],"confidence":{"state":"pre-added","who":["user:ICTAR"],"prob":1}},{"classId":"r_46","type":"linked","directed":false,"entities":["s13v1|e_4|73,87","s13v1|e_39|105,115"],"confidence":{"state":"pre-added","who":["user:ICTAR"],"prob":1}},{"classId":"r_46","type":"linked","directed":false,"entities":["s13v1|e_4|96,103","s13v1|e_39|105,115"],"confidence":{"state":"pre-added","who":["user:ICTAR"],"prob":1}},{"classId":"r_46","type":"linked","directed":false,"entities":["s13v1|e_39|352,363","s13v1|e_4|414,420"],"confidence":{"state":"pre-added","who":["user:ICTAR"],"prob":1}},{"classId":"r_46","type":"linked","directed":false,"entities":["s13v1|e_39|352,363","s13v1|e_4|460,469"],"confidence":{"state":"pre-added","who":["user:ICTAR"],"prob":1}},{"classId":"r_46","type":"linked","directed":false,"entities":["s13v1|e_4|431,446","s13v1|e_39|352,363"],"confidence":{"state":"pre-added","who":["user:ICTAR"],"prob":1}},{"classId":"r_46","type":"linked","directed":false,"entities":["s13v1|e_4|1100,1106","s13v1|e_39|1074,1084"],"confidence":{"state":"pre-added","who":["user:ICTAR"],"prob":1}},{"classId":"r_46","type":"linked","directed":false,"entities":["s13v1|e_4|1135,1149","s13v1|e_39|1074,1084"],"confidence":{"state":"pre-added","who":["user:ICTAR"],"prob":1}},{"classId":"r_46","type":"linked","directed":false,"entities":["s13v1|e_4|1158,1165","s13v1|e_39|1074,1084"],"confidence":{"state":"pre-added","who":["user:ICTAR"],"prob":1}},{"classId":"r_46","type":"linked","directed":false,"entities":["s13v1|e_39|1217,1228","s13v1|e_4|1261,1276"],"confidence":{"state":"pre-added","who":["user:ICTAR"],"prob":1}},{"classId":"r_46","type":"linked","directed":false,"entities":["s13v1|e_39|1720,1743","s13v1|e_4|1798,1804"],"confidence":{"state":"pre-added","who":["user:ICTAR"],"prob":1}},{"classId":"r_46","type":"linked","directed":false,"entities":["s13v1|e_39|1749,1769","s13v1|e_4|1798,1804"],"confidence":{"state":"pre-added","who":["user:ICTAR"],"prob":1}},{"classId":"r_46","type":"linked","directed":false,"entities":["s13v1|e_39|1899,1909","s14v1|e_4|90,108"],"confidence":{"state":"pre-added","who":["user:ICTAR"],"prob":1}},{"classId":"r_46","type":"linked","directed":false,"entities":["s14v1|e_39|1427,1437","s14v1|e_4|1473,1479"],"confidence":{"state":"pre-added","who":["user:ICTAR"],"prob":1}},{"classId":"r_46","type":"linked","directed":false,"entities":["s14v1|e_39|1604,1615","s14v1|e_4|1695,1710"],"confidence":{"state":"pre-added","who":["user:ICTAR"],"prob":1}},{"classId":"r_46","type":"linked","directed":false,"entities":["s14v1|e_39|1757,1769","s14v1|e_4|1774,1789"],"confidence":{"state":"pre-added","who":["user:ICTAR"],"prob":1}},{"classId":"r_46","type":"linked","directed":false,"entities":["s14v1|e_4|1844,1850","s14v1|e_39|1757,1769"],"confidence":{"state":"pre-added","who":["user:ICTAR"],"prob":1}},{"classId":"r_46","type":"linked","directed":false,"entities":["s15v1|e_4|993,999","s15v1|e_39|1015,1025"],"confidence":{"state":"pre-added","who":["user:ICTAR"],"prob":1}},{"classId":"r_46","type":"linked","directed":false,"entities":["s15v1|e_39|1015,1025","s15v1|e_4|1136,1150"],"confidence":{"state":"pre-added","who":["user:ICTAR"],"prob":1}},{"classId":"r_46","type":"linked","directed":false,"entities":["s15v1|e_4|1051,1058","s15v1|e_39|1015,1025"],"confidence":{"state":"pre-added","who":["user:ICTAR"],"prob":1}},{"classId":"r_46","type":"linked","directed":false,"entities":["s15v1|e_4|1110,1124","s15v1|e_39|1015,1025"],"confidence":{"state":"pre-added","who":["user:ICTAR"],"prob":1}},{"classId":"r_46","type":"linked","directed":false,"entities":["s15v1|e_39|1332,1343","s15v1|e_4|1371,1374"],"confidence":{"state":"pre-added","who":["user:ICTAR"],"prob":1}},{"classId":"r_46","type":"linked","directed":false,"entities":["s15v1|e_4|1380,1387","s15v1|e_39|1332,1343"],"confidence":{"state":"pre-added","who":["user:ICTAR"],"prob":1}},{"classId":"r_46","type":"linked","directed":false,"entities":["s15v1|e_4|1438,1444","s15v1|e_39|1332,1343"],"confidence":{"state":"pre-added","who":["user:ICTAR"],"prob":1}},{"classId":"r_46","type":"linked","directed":false,"entities":["s15v1|e_39|1732,1739","s15v1|e_4|1770,1776"],"confidence":{"state":"pre-added","who":["user:ICTAR"],"prob":1}},{"classId":"r_46","type":"linked","directed":false,"entities":["s15v1|e_4|1927,1935","s15v1|e_39|1808,1820"],"confidence":{"state":"pre-added","who":["user:ICTAR"],"prob":1}},{"classId":"r_46","type":"linked","directed":false,"entities":["s15v1|e_39|2011,2022","s15v1|e_4|2092,2107"],"confidence":{"state":"pre-added","who":["user:ICTAR"],"prob":1}}]}