{"annotatable":{"parts":["s1v1","s2v1","s3v1","s4v1","s5v1","s6v1","s7v1","s8v1","s9v1","s10v1","s11v1","s12v1","s13v1"]},"anncomplete":true,"sources":[],"metas":{"m_14":{"value":true,"confidence":{"state":"pre-added","who":["user:ICTAR"],"prob":1}},"m_10":{"value":true,"confidence":{"state":"pre-added","who":["user:ICTAR"],"prob":1}},"m_9":{"value":false,"confidence":{"state":"pre-added","who":["user:ICTAR"],"prob":1}},"m_16":{"value":"South Victoria Land","confidence":{"state":"pre-added","who":["user:ICTAR"],"prob":1}},"m_11":{"value":false,"confidence":{"state":"pre-added","who":["user:ICTAR"],"prob":1}}},"entities":[{"classId":"e_4","part":"s1v1","offsets":[{"start":769,"text":"McMurdo Dry Valleys"}],"coordinates":[],"confidence":{"state":"pre-added","who":["ml:dpeker"],"prob":0.9091},"fields":{},"normalizations":{"n_34":{"source":{"name":"GeoNames","id":"113892","url":null},"recName":"McMurdo Dry Valleys","confidence":{"state":"pre-added","who":["ml:dpeker"],"prob":0.9091}}}},{"classId":"e_4","part":"s1v1","offsets":[{"start":790,"text":"MDV"}],"coordinates":[],"confidence":{"state":"pre-added","who":["ml:dpeker"],"prob":0.9091},"fields":{},"normalizations":{"n_34":{"source":{"name":"GeoNames","id":"113892","url":null},"recName":"McMurdo Dry Valleys","confidence":{"state":"pre-added","who":["ml:dpeker"],"prob":0.9091}}}},{"classId":"e_2","part":"s1v1","offsets":[{"start":1546,"text":"Scottnema"}],"coordinates":[],"confidence":{"state":"pre-added","who":["ml:dpeker"],"prob":0.9163},"fields":{},"normalizations":{"n_33":{"source":{"name":"NematodeNames","id":"Scotsp","url":null},"recName":"Scottnema spp.","confidence":{"state":"pre-added","who":["ml:dpeker"],"prob":0.9163}}}},{"classId":"e_2","part":"s1v1","offsets":[{"start":1557,"text":"S. lindsayae"}],"coordinates":[],"confidence":{"state":"pre-added","who":["ml:dpeker"],"prob":0.9416},"fields":{},"normalizations":{"n_33":{"source":{"name":"NematodeNames","id":"Sclind","url":null},"recName":"Scottnema lindsayae","confidence":{"state":"pre-added","who":["ml:dpeker"],"prob":0.9416}}}},{"classId":"e_2","part":"s1v1","offsets":[{"start":1587,"text":"Eudorylaimus"}],"coordinates":[],"confidence":{"state":"pre-added","who":["ml:dpeker"],"prob":0.9416},"fields":{},"normalizations":{"n_33":{"source":{"name":"NematodeNames","id":"Eudosp","url":null},"recName":"Eudorylaimus spp.","confidence":{"state":"pre-added","who":["ml:dpeker"],"prob":0.9416}}}},{"classId":"e_2","part":"s1v1","offsets":[{"start":1645,"text":"S. lindsayae"}],"coordinates":[],"confidence":{"state":"pre-added","who":["ml:dpeker"],"prob":0.9416},"fields":{},"normalizations":{"n_33":{"source":{"name":"NematodeNames","id":"Sclind","url":null},"recName":"Scottnema lindsayae","confidence":{"state":"pre-added","who":["ml:dpeker"],"prob":0.9416}}}},{"classId":"e_2","part":"s1v1","offsets":[{"start":1660,"text":"E. antarcticus"}],"coordinates":[],"confidence":{"state":"pre-added","who":["ml:dpeker"],"prob":0.9518},"fields":{},"normalizations":{"n_33":{"source":{"name":"NematodeNames","id":"Euanta","url":null},"recName":"Eudorylaimus antarcticus","confidence":{"state":"pre-added","who":["ml:dpeker"],"prob":0.9518}}}},{"classId":"e_2","part":"s1v1","offsets":[{"start":1766,"text":"S. lindsayae"}],"coordinates":[],"confidence":{"state":"pre-added","who":["ml:dpeker"],"prob":0.9416},"fields":{},"normalizations":{"n_33":{"source":{"name":"NematodeNames","id":"Sclind","url":null},"recName":"Scottnema lindsayae","confidence":{"state":"pre-added","who":["ml:dpeker"],"prob":0.9416}}}},{"classId":"e_2","part":"s1v1","offsets":[{"start":1825,"text":"S. lindsayae"}],"coordinates":[],"confidence":{"state":"pre-added","who":["ml:dpeker"],"prob":0.9416},"fields":{},"normalizations":{"n_33":{"source":{"name":"NematodeNames","id":"Sclind","url":null},"recName":"Scottnema lindsayae","confidence":{"state":"pre-added","who":["ml:dpeker"],"prob":0.9416}}}},{"classId":"e_2","part":"s1v1","offsets":[{"start":1864,"text":"S. lindsayae"}],"coordinates":[],"confidence":{"state":"pre-added","who":["ml:dpeker"],"prob":0.9416},"fields":{},"normalizations":{"n_33":{"source":{"name":"NematodeNames","id":"Sclind","url":null},"recName":"Scottnema lindsayae","confidence":{"state":"pre-added","who":["ml:dpeker"],"prob":0.9416}}}},{"classId":"e_2","part":"s1v1","offsets":[{"start":2067,"text":"S. lindsayae"}],"coordinates":[],"confidence":{"state":"pre-added","who":["ml:dpeker"],"prob":0.9416},"fields":{},"normalizations":{"n_33":{"source":{"name":"NematodeNames","id":"Sclind","url":null},"recName":"Scottnema lindsayae","confidence":{"state":"pre-added","who":["ml:dpeker"],"prob":0.9416}}}},{"classId":"e_4","part":"s1v1","offsets":[{"start":2205,"text":"MDV"}],"coordinates":[],"confidence":{"state":"pre-added","who":["ml:dpeker"],"prob":0.9091},"fields":{},"normalizations":{"n_34":{"source":{"name":"GeoNames","id":"113892","url":null},"recName":"McMurdo Dry Valleys","confidence":{"state":"pre-added","who":["ml:dpeker"],"prob":0.9091}}}},{"classId":"e_4","part":"s1v1","offsets":[{"start":3187,"text":"McMurdo Dry Valleys"}],"coordinates":[],"confidence":{"state":"pre-added","who":["ml:dpeker"],"prob":0.9091},"fields":{},"normalizations":{"n_34":{"source":{"name":"GeoNames","id":"113892","url":null},"recName":"McMurdo Dry Valleys","confidence":{"state":"pre-added","who":["ml:dpeker"],"prob":0.9091}}}},{"classId":"e_4","part":"s1v1","offsets":[{"start":3208,"text":"MDV"}],"coordinates":[],"confidence":{"state":"pre-added","who":["ml:dpeker"],"prob":0.9091},"fields":{},"normalizations":{"n_34":{"source":{"name":"GeoNames","id":"113892","url":null},"recName":"McMurdo Dry Valleys","confidence":{"state":"pre-added","who":["ml:dpeker"],"prob":0.9091}}}},{"classId":"e_4","part":"s2v1","offsets":[{"start":422,"text":"MDV"}],"coordinates":[],"confidence":{"state":"pre-added","who":["ml:dpeker"],"prob":0.9091},"fields":{},"normalizations":{"n_34":{"source":{"name":"GeoNames","id":"113892","url":null},"recName":"McMurdo Dry Valleys","confidence":{"state":"pre-added","who":["ml:dpeker"],"prob":0.9091}}}},{"classId":"e_4","part":"s2v1","offsets":[{"start":1346,"text":"MDV"}],"coordinates":[],"confidence":{"state":"pre-added","who":["ml:dpeker"],"prob":0.9091},"fields":{},"normalizations":{"n_34":{"source":{"name":"GeoNames","id":"113892","url":null},"recName":"McMurdo Dry Valleys","confidence":{"state":"pre-added","who":["ml:dpeker"],"prob":0.9091}}}},{"classId":"e_2","part":"s2v1","offsets":[{"start":1627,"text":"Scottnema lindsayae"}],"coordinates":[],"confidence":{"state":"pre-added","who":["ml:dpeker"],"prob":0.9671},"fields":{},"normalizations":{"n_33":{"source":{"name":"NematodeNames","id":"Sclind","url":null},"recName":"Scottnema lindsayae","confidence":{"state":"pre-added","who":["ml:dpeker"],"prob":0.9671}}}},{"classId":"e_2","part":"s2v1","offsets":[{"start":1736,"text":"Eudorylaimus antarcticus"}],"coordinates":[],"confidence":{"state":"pre-added","who":["ml:dpeker"],"prob":0.9754},"fields":{},"normalizations":{"n_33":{"source":{"name":"NematodeNames","id":"Euanta","url":null},"recName":"Eudorylaimus antarcticus","confidence":{"state":"pre-added","who":["ml:dpeker"],"prob":0.9754}}}},{"classId":"e_2","part":"s2v1","offsets":[{"start":1806,"text":"Plectus murrayi"}],"coordinates":[],"confidence":{"state":"pre-added","who":["ml:dpeker"],"prob":0.9558},"fields":{},"normalizations":{"n_33":{"source":{"name":"NematodeNames","id":"Plmurr","url":null},"recName":"Plectus murrayi","confidence":{"state":"pre-added","who":["ml:dpeker"],"prob":0.9558}}}},{"classId":"e_2","part":"s2v1","offsets":[{"start":1868,"text":"E. antarcticus"}],"coordinates":[],"confidence":{"state":"pre-added","who":["ml:dpeker"],"prob":0.9518},"fields":{},"normalizations":{"n_33":{"source":{"name":"NematodeNames","id":"Euanta","url":null},"recName":"Eudorylaimus antarcticus","confidence":{"state":"pre-added","who":["ml:dpeker"],"prob":0.9518}}}},{"classId":"e_2","part":"s2v1","offsets":[{"start":1884,"text":"P. murrayi"}],"coordinates":[],"confidence":{"state":"pre-added","who":["ml:dpeker"],"prob":0.9266},"fields":{},"normalizations":{"n_33":{"source":{"name":"NematodeNames","id":"Plmurr","url":null},"recName":"Plectus murrayi","confidence":{"state":"pre-added","who":["ml:dpeker"],"prob":0.9266}}}},{"classId":"e_2","part":"s2v1","offsets":[{"start":1950,"text":"S. lindsayae"}],"coordinates":[],"confidence":{"state":"pre-added","who":["ml:dpeker"],"prob":0.9416},"fields":{},"normalizations":{"n_33":{"source":{"name":"NematodeNames","id":"Sclind","url":null},"recName":"Scottnema lindsayae","confidence":{"state":"pre-added","who":["ml:dpeker"],"prob":0.9416}}}},{"classId":"e_2","part":"s2v1","offsets":[{"start":2081,"text":"E. antarcticus"}],"coordinates":[],"confidence":{"state":"pre-added","who":["ml:dpeker"],"prob":0.9518},"fields":{},"normalizations":{"n_33":{"source":{"name":"NematodeNames","id":"Euanta","url":null},"recName":"Eudorylaimus antarcticus","confidence":{"state":"pre-added","who":["ml:dpeker"],"prob":0.9518}}}},{"classId":"e_2","part":"s2v1","offsets":[{"start":2100,"text":"P. murrayi"}],"coordinates":[],"confidence":{"state":"pre-added","who":["ml:dpeker"],"prob":0.9266},"fields":{},"normalizations":{"n_33":{"source":{"name":"NematodeNames","id":"Plmurr","url":null},"recName":"Plectus murrayi","confidence":{"state":"pre-added","who":["ml:dpeker"],"prob":0.9266}}}},{"classId":"e_2","part":"s2v1","offsets":[{"start":2434,"text":"S. lindsayae"}],"coordinates":[],"confidence":{"state":"pre-added","who":["ml:dpeker"],"prob":0.9416},"fields":{},"normalizations":{"n_33":{"source":{"name":"NematodeNames","id":"Sclind","url":null},"recName":"Scottnema lindsayae","confidence":{"state":"pre-added","who":["ml:dpeker"],"prob":0.9416}}}},{"classId":"e_4","part":"s2v1","offsets":[{"start":2776,"text":"MDV"}],"coordinates":[],"confidence":{"state":"pre-added","who":["ml:dpeker"],"prob":0.9091},"fields":{},"normalizations":{"n_34":{"source":{"name":"GeoNames","id":"113892","url":null},"recName":"McMurdo Dry Valleys","confidence":{"state":"pre-added","who":["ml:dpeker"],"prob":0.9091}}}},{"classId":"e_4","part":"s2v1","offsets":[{"start":3033,"text":"MDV"}],"coordinates":[],"confidence":{"state":"pre-added","who":["ml:dpeker"],"prob":0.9091},"fields":{},"normalizations":{"n_34":{"source":{"name":"GeoNames","id":"113892","url":null},"recName":"McMurdo Dry Valleys","confidence":{"state":"pre-added","who":["ml:dpeker"],"prob":0.9091}}}},{"classId":"e_2","part":"s2v1","offsets":[{"start":3198,"text":"S. lindsayae"}],"coordinates":[],"confidence":{"state":"pre-added","who":["ml:dpeker"],"prob":0.9416},"fields":{},"normalizations":{"n_33":{"source":{"name":"NematodeNames","id":"Sclind","url":null},"recName":"Scottnema lindsayae","confidence":{"state":"pre-added","who":["ml:dpeker"],"prob":0.9416}}}},{"classId":"e_2","part":"s2v1","offsets":[{"start":3250,"text":"E. antarcticus"}],"coordinates":[],"confidence":{"state":"pre-added","who":["ml:dpeker"],"prob":0.9518},"fields":{},"normalizations":{"n_33":{"source":{"name":"NematodeNames","id":"Euanta","url":null},"recName":"Eudorylaimus antarcticus","confidence":{"state":"pre-added","who":["ml:dpeker"],"prob":0.9518}}}},{"classId":"e_2","part":"s2v1","offsets":[{"start":3268,"text":"P. murrayi"}],"coordinates":[],"confidence":{"state":"pre-added","who":["ml:dpeker"],"prob":0.9266},"fields":{},"normalizations":{"n_33":{"source":{"name":"NematodeNames","id":"Plmurr","url":null},"recName":"Plectus murrayi","confidence":{"state":"pre-added","who":["ml:dpeker"],"prob":0.9266}}}},{"classId":"e_2","part":"s2v1","offsets":[{"start":3355,"text":"Scottnema lindsayae"}],"coordinates":[],"confidence":{"state":"pre-added","who":["ml:dpeker"],"prob":0.9671},"fields":{},"normalizations":{"n_33":{"source":{"name":"NematodeNames","id":"Sclind","url":null},"recName":"Scottnema lindsayae","confidence":{"state":"pre-added","who":["ml:dpeker"],"prob":0.9671}}}},{"classId":"e_4","part":"s2v1","offsets":[{"start":4340,"text":"MDV"}],"coordinates":[],"confidence":{"state":"pre-added","who":["ml:dpeker"],"prob":0.9091},"fields":{},"normalizations":{"n_34":{"source":{"name":"GeoNames","id":"113892","url":null},"recName":"McMurdo Dry Valleys","confidence":{"state":"pre-added","who":["ml:dpeker"],"prob":0.9091}}}},{"classId":"e_4","part":"s2v1","offsets":[{"start":5005,"text":"MDV"}],"coordinates":[],"confidence":{"state":"pre-added","who":["ml:dpeker"],"prob":0.9091},"fields":{},"normalizations":{"n_34":{"source":{"name":"GeoNames","id":"113892","url":null},"recName":"McMurdo Dry Valleys","confidence":{"state":"pre-added","who":["ml:dpeker"],"prob":0.9091}}}},{"classId":"e_2","part":"s3v1","offsets":[{"start":174,"text":"E. antarcticus"}],"coordinates":[],"confidence":{"state":"pre-added","who":["ml:dpeker"],"prob":0.9518},"fields":{},"normalizations":{"n_33":{"source":{"name":"NematodeNames","id":"Euanta","url":null},"recName":"Eudorylaimus antarcticus","confidence":{"state":"pre-added","who":["ml:dpeker"],"prob":0.9518}}}},{"classId":"e_4","part":"s3v1","offsets":[{"start":237,"text":"Taylor Valley"}],"coordinates":[],"confidence":{"state":"pre-added","who":["ml:dpeker"],"prob":0.9472},"fields":{},"normalizations":{"n_34":{"source":{"name":"GeoNames","id":"132512","url":null},"recName":"Taylor Valley","confidence":{"state":"pre-added","who":["ml:dpeker"],"prob":0.9472}}}},{"classId":"e_4","part":"s3v1","offsets":[{"start":400,"text":"MDV"}],"coordinates":[],"confidence":{"state":"pre-added","who":["ml:dpeker"],"prob":0.9091},"fields":{},"normalizations":{"n_34":{"source":{"name":"GeoNames","id":"113892","url":null},"recName":"McMurdo Dry Valleys","confidence":{"state":"pre-added","who":["ml:dpeker"],"prob":0.9091}}}},{"classId":"e_2","part":"s3v1","offsets":[{"start":3246,"text":"S. lindsayae"}],"coordinates":[],"confidence":{"state":"pre-added","who":["ml:dpeker"],"prob":0.9416},"fields":{},"normalizations":{"n_33":{"source":{"name":"NematodeNames","id":"Sclind","url":null},"recName":"Scottnema lindsayae","confidence":{"state":"pre-added","who":["ml:dpeker"],"prob":0.9416}}}},{"classId":"e_2","part":"s3v1","offsets":[{"start":3264,"text":"E. antarcticus"}],"coordinates":[],"confidence":{"state":"pre-added","who":["ml:dpeker"],"prob":0.9518},"fields":{},"normalizations":{"n_33":{"source":{"name":"NematodeNames","id":"Euanta","url":null},"recName":"Eudorylaimus antarcticus","confidence":{"state":"pre-added","who":["ml:dpeker"],"prob":0.9518}}}},{"classId":"e_2","part":"s3v1","offsets":[{"start":3344,"text":"S. lindsayae"}],"coordinates":[],"confidence":{"state":"pre-added","who":["ml:dpeker"],"prob":0.9416},"fields":{},"normalizations":{"n_33":{"source":{"name":"NematodeNames","id":"Sclind","url":null},"recName":"Scottnema lindsayae","confidence":{"state":"pre-added","who":["ml:dpeker"],"prob":0.9416}}}},{"classId":"e_2","part":"s3v1","offsets":[{"start":3374,"text":"E. antarcticus"}],"coordinates":[],"confidence":{"state":"pre-added","who":["ml:dpeker"],"prob":0.9518},"fields":{},"normalizations":{"n_33":{"source":{"name":"NematodeNames","id":"Euanta","url":null},"recName":"Eudorylaimus antarcticus","confidence":{"state":"pre-added","who":["ml:dpeker"],"prob":0.9518}}}},{"classId":"e_2","part":"s3v1","offsets":[{"start":3526,"text":"E. antarcticus"}],"coordinates":[],"confidence":{"state":"pre-added","who":["ml:dpeker"],"prob":0.9518},"fields":{},"normalizations":{"n_33":{"source":{"name":"NematodeNames","id":"Euanta","url":null},"recName":"Eudorylaimus antarcticus","confidence":{"state":"pre-added","who":["ml:dpeker"],"prob":0.9518}}}},{"classId":"e_2","part":"s3v1","offsets":[{"start":3566,"text":"S. lindsayae"}],"coordinates":[],"confidence":{"state":"pre-added","who":["ml:dpeker"],"prob":0.9416},"fields":{},"normalizations":{"n_33":{"source":{"name":"NematodeNames","id":"Sclind","url":null},"recName":"Scottnema lindsayae","confidence":{"state":"pre-added","who":["ml:dpeker"],"prob":0.9416}}}},{"classId":"e_2","part":"s4v1","offsets":[{"start":188,"text":"S. lindsayae"}],"coordinates":[],"confidence":{"state":"pre-added","who":["ml:dpeker"],"prob":0.9416},"fields":{},"normalizations":{"n_33":{"source":{"name":"NematodeNames","id":"Sclind","url":null},"recName":"Scottnema lindsayae","confidence":{"state":"pre-added","who":["ml:dpeker"],"prob":0.9416}}}},{"classId":"e_2","part":"s4v1","offsets":[{"start":230,"text":"E. antarcticus"}],"coordinates":[],"confidence":{"state":"pre-added","who":["ml:dpeker"],"prob":0.9518},"fields":{},"normalizations":{"n_33":{"source":{"name":"NematodeNames","id":"Euanta","url":null},"recName":"Eudorylaimus antarcticus","confidence":{"state":"pre-added","who":["ml:dpeker"],"prob":0.9518}}}},{"classId":"e_2","part":"s4v1","offsets":[{"start":307,"text":"S. lindsayae"}],"coordinates":[],"confidence":{"state":"pre-added","who":["ml:dpeker"],"prob":0.9416},"fields":{},"normalizations":{"n_33":{"source":{"name":"NematodeNames","id":"Sclind","url":null},"recName":"Scottnema lindsayae","confidence":{"state":"pre-added","who":["ml:dpeker"],"prob":0.9416}}}},{"classId":"e_2","part":"s4v1","offsets":[{"start":344,"text":"E. antarcticus"}],"coordinates":[],"confidence":{"state":"pre-added","who":["ml:dpeker"],"prob":0.9518},"fields":{},"normalizations":{"n_33":{"source":{"name":"NematodeNames","id":"Euanta","url":null},"recName":"Eudorylaimus antarcticus","confidence":{"state":"pre-added","who":["ml:dpeker"],"prob":0.9518}}}},{"classId":"e_2","part":"s4v1","offsets":[{"start":596,"text":"Scottnema"}],"coordinates":[],"confidence":{"state":"pre-added","who":["ml:dpeker"],"prob":0.9163},"fields":{},"normalizations":{"n_33":{"source":{"name":"NematodeNames","id":"Scotsp","url":null},"recName":"Scottnema spp.","confidence":{"state":"pre-added","who":["ml:dpeker"],"prob":0.9163}}}},{"classId":"e_2","part":"s4v1","offsets":[{"start":618,"text":"S. lindsayae"}],"coordinates":[],"confidence":{"state":"pre-added","who":["ml:dpeker"],"prob":0.9416},"fields":{},"normalizations":{"n_33":{"source":{"name":"NematodeNames","id":"Sclind","url":null},"recName":"Scottnema lindsayae","confidence":{"state":"pre-added","who":["ml:dpeker"],"prob":0.9416}}}},{"classId":"e_2","part":"s4v1","offsets":[{"start":633,"text":"Eudorylaimus"}],"coordinates":[],"confidence":{"state":"pre-added","who":["ml:dpeker"],"prob":0.9416},"fields":{},"normalizations":{"n_33":{"source":{"name":"NematodeNames","id":"Eudosp","url":null},"recName":"Eudorylaimus spp.","confidence":{"state":"pre-added","who":["ml:dpeker"],"prob":0.9416}}}},{"classId":"e_2","part":"s4v1","offsets":[{"start":658,"text":"E. antarcticus"}],"coordinates":[],"confidence":{"state":"pre-added","who":["ml:dpeker"],"prob":0.9518},"fields":{},"normalizations":{"n_33":{"source":{"name":"NematodeNames","id":"Euanta","url":null},"recName":"Eudorylaimus antarcticus","confidence":{"state":"pre-added","who":["ml:dpeker"],"prob":0.9518}}}},{"classId":"e_2","part":"s4v1","offsets":[{"start":698,"text":"S. lindsayae"}],"coordinates":[],"confidence":{"state":"pre-added","who":["ml:dpeker"],"prob":0.9416},"fields":{},"normalizations":{"n_33":{"source":{"name":"NematodeNames","id":"Sclind","url":null},"recName":"Scottnema lindsayae","confidence":{"state":"pre-added","who":["ml:dpeker"],"prob":0.9416}}}},{"classId":"e_2","part":"s4v1","offsets":[{"start":715,"text":"E. antarcticus"}],"coordinates":[],"confidence":{"state":"pre-added","who":["ml:dpeker"],"prob":0.9518},"fields":{},"normalizations":{"n_33":{"source":{"name":"NematodeNames","id":"Euanta","url":null},"recName":"Eudorylaimus antarcticus","confidence":{"state":"pre-added","who":["ml:dpeker"],"prob":0.9518}}}},{"classId":"e_4","part":"s4v1","offsets":[{"start":1100,"text":"lake margins"}],"coordinates":[],"confidence":{"state":"pre-added","who":["ml:dpeker"],"prob":0.7243},"fields":{},"normalizations":{"n_34":{"source":{"name":"GeoNames","id":"113831","url":null},"recName":"Marginal, Lake","confidence":{"state":"pre-added","who":["ml:dpeker"],"prob":0.7243}}}},{"classId":"e_2","part":"s4v1","offsets":[{"start":1554,"text":"S. lindsayae"}],"coordinates":[],"confidence":{"state":"pre-added","who":["ml:dpeker"],"prob":0.9416},"fields":{},"normalizations":{"n_33":{"source":{"name":"NematodeNames","id":"Sclind","url":null},"recName":"Scottnema lindsayae","confidence":{"state":"pre-added","who":["ml:dpeker"],"prob":0.9416}}}},{"classId":"e_2","part":"s4v1","offsets":[{"start":1571,"text":"E. antarcticus"}],"coordinates":[],"confidence":{"state":"pre-added","who":["ml:dpeker"],"prob":0.9518},"fields":{},"normalizations":{"n_33":{"source":{"name":"NematodeNames","id":"Euanta","url":null},"recName":"Eudorylaimus antarcticus","confidence":{"state":"pre-added","who":["ml:dpeker"],"prob":0.9518}}}},{"classId":"e_2","part":"s4v1","offsets":[{"start":1799,"text":"Scottnema"}],"coordinates":[],"confidence":{"state":"pre-added","who":["ml:dpeker"],"prob":0.9163},"fields":{},"normalizations":{"n_33":{"source":{"name":"NematodeNames","id":"Scotsp","url":null},"recName":"Scottnema spp.","confidence":{"state":"pre-added","who":["ml:dpeker"],"prob":0.9163}}}},{"classId":"e_2","part":"s4v1","offsets":[{"start":1825,"text":"S. lindsayae"}],"coordinates":[],"confidence":{"state":"pre-added","who":["ml:dpeker"],"prob":0.9416},"fields":{},"normalizations":{"n_33":{"source":{"name":"NematodeNames","id":"Sclind","url":null},"recName":"Scottnema lindsayae","confidence":{"state":"pre-added","who":["ml:dpeker"],"prob":0.9416}}}},{"classId":"e_4","part":"s4v1","offsets":[{"start":1945,"text":"Taylor Valley"}],"coordinates":[],"confidence":{"state":"pre-added","who":["ml:dpeker"],"prob":0.9472},"fields":{},"normalizations":{"n_34":{"source":{"name":"GeoNames","id":"132512","url":null},"recName":"Taylor Valley","confidence":{"state":"pre-added","who":["ml:dpeker"],"prob":0.9472}}}},{"classId":"e_2","part":"s4v1","offsets":[{"start":1990,"text":"E. antarcticus"}],"coordinates":[],"confidence":{"state":"pre-added","who":["ml:dpeker"],"prob":0.9518},"fields":{},"normalizations":{"n_33":{"source":{"name":"NematodeNames","id":"Euanta","url":null},"recName":"Eudorylaimus antarcticus","confidence":{"state":"pre-added","who":["ml:dpeker"],"prob":0.9518}}}},{"classId":"e_2","part":"s4v1","offsets":[{"start":2105,"text":"E. antarcticus"}],"coordinates":[],"confidence":{"state":"pre-added","who":["ml:dpeker"],"prob":0.9518},"fields":{},"normalizations":{"n_33":{"source":{"name":"NematodeNames","id":"Euanta","url":null},"recName":"Eudorylaimus antarcticus","confidence":{"state":"pre-added","who":["ml:dpeker"],"prob":0.9518}}}},{"classId":"e_2","part":"s4v1","offsets":[{"start":3255,"text":"S. lindsayae"}],"coordinates":[],"confidence":{"state":"pre-added","who":["ml:dpeker"],"prob":0.9416},"fields":{},"normalizations":{"n_33":{"source":{"name":"NematodeNames","id":"Sclind","url":null},"recName":"Scottnema lindsayae","confidence":{"state":"pre-added","who":["ml:dpeker"],"prob":0.9416}}}},{"classId":"e_4","part":"s4v1","offsets":[{"start":3351,"text":"Many Glaciers Pond"}],"coordinates":[],"confidence":{"state":"pre-added","who":["ml:dpeker"],"prob":0.9648},"fields":{},"normalizations":{"n_34":{"source":{"name":"GeoNames","id":"128405","url":null},"recName":"Many Glaciers Pond","confidence":{"state":"pre-added","who":["ml:dpeker"],"prob":0.9648}}}},{"classId":"e_2","part":"s4v1","offsets":[{"start":3489,"text":"S. lindsayae"}],"coordinates":[],"confidence":{"state":"pre-added","who":["ml:dpeker"],"prob":0.9416},"fields":{},"normalizations":{"n_33":{"source":{"name":"NematodeNames","id":"Sclind","url":null},"recName":"Scottnema lindsayae","confidence":{"state":"pre-added","who":["ml:dpeker"],"prob":0.9416}}}},{"classId":"e_2","part":"s4v1","offsets":[{"start":3946,"text":"Scottnema"}],"coordinates":[],"confidence":{"state":"pre-added","who":["ml:dpeker"],"prob":0.9163},"fields":{},"normalizations":{"n_33":{"source":{"name":"NematodeNames","id":"Scotsp","url":null},"recName":"Scottnema spp.","confidence":{"state":"pre-added","who":["ml:dpeker"],"prob":0.9163}}}},{"classId":"e_2","part":"s4v1","offsets":[{"start":4145,"text":"S. lindsayae"}],"coordinates":[],"confidence":{"state":"pre-added","who":["ml:dpeker"],"prob":0.9416},"fields":{},"normalizations":{"n_33":{"source":{"name":"NematodeNames","id":"Sclind","url":null},"recName":"Scottnema lindsayae","confidence":{"state":"pre-added","who":["ml:dpeker"],"prob":0.9416}}}},{"classId":"e_2","part":"s4v1","offsets":[{"start":4256,"text":"Eudorylaimus"}],"coordinates":[],"confidence":{"state":"pre-added","who":["ml:dpeker"],"prob":0.9416},"fields":{},"normalizations":{"n_33":{"source":{"name":"NematodeNames","id":"Eudosp","url":null},"recName":"Eudorylaimus spp.","confidence":{"state":"pre-added","who":["ml:dpeker"],"prob":0.9416}}}},{"classId":"e_2","part":"s4v1","offsets":[{"start":4386,"text":"E. antarcticus"}],"coordinates":[],"confidence":{"state":"pre-added","who":["ml:dpeker"],"prob":0.9518},"fields":{},"normalizations":{"n_33":{"source":{"name":"NematodeNames","id":"Euanta","url":null},"recName":"Eudorylaimus antarcticus","confidence":{"state":"pre-added","who":["ml:dpeker"],"prob":0.9518}}}},{"classId":"e_4","part":"s4v1","offsets":[{"start":4421,"text":"Many Glacier Pond"}],"coordinates":[],"confidence":{"state":"pre-added","who":["ml:dpeker"],"prob":0.9088},"fields":{},"normalizations":{"n_34":{"source":{"name":"GeoNames","id":"128405","url":null},"recName":"Many Glaciers Pond","confidence":{"state":"pre-added","who":["ml:dpeker"],"prob":0.9088}}}},{"classId":"e_4","part":"s4v1","offsets":[{"start":4502,"text":"Hjorth Hill"}],"coordinates":[],"confidence":{"state":"pre-added","who":["ml:dpeker"],"prob":0.9349},"fields":{},"normalizations":{"n_34":{"source":{"name":"GeoNames","id":"126557","url":null},"recName":"Hjorth Hill","confidence":{"state":"pre-added","who":["ml:dpeker"],"prob":0.9349}}}},{"classId":"e_2","part":"s4v1","offsets":[{"start":4546,"text":"E. antarcticus"}],"coordinates":[],"confidence":{"state":"pre-added","who":["ml:dpeker"],"prob":0.9518},"fields":{},"normalizations":{"n_33":{"source":{"name":"NematodeNames","id":"Euanta","url":null},"recName":"Eudorylaimus antarcticus","confidence":{"state":"pre-added","who":["ml:dpeker"],"prob":0.9518}}}},{"classId":"e_2","part":"s4v1","offsets":[{"start":4569,"text":"Eudorylaimus"}],"coordinates":[],"confidence":{"state":"pre-added","who":["ml:dpeker"],"prob":0.9416},"fields":{},"normalizations":{"n_33":{"source":{"name":"NematodeNames","id":"Eudosp","url":null},"recName":"Eudorylaimus spp.","confidence":{"state":"pre-added","who":["ml:dpeker"],"prob":0.9416}}}},{"classId":"e_2","part":"s5v1","offsets":[{"start":50,"text":"E. antarcticus"}],"coordinates":[],"confidence":{"state":"pre-added","who":["ml:dpeker"],"prob":0.9518},"fields":{},"normalizations":{"n_33":{"source":{"name":"NematodeNames","id":"Euanta","url":null},"recName":"Eudorylaimus antarcticus","confidence":{"state":"pre-added","who":["ml:dpeker"],"prob":0.9518}}}},{"classId":"e_2","part":"s5v1","offsets":[{"start":90,"text":"Plectus murrayi"}],"coordinates":[],"confidence":{"state":"pre-added","who":["ml:dpeker"],"prob":0.9558},"fields":{},"normalizations":{"n_33":{"source":{"name":"NematodeNames","id":"Plmurr","url":null},"recName":"Plectus murrayi","confidence":{"state":"pre-added","who":["ml:dpeker"],"prob":0.9558}}}},{"classId":"e_2","part":"s5v1","offsets":[{"start":176,"text":"E. antarcticus"}],"coordinates":[],"confidence":{"state":"pre-added","who":["ml:dpeker"],"prob":0.9518},"fields":{},"normalizations":{"n_33":{"source":{"name":"NematodeNames","id":"Euanta","url":null},"recName":"Eudorylaimus antarcticus","confidence":{"state":"pre-added","who":["ml:dpeker"],"prob":0.9518}}}},{"classId":"e_2","part":"s5v1","offsets":[{"start":339,"text":"E. antarcticus"}],"coordinates":[],"confidence":{"state":"pre-added","who":["ml:dpeker"],"prob":0.9518},"fields":{},"normalizations":{"n_33":{"source":{"name":"NematodeNames","id":"Euanta","url":null},"recName":"Eudorylaimus antarcticus","confidence":{"state":"pre-added","who":["ml:dpeker"],"prob":0.9518}}}},{"classId":"e_2","part":"s5v1","offsets":[{"start":415,"text":"Eudorylaimus"}],"coordinates":[],"confidence":{"state":"pre-added","who":["ml:dpeker"],"prob":0.9416},"fields":{},"normalizations":{"n_33":{"source":{"name":"NematodeNames","id":"Eudosp","url":null},"recName":"Eudorylaimus spp.","confidence":{"state":"pre-added","who":["ml:dpeker"],"prob":0.9416}}}},{"classId":"e_2","part":"s5v1","offsets":[{"start":482,"text":"Scottnema"}],"coordinates":[],"confidence":{"state":"pre-added","who":["ml:dpeker"],"prob":0.9163},"fields":{},"normalizations":{"n_33":{"source":{"name":"NematodeNames","id":"Scotsp","url":null},"recName":"Scottnema spp.","confidence":{"state":"pre-added","who":["ml:dpeker"],"prob":0.9163}}}},{"classId":"e_2","part":"s5v1","offsets":[{"start":619,"text":"E. antarcticus"}],"coordinates":[],"confidence":{"state":"pre-added","who":["ml:dpeker"],"prob":0.9518},"fields":{},"normalizations":{"n_33":{"source":{"name":"NematodeNames","id":"Euanta","url":null},"recName":"Eudorylaimus antarcticus","confidence":{"state":"pre-added","who":["ml:dpeker"],"prob":0.9518}}}},{"classId":"e_2","part":"s5v1","offsets":[{"start":754,"text":"Scottnema"}],"coordinates":[],"confidence":{"state":"pre-added","who":["ml:dpeker"],"prob":0.9163},"fields":{},"normalizations":{"n_33":{"source":{"name":"NematodeNames","id":"Scotsp","url":null},"recName":"Scottnema spp.","confidence":{"state":"pre-added","who":["ml:dpeker"],"prob":0.9163}}}},{"classId":"e_2","part":"s5v1","offsets":[{"start":2669,"text":"S. lindsayae"}],"coordinates":[],"confidence":{"state":"pre-added","who":["ml:dpeker"],"prob":0.9416},"fields":{},"normalizations":{"n_33":{"source":{"name":"NematodeNames","id":"Sclind","url":null},"recName":"Scottnema lindsayae","confidence":{"state":"pre-added","who":["ml:dpeker"],"prob":0.9416}}}},{"classId":"e_2","part":"s5v1","offsets":[{"start":2699,"text":"E. antarcticus"}],"coordinates":[],"confidence":{"state":"pre-added","who":["ml:dpeker"],"prob":0.9518},"fields":{},"normalizations":{"n_33":{"source":{"name":"NematodeNames","id":"Euanta","url":null},"recName":"Eudorylaimus antarcticus","confidence":{"state":"pre-added","who":["ml:dpeker"],"prob":0.9518}}}},{"classId":"e_2","part":"s5v1","offsets":[{"start":2735,"text":"S. lindsayae"}],"coordinates":[],"confidence":{"state":"pre-added","who":["ml:dpeker"],"prob":0.9416},"fields":{},"normalizations":{"n_33":{"source":{"name":"NematodeNames","id":"Sclind","url":null},"recName":"Scottnema lindsayae","confidence":{"state":"pre-added","who":["ml:dpeker"],"prob":0.9416}}}},{"classId":"e_2","part":"s5v1","offsets":[{"start":2759,"text":"S. lindsayae"}],"coordinates":[],"confidence":{"state":"pre-added","who":["ml:dpeker"],"prob":0.9416},"fields":{},"normalizations":{"n_33":{"source":{"name":"NematodeNames","id":"Sclind","url":null},"recName":"Scottnema lindsayae","confidence":{"state":"pre-added","who":["ml:dpeker"],"prob":0.9416}}}},{"classId":"e_2","part":"s5v1","offsets":[{"start":2780,"text":"S. lindsayae"}],"coordinates":[],"confidence":{"state":"pre-added","who":["ml:dpeker"],"prob":0.9416},"fields":{},"normalizations":{"n_33":{"source":{"name":"NematodeNames","id":"Sclind","url":null},"recName":"Scottnema lindsayae","confidence":{"state":"pre-added","who":["ml:dpeker"],"prob":0.9416}}}},{"classId":"e_2","part":"s5v1","offsets":[{"start":2806,"text":"S. lindsayae"}],"coordinates":[],"confidence":{"state":"pre-added","who":["ml:dpeker"],"prob":0.9416},"fields":{},"normalizations":{"n_33":{"source":{"name":"NematodeNames","id":"Sclind","url":null},"recName":"Scottnema lindsayae","confidence":{"state":"pre-added","who":["ml:dpeker"],"prob":0.9416}}}},{"classId":"e_2","part":"s5v1","offsets":[{"start":3232,"text":"E. antarcticus"}],"coordinates":[],"confidence":{"state":"pre-added","who":["ml:dpeker"],"prob":0.9518},"fields":{},"normalizations":{"n_33":{"source":{"name":"NematodeNames","id":"Euanta","url":null},"recName":"Eudorylaimus antarcticus","confidence":{"state":"pre-added","who":["ml:dpeker"],"prob":0.9518}}}},{"classId":"e_2","part":"s5v1","offsets":[{"start":3258,"text":"Scottnema lindsayae"}],"coordinates":[],"confidence":{"state":"pre-added","who":["ml:dpeker"],"prob":0.9671},"fields":{},"normalizations":{"n_33":{"source":{"name":"NematodeNames","id":"Sclind","url":null},"recName":"Scottnema lindsayae","confidence":{"state":"pre-added","who":["ml:dpeker"],"prob":0.9671}}}},{"classId":"e_2","part":"s5v1","offsets":[{"start":3467,"text":"S. lindsayae"}],"coordinates":[],"confidence":{"state":"pre-added","who":["ml:dpeker"],"prob":0.9416},"fields":{},"normalizations":{"n_33":{"source":{"name":"NematodeNames","id":"Sclind","url":null},"recName":"Scottnema lindsayae","confidence":{"state":"pre-added","who":["ml:dpeker"],"prob":0.9416}}}},{"classId":"e_2","part":"s5v1","offsets":[{"start":3484,"text":"S. lindsayae"}],"coordinates":[],"confidence":{"state":"pre-added","who":["ml:dpeker"],"prob":0.9416},"fields":{},"normalizations":{"n_33":{"source":{"name":"NematodeNames","id":"Sclind","url":null},"recName":"Scottnema lindsayae","confidence":{"state":"pre-added","who":["ml:dpeker"],"prob":0.9416}}}},{"classId":"e_2","part":"s5v1","offsets":[{"start":3511,"text":"E. antarcticus"}],"coordinates":[],"confidence":{"state":"pre-added","who":["ml:dpeker"],"prob":0.9518},"fields":{},"normalizations":{"n_33":{"source":{"name":"NematodeNames","id":"Euanta","url":null},"recName":"Eudorylaimus antarcticus","confidence":{"state":"pre-added","who":["ml:dpeker"],"prob":0.9518}}}},{"classId":"e_2","part":"s5v1","offsets":[{"start":4098,"text":"Scottnema"}],"coordinates":[],"confidence":{"state":"pre-added","who":["ml:dpeker"],"prob":0.9163},"fields":{},"normalizations":{"n_33":{"source":{"name":"NematodeNames","id":"Scotsp","url":null},"recName":"Scottnema spp.","confidence":{"state":"pre-added","who":["ml:dpeker"],"prob":0.9163}}}},{"classId":"e_2","part":"s5v1","offsets":[{"start":4156,"text":"Eudorylaimus"}],"coordinates":[],"confidence":{"state":"pre-added","who":["ml:dpeker"],"prob":0.9416},"fields":{},"normalizations":{"n_33":{"source":{"name":"NematodeNames","id":"Eudosp","url":null},"recName":"Eudorylaimus spp.","confidence":{"state":"pre-added","who":["ml:dpeker"],"prob":0.9416}}}},{"classId":"e_2","part":"s6v1","offsets":[{"start":61,"text":"Scottnema"}],"coordinates":[],"confidence":{"state":"pre-added","who":["ml:dpeker"],"prob":0.9163},"fields":{},"normalizations":{"n_33":{"source":{"name":"NematodeNames","id":"Scotsp","url":null},"recName":"Scottnema spp.","confidence":{"state":"pre-added","who":["ml:dpeker"],"prob":0.9163}}}},{"classId":"e_2","part":"s6v1","offsets":[{"start":114,"text":"Scottnema"}],"coordinates":[],"confidence":{"state":"pre-added","who":["ml:dpeker"],"prob":0.9163},"fields":{},"normalizations":{"n_33":{"source":{"name":"NematodeNames","id":"Scotsp","url":null},"recName":"Scottnema spp.","confidence":{"state":"pre-added","who":["ml:dpeker"],"prob":0.9163}}}},{"classId":"e_2","part":"s6v1","offsets":[{"start":307,"text":"Eudorylaimus"}],"coordinates":[],"confidence":{"state":"pre-added","who":["ml:dpeker"],"prob":0.9416},"fields":{},"normalizations":{"n_33":{"source":{"name":"NematodeNames","id":"Eudosp","url":null},"recName":"Eudorylaimus spp.","confidence":{"state":"pre-added","who":["ml:dpeker"],"prob":0.9416}}}},{"classId":"e_2","part":"s6v1","offsets":[{"start":337,"text":"Scottnema"}],"coordinates":[],"confidence":{"state":"pre-added","who":["ml:dpeker"],"prob":0.9163},"fields":{},"normalizations":{"n_33":{"source":{"name":"NematodeNames","id":"Scotsp","url":null},"recName":"Scottnema spp.","confidence":{"state":"pre-added","who":["ml:dpeker"],"prob":0.9163}}}},{"classId":"e_2","part":"s6v1","offsets":[{"start":364,"text":"Scottnema"}],"coordinates":[],"confidence":{"state":"pre-added","who":["ml:dpeker"],"prob":0.9163},"fields":{},"normalizations":{"n_33":{"source":{"name":"NematodeNames","id":"Scotsp","url":null},"recName":"Scottnema spp.","confidence":{"state":"pre-added","who":["ml:dpeker"],"prob":0.9163}}}},{"classId":"e_2","part":"s6v1","offsets":[{"start":382,"text":"Scottnema"}],"coordinates":[],"confidence":{"state":"pre-added","who":["ml:dpeker"],"prob":0.9163},"fields":{},"normalizations":{"n_33":{"source":{"name":"NematodeNames","id":"Scotsp","url":null},"recName":"Scottnema spp.","confidence":{"state":"pre-added","who":["ml:dpeker"],"prob":0.9163}}}},{"classId":"e_2","part":"s6v1","offsets":[{"start":403,"text":"Scottnema"}],"coordinates":[],"confidence":{"state":"pre-added","who":["ml:dpeker"],"prob":0.9163},"fields":{},"normalizations":{"n_33":{"source":{"name":"NematodeNames","id":"Scotsp","url":null},"recName":"Scottnema spp.","confidence":{"state":"pre-added","who":["ml:dpeker"],"prob":0.9163}}}},{"classId":"e_2","part":"s6v1","offsets":[{"start":422,"text":"Scottnema"}],"coordinates":[],"confidence":{"state":"pre-added","who":["ml:dpeker"],"prob":0.9163},"fields":{},"normalizations":{"n_33":{"source":{"name":"NematodeNames","id":"Scotsp","url":null},"recName":"Scottnema spp.","confidence":{"state":"pre-added","who":["ml:dpeker"],"prob":0.9163}}}},{"classId":"e_2","part":"s6v1","offsets":[{"start":570,"text":"Eudorylaimus"}],"coordinates":[],"confidence":{"state":"pre-added","who":["ml:dpeker"],"prob":0.9416},"fields":{},"normalizations":{"n_33":{"source":{"name":"NematodeNames","id":"Eudosp","url":null},"recName":"Eudorylaimus spp.","confidence":{"state":"pre-added","who":["ml:dpeker"],"prob":0.9416}}}},{"classId":"e_2","part":"s6v1","offsets":[{"start":600,"text":"Scottnema"}],"coordinates":[],"confidence":{"state":"pre-added","who":["ml:dpeker"],"prob":0.9163},"fields":{},"normalizations":{"n_33":{"source":{"name":"NematodeNames","id":"Scotsp","url":null},"recName":"Scottnema spp.","confidence":{"state":"pre-added","who":["ml:dpeker"],"prob":0.9163}}}},{"classId":"e_2","part":"s6v1","offsets":[{"start":923,"text":"Scottnema"}],"coordinates":[],"confidence":{"state":"pre-added","who":["ml:dpeker"],"prob":0.9163},"fields":{},"normalizations":{"n_33":{"source":{"name":"NematodeNames","id":"Scotsp","url":null},"recName":"Scottnema spp.","confidence":{"state":"pre-added","who":["ml:dpeker"],"prob":0.9163}}}},{"classId":"e_2","part":"s6v1","offsets":[{"start":941,"text":"Scottnema"}],"coordinates":[],"confidence":{"state":"pre-added","who":["ml:dpeker"],"prob":0.9163},"fields":{},"normalizations":{"n_33":{"source":{"name":"NematodeNames","id":"Scotsp","url":null},"recName":"Scottnema spp.","confidence":{"state":"pre-added","who":["ml:dpeker"],"prob":0.9163}}}},{"classId":"e_2","part":"s6v1","offsets":[{"start":1256,"text":"Scottnema"}],"coordinates":[],"confidence":{"state":"pre-added","who":["ml:dpeker"],"prob":0.9163},"fields":{},"normalizations":{"n_33":{"source":{"name":"NematodeNames","id":"Scotsp","url":null},"recName":"Scottnema spp.","confidence":{"state":"pre-added","who":["ml:dpeker"],"prob":0.9163}}}},{"classId":"e_2","part":"s6v1","offsets":[{"start":1275,"text":"Scottnema"}],"coordinates":[],"confidence":{"state":"pre-added","who":["ml:dpeker"],"prob":0.9163},"fields":{},"normalizations":{"n_33":{"source":{"name":"NematodeNames","id":"Scotsp","url":null},"recName":"Scottnema spp.","confidence":{"state":"pre-added","who":["ml:dpeker"],"prob":0.9163}}}},{"classId":"e_2","part":"s6v1","offsets":[{"start":1900,"text":"S. lindsayae"}],"coordinates":[],"confidence":{"state":"pre-added","who":["ml:dpeker"],"prob":0.9416},"fields":{},"normalizations":{"n_33":{"source":{"name":"NematodeNames","id":"Sclind","url":null},"recName":"Scottnema lindsayae","confidence":{"state":"pre-added","who":["ml:dpeker"],"prob":0.9416}}}},{"classId":"e_2","part":"s6v1","offsets":[{"start":1940,"text":"S. lindsayae"}],"coordinates":[],"confidence":{"state":"pre-added","who":["ml:dpeker"],"prob":0.9416},"fields":{},"normalizations":{"n_33":{"source":{"name":"NematodeNames","id":"Sclind","url":null},"recName":"Scottnema lindsayae","confidence":{"state":"pre-added","who":["ml:dpeker"],"prob":0.9416}}}},{"classId":"e_2","part":"s6v1","offsets":[{"start":2287,"text":"S. lindsayae"}],"coordinates":[],"confidence":{"state":"pre-added","who":["ml:dpeker"],"prob":0.9416},"fields":{},"normalizations":{"n_33":{"source":{"name":"NematodeNames","id":"Sclind","url":null},"recName":"Scottnema lindsayae","confidence":{"state":"pre-added","who":["ml:dpeker"],"prob":0.9416}}}},{"classId":"e_2","part":"s6v1","offsets":[{"start":2540,"text":"Scottnema lindsayae"}],"coordinates":[],"confidence":{"state":"pre-added","who":["ml:dpeker"],"prob":0.9671},"fields":{},"normalizations":{"n_33":{"source":{"name":"NematodeNames","id":"Sclind","url":null},"recName":"Scottnema lindsayae","confidence":{"state":"pre-added","who":["ml:dpeker"],"prob":0.9671}}}},{"classId":"e_2","part":"s6v1","offsets":[{"start":2609,"text":"Scottnema"}],"coordinates":[],"confidence":{"state":"pre-added","who":["ml:dpeker"],"prob":0.9163},"fields":{},"normalizations":{"n_33":{"source":{"name":"NematodeNames","id":"Scotsp","url":null},"recName":"Scottnema spp.","confidence":{"state":"pre-added","who":["ml:dpeker"],"prob":0.9163}}}},{"classId":"e_2","part":"s6v1","offsets":[{"start":2671,"text":"S. lindsayae"}],"coordinates":[],"confidence":{"state":"pre-added","who":["ml:dpeker"],"prob":0.9416},"fields":{},"normalizations":{"n_33":{"source":{"name":"NematodeNames","id":"Sclind","url":null},"recName":"Scottnema lindsayae","confidence":{"state":"pre-added","who":["ml:dpeker"],"prob":0.9416}}}},{"classId":"e_2","part":"s7v1","offsets":[{"start":366,"text":"Eudorylaimus"}],"coordinates":[],"confidence":{"state":"pre-added","who":["ml:dpeker"],"prob":0.9416},"fields":{},"normalizations":{"n_33":{"source":{"name":"NematodeNames","id":"Eudosp","url":null},"recName":"Eudorylaimus spp.","confidence":{"state":"pre-added","who":["ml:dpeker"],"prob":0.9416}}}},{"classId":"e_2","part":"s7v1","offsets":[{"start":396,"text":"Scottnema"}],"coordinates":[],"confidence":{"state":"pre-added","who":["ml:dpeker"],"prob":0.9163},"fields":{},"normalizations":{"n_33":{"source":{"name":"NematodeNames","id":"Scotsp","url":null},"recName":"Scottnema spp.","confidence":{"state":"pre-added","who":["ml:dpeker"],"prob":0.9163}}}},{"classId":"e_2","part":"s7v1","offsets":[{"start":423,"text":"Scottnema"}],"coordinates":[],"confidence":{"state":"pre-added","who":["ml:dpeker"],"prob":0.9163},"fields":{},"normalizations":{"n_33":{"source":{"name":"NematodeNames","id":"Scotsp","url":null},"recName":"Scottnema spp.","confidence":{"state":"pre-added","who":["ml:dpeker"],"prob":0.9163}}}},{"classId":"e_2","part":"s7v1","offsets":[{"start":441,"text":"Scottnema"}],"coordinates":[],"confidence":{"state":"pre-added","who":["ml:dpeker"],"prob":0.9163},"fields":{},"normalizations":{"n_33":{"source":{"name":"NematodeNames","id":"Scotsp","url":null},"recName":"Scottnema spp.","confidence":{"state":"pre-added","who":["ml:dpeker"],"prob":0.9163}}}},{"classId":"e_2","part":"s7v1","offsets":[{"start":462,"text":"Scottnema"}],"coordinates":[],"confidence":{"state":"pre-added","who":["ml:dpeker"],"prob":0.9163},"fields":{},"normalizations":{"n_33":{"source":{"name":"NematodeNames","id":"Scotsp","url":null},"recName":"Scottnema spp.","confidence":{"state":"pre-added","who":["ml:dpeker"],"prob":0.9163}}}},{"classId":"e_2","part":"s7v1","offsets":[{"start":481,"text":"Scottnema"}],"coordinates":[],"confidence":{"state":"pre-added","who":["ml:dpeker"],"prob":0.9163},"fields":{},"normalizations":{"n_33":{"source":{"name":"NematodeNames","id":"Scotsp","url":null},"recName":"Scottnema spp.","confidence":{"state":"pre-added","who":["ml:dpeker"],"prob":0.9163}}}},{"classId":"e_2","part":"s7v1","offsets":[{"start":628,"text":"Eudorylaimus"}],"coordinates":[],"confidence":{"state":"pre-added","who":["ml:dpeker"],"prob":0.9416},"fields":{},"normalizations":{"n_33":{"source":{"name":"NematodeNames","id":"Eudosp","url":null},"recName":"Eudorylaimus spp.","confidence":{"state":"pre-added","who":["ml:dpeker"],"prob":0.9416}}}},{"classId":"e_2","part":"s7v1","offsets":[{"start":657,"text":"Scottnema"}],"coordinates":[],"confidence":{"state":"pre-added","who":["ml:dpeker"],"prob":0.9163},"fields":{},"normalizations":{"n_33":{"source":{"name":"NematodeNames","id":"Scotsp","url":null},"recName":"Scottnema spp.","confidence":{"state":"pre-added","who":["ml:dpeker"],"prob":0.9163}}}},{"classId":"e_2","part":"s7v1","offsets":[{"start":962,"text":"Scottnema"}],"coordinates":[],"confidence":{"state":"pre-added","who":["ml:dpeker"],"prob":0.9163},"fields":{},"normalizations":{"n_33":{"source":{"name":"NematodeNames","id":"Scotsp","url":null},"recName":"Scottnema spp.","confidence":{"state":"pre-added","who":["ml:dpeker"],"prob":0.9163}}}},{"classId":"e_2","part":"s7v1","offsets":[{"start":980,"text":"Scottnema"}],"coordinates":[],"confidence":{"state":"pre-added","who":["ml:dpeker"],"prob":0.9163},"fields":{},"normalizations":{"n_33":{"source":{"name":"NematodeNames","id":"Scotsp","url":null},"recName":"Scottnema spp.","confidence":{"state":"pre-added","who":["ml:dpeker"],"prob":0.9163}}}},{"classId":"e_2","part":"s7v1","offsets":[{"start":1275,"text":"Scottnema"}],"coordinates":[],"confidence":{"state":"pre-added","who":["ml:dpeker"],"prob":0.9163},"fields":{},"normalizations":{"n_33":{"source":{"name":"NematodeNames","id":"Scotsp","url":null},"recName":"Scottnema spp.","confidence":{"state":"pre-added","who":["ml:dpeker"],"prob":0.9163}}}},{"classId":"e_2","part":"s7v1","offsets":[{"start":1294,"text":"Scottnema"}],"coordinates":[],"confidence":{"state":"pre-added","who":["ml:dpeker"],"prob":0.9163},"fields":{},"normalizations":{"n_33":{"source":{"name":"NematodeNames","id":"Scotsp","url":null},"recName":"Scottnema spp.","confidence":{"state":"pre-added","who":["ml:dpeker"],"prob":0.9163}}}},{"classId":"e_2","part":"s7v1","offsets":[{"start":2170,"text":"S. lindsayae"}],"coordinates":[],"confidence":{"state":"pre-added","who":["ml:dpeker"],"prob":0.9416},"fields":{},"normalizations":{"n_33":{"source":{"name":"NematodeNames","id":"Sclind","url":null},"recName":"Scottnema lindsayae","confidence":{"state":"pre-added","who":["ml:dpeker"],"prob":0.9416}}}},{"classId":"e_2","part":"s7v1","offsets":[{"start":2210,"text":"S. lindsayae"}],"coordinates":[],"confidence":{"state":"pre-added","who":["ml:dpeker"],"prob":0.9416},"fields":{},"normalizations":{"n_33":{"source":{"name":"NematodeNames","id":"Sclind","url":null},"recName":"Scottnema lindsayae","confidence":{"state":"pre-added","who":["ml:dpeker"],"prob":0.9416}}}},{"classId":"e_2","part":"s7v1","offsets":[{"start":2559,"text":"S. lindsayae"}],"coordinates":[],"confidence":{"state":"pre-added","who":["ml:dpeker"],"prob":0.9416},"fields":{},"normalizations":{"n_33":{"source":{"name":"NematodeNames","id":"Sclind","url":null},"recName":"Scottnema lindsayae","confidence":{"state":"pre-added","who":["ml:dpeker"],"prob":0.9416}}}},{"classId":"e_2","part":"s7v1","offsets":[{"start":2815,"text":"Scottnema lindsayae"}],"coordinates":[],"confidence":{"state":"pre-added","who":["ml:dpeker"],"prob":0.9671},"fields":{},"normalizations":{"n_33":{"source":{"name":"NematodeNames","id":"Sclind","url":null},"recName":"Scottnema lindsayae","confidence":{"state":"pre-added","who":["ml:dpeker"],"prob":0.9671}}}},{"classId":"e_2","part":"s7v1","offsets":[{"start":2884,"text":"Scottnema"}],"coordinates":[],"confidence":{"state":"pre-added","who":["ml:dpeker"],"prob":0.9163},"fields":{},"normalizations":{"n_33":{"source":{"name":"NematodeNames","id":"Scotsp","url":null},"recName":"Scottnema spp.","confidence":{"state":"pre-added","who":["ml:dpeker"],"prob":0.9163}}}},{"classId":"e_2","part":"s7v1","offsets":[{"start":2947,"text":"S. lindsayae"}],"coordinates":[],"confidence":{"state":"pre-added","who":["ml:dpeker"],"prob":0.9416},"fields":{},"normalizations":{"n_33":{"source":{"name":"NematodeNames","id":"Sclind","url":null},"recName":"Scottnema lindsayae","confidence":{"state":"pre-added","who":["ml:dpeker"],"prob":0.9416}}}},{"classId":"e_2","part":"s7v1","offsets":[{"start":3249,"text":"S. lindsayae"}],"coordinates":[],"confidence":{"state":"pre-added","who":["ml:dpeker"],"prob":0.9416},"fields":{},"normalizations":{"n_33":{"source":{"name":"NematodeNames","id":"Sclind","url":null},"recName":"Scottnema lindsayae","confidence":{"state":"pre-added","who":["ml:dpeker"],"prob":0.9416}}}},{"classId":"e_2","part":"s7v1","offsets":[{"start":3364,"text":"Eudorylaimus antarcticus"}],"coordinates":[],"confidence":{"state":"pre-added","who":["ml:dpeker"],"prob":0.9754},"fields":{},"normalizations":{"n_33":{"source":{"name":"NematodeNames","id":"Euanta","url":null},"recName":"Eudorylaimus antarcticus","confidence":{"state":"pre-added","who":["ml:dpeker"],"prob":0.9754}}}},{"classId":"e_2","part":"s7v1","offsets":[{"start":3465,"text":"E. antarcticus"}],"coordinates":[],"confidence":{"state":"pre-added","who":["ml:dpeker"],"prob":0.9518},"fields":{},"normalizations":{"n_33":{"source":{"name":"NematodeNames","id":"Euanta","url":null},"recName":"Eudorylaimus antarcticus","confidence":{"state":"pre-added","who":["ml:dpeker"],"prob":0.9518}}}},{"classId":"e_2","part":"s7v1","offsets":[{"start":3515,"text":"E. antarcticus"}],"coordinates":[],"confidence":{"state":"pre-added","who":["ml:dpeker"],"prob":0.9518},"fields":{},"normalizations":{"n_33":{"source":{"name":"NematodeNames","id":"Euanta","url":null},"recName":"Eudorylaimus antarcticus","confidence":{"state":"pre-added","who":["ml:dpeker"],"prob":0.9518}}}},{"classId":"e_2","part":"s7v1","offsets":[{"start":3621,"text":"E. antarcticus"}],"coordinates":[],"confidence":{"state":"pre-added","who":["ml:dpeker"],"prob":0.9518},"fields":{},"normalizations":{"n_33":{"source":{"name":"NematodeNames","id":"Euanta","url":null},"recName":"Eudorylaimus antarcticus","confidence":{"state":"pre-added","who":["ml:dpeker"],"prob":0.9518}}}},{"classId":"e_2","part":"s7v1","offsets":[{"start":3756,"text":"E. antarcticus"}],"coordinates":[],"confidence":{"state":"pre-added","who":["ml:dpeker"],"prob":0.9518},"fields":{},"normalizations":{"n_33":{"source":{"name":"NematodeNames","id":"Euanta","url":null},"recName":"Eudorylaimus antarcticus","confidence":{"state":"pre-added","who":["ml:dpeker"],"prob":0.9518}}}},{"classId":"e_2","part":"s7v1","offsets":[{"start":4008,"text":"S. lindsayae"}],"coordinates":[],"confidence":{"state":"pre-added","who":["ml:dpeker"],"prob":0.9416},"fields":{},"normalizations":{"n_33":{"source":{"name":"NematodeNames","id":"Sclind","url":null},"recName":"Scottnema lindsayae","confidence":{"state":"pre-added","who":["ml:dpeker"],"prob":0.9416}}}},{"classId":"e_2","part":"s7v1","offsets":[{"start":4087,"text":"Scottnema"}],"coordinates":[],"confidence":{"state":"pre-added","who":["ml:dpeker"],"prob":0.9163},"fields":{},"normalizations":{"n_33":{"source":{"name":"NematodeNames","id":"Scotsp","url":null},"recName":"Scottnema spp.","confidence":{"state":"pre-added","who":["ml:dpeker"],"prob":0.9163}}}},{"classId":"e_2","part":"s7v1","offsets":[{"start":4340,"text":"S. lindsayae"}],"coordinates":[],"confidence":{"state":"pre-added","who":["ml:dpeker"],"prob":0.9416},"fields":{},"normalizations":{"n_33":{"source":{"name":"NematodeNames","id":"Sclind","url":null},"recName":"Scottnema lindsayae","confidence":{"state":"pre-added","who":["ml:dpeker"],"prob":0.9416}}}},{"classId":"e_2","part":"s7v1","offsets":[{"start":4453,"text":"Eudorylaimus antarcticus"}],"coordinates":[],"confidence":{"state":"pre-added","who":["ml:dpeker"],"prob":0.9754},"fields":{},"normalizations":{"n_33":{"source":{"name":"NematodeNames","id":"Euanta","url":null},"recName":"Eudorylaimus antarcticus","confidence":{"state":"pre-added","who":["ml:dpeker"],"prob":0.9754}}}},{"classId":"e_2","part":"s7v1","offsets":[{"start":4554,"text":"E. antarcticus"}],"coordinates":[],"confidence":{"state":"pre-added","who":["ml:dpeker"],"prob":0.9518},"fields":{},"normalizations":{"n_33":{"source":{"name":"NematodeNames","id":"Euanta","url":null},"recName":"Eudorylaimus antarcticus","confidence":{"state":"pre-added","who":["ml:dpeker"],"prob":0.9518}}}},{"classId":"e_2","part":"s7v1","offsets":[{"start":4604,"text":"E. antarcticus"}],"coordinates":[],"confidence":{"state":"pre-added","who":["ml:dpeker"],"prob":0.9518},"fields":{},"normalizations":{"n_33":{"source":{"name":"NematodeNames","id":"Euanta","url":null},"recName":"Eudorylaimus antarcticus","confidence":{"state":"pre-added","who":["ml:dpeker"],"prob":0.9518}}}},{"classId":"e_2","part":"s7v1","offsets":[{"start":4710,"text":"E. antarcticus"}],"coordinates":[],"confidence":{"state":"pre-added","who":["ml:dpeker"],"prob":0.9518},"fields":{},"normalizations":{"n_33":{"source":{"name":"NematodeNames","id":"Euanta","url":null},"recName":"Eudorylaimus antarcticus","confidence":{"state":"pre-added","who":["ml:dpeker"],"prob":0.9518}}}},{"classId":"e_2","part":"s7v1","offsets":[{"start":4844,"text":"E. antarcticus"}],"coordinates":[],"confidence":{"state":"pre-added","who":["ml:dpeker"],"prob":0.9518},"fields":{},"normalizations":{"n_33":{"source":{"name":"NematodeNames","id":"Euanta","url":null},"recName":"Eudorylaimus antarcticus","confidence":{"state":"pre-added","who":["ml:dpeker"],"prob":0.9518}}}},{"classId":"e_2","part":"s8v1","offsets":[{"start":247,"text":"S. lindsayae"}],"coordinates":[],"confidence":{"state":"pre-added","who":["ml:dpeker"],"prob":0.9416},"fields":{},"normalizations":{"n_33":{"source":{"name":"NematodeNames","id":"Sclind","url":null},"recName":"Scottnema lindsayae","confidence":{"state":"pre-added","who":["ml:dpeker"],"prob":0.9416}}}},{"classId":"e_2","part":"s8v1","offsets":[{"start":326,"text":"Scottnema"}],"coordinates":[],"confidence":{"state":"pre-added","who":["ml:dpeker"],"prob":0.9163},"fields":{},"normalizations":{"n_33":{"source":{"name":"NematodeNames","id":"Scotsp","url":null},"recName":"Scottnema spp.","confidence":{"state":"pre-added","who":["ml:dpeker"],"prob":0.9163}}}},{"classId":"e_2","part":"s8v1","offsets":[{"start":384,"text":"S. lindsayae"}],"coordinates":[],"confidence":{"state":"pre-added","who":["ml:dpeker"],"prob":0.9416},"fields":{},"normalizations":{"n_33":{"source":{"name":"NematodeNames","id":"Sclind","url":null},"recName":"Scottnema lindsayae","confidence":{"state":"pre-added","who":["ml:dpeker"],"prob":0.9416}}}},{"classId":"e_2","part":"s8v1","offsets":[{"start":501,"text":"S. lindsayae"}],"coordinates":[],"confidence":{"state":"pre-added","who":["ml:dpeker"],"prob":0.9416},"fields":{},"normalizations":{"n_33":{"source":{"name":"NematodeNames","id":"Sclind","url":null},"recName":"Scottnema lindsayae","confidence":{"state":"pre-added","who":["ml:dpeker"],"prob":0.9416}}}},{"classId":"e_2","part":"s8v1","offsets":[{"start":698,"text":"S. lindsayae"}],"coordinates":[],"confidence":{"state":"pre-added","who":["ml:dpeker"],"prob":0.9416},"fields":{},"normalizations":{"n_33":{"source":{"name":"NematodeNames","id":"Sclind","url":null},"recName":"Scottnema lindsayae","confidence":{"state":"pre-added","who":["ml:dpeker"],"prob":0.9416}}}},{"classId":"e_2","part":"s8v1","offsets":[{"start":777,"text":"S. lindsayae"}],"coordinates":[],"confidence":{"state":"pre-added","who":["ml:dpeker"],"prob":0.9416},"fields":{},"normalizations":{"n_33":{"source":{"name":"NematodeNames","id":"Sclind","url":null},"recName":"Scottnema lindsayae","confidence":{"state":"pre-added","who":["ml:dpeker"],"prob":0.9416}}}},{"classId":"e_2","part":"s8v1","offsets":[{"start":940,"text":"S. lindsayae"}],"coordinates":[],"confidence":{"state":"pre-added","who":["ml:dpeker"],"prob":0.9416},"fields":{},"normalizations":{"n_33":{"source":{"name":"NematodeNames","id":"Sclind","url":null},"recName":"Scottnema lindsayae","confidence":{"state":"pre-added","who":["ml:dpeker"],"prob":0.9416}}}},{"classId":"e_2","part":"s8v1","offsets":[{"start":1031,"text":"S. lindsayae"}],"coordinates":[],"confidence":{"state":"pre-added","who":["ml:dpeker"],"prob":0.9416},"fields":{},"normalizations":{"n_33":{"source":{"name":"NematodeNames","id":"Sclind","url":null},"recName":"Scottnema lindsayae","confidence":{"state":"pre-added","who":["ml:dpeker"],"prob":0.9416}}}},{"classId":"e_2","part":"s8v1","offsets":[{"start":1233,"text":"S. lindsayae"}],"coordinates":[],"confidence":{"state":"pre-added","who":["ml:dpeker"],"prob":0.9416},"fields":{},"normalizations":{"n_33":{"source":{"name":"NematodeNames","id":"Sclind","url":null},"recName":"Scottnema lindsayae","confidence":{"state":"pre-added","who":["ml:dpeker"],"prob":0.9416}}}},{"classId":"e_2","part":"s8v1","offsets":[{"start":1547,"text":"S. lindsayae"}],"coordinates":[],"confidence":{"state":"pre-added","who":["ml:dpeker"],"prob":0.9416},"fields":{},"normalizations":{"n_33":{"source":{"name":"NematodeNames","id":"Sclind","url":null},"recName":"Scottnema lindsayae","confidence":{"state":"pre-added","who":["ml:dpeker"],"prob":0.9416}}}},{"classId":"e_2","part":"s8v1","offsets":[{"start":1787,"text":"S. lindsayae"}],"coordinates":[],"confidence":{"state":"pre-added","who":["ml:dpeker"],"prob":0.9416},"fields":{},"normalizations":{"n_33":{"source":{"name":"NematodeNames","id":"Sclind","url":null},"recName":"Scottnema lindsayae","confidence":{"state":"pre-added","who":["ml:dpeker"],"prob":0.9416}}}},{"classId":"e_2","part":"s8v1","offsets":[{"start":1878,"text":"S. lindsayae"}],"coordinates":[],"confidence":{"state":"pre-added","who":["ml:dpeker"],"prob":0.9416},"fields":{},"normalizations":{"n_33":{"source":{"name":"NematodeNames","id":"Sclind","url":null},"recName":"Scottnema lindsayae","confidence":{"state":"pre-added","who":["ml:dpeker"],"prob":0.9416}}}},{"classId":"e_2","part":"s8v1","offsets":[{"start":2018,"text":"E. antarcticus"}],"coordinates":[],"confidence":{"state":"pre-added","who":["ml:dpeker"],"prob":0.9518},"fields":{},"normalizations":{"n_33":{"source":{"name":"NematodeNames","id":"Euanta","url":null},"recName":"Eudorylaimus antarcticus","confidence":{"state":"pre-added","who":["ml:dpeker"],"prob":0.9518}}}},{"classId":"e_2","part":"s8v1","offsets":[{"start":2084,"text":"S. lindsayae"}],"coordinates":[],"confidence":{"state":"pre-added","who":["ml:dpeker"],"prob":0.9416},"fields":{},"normalizations":{"n_33":{"source":{"name":"NematodeNames","id":"Sclind","url":null},"recName":"Scottnema lindsayae","confidence":{"state":"pre-added","who":["ml:dpeker"],"prob":0.9416}}}},{"classId":"e_2","part":"s8v1","offsets":[{"start":2100,"text":"E. antarcticus"}],"coordinates":[],"confidence":{"state":"pre-added","who":["ml:dpeker"],"prob":0.9518},"fields":{},"normalizations":{"n_33":{"source":{"name":"NematodeNames","id":"Euanta","url":null},"recName":"Eudorylaimus antarcticus","confidence":{"state":"pre-added","who":["ml:dpeker"],"prob":0.9518}}}},{"classId":"e_2","part":"s8v1","offsets":[{"start":2181,"text":"S. lindsayae"}],"coordinates":[],"confidence":{"state":"pre-added","who":["ml:dpeker"],"prob":0.9416},"fields":{},"normalizations":{"n_33":{"source":{"name":"NematodeNames","id":"Sclind","url":null},"recName":"Scottnema lindsayae","confidence":{"state":"pre-added","who":["ml:dpeker"],"prob":0.9416}}}},{"classId":"e_2","part":"s8v1","offsets":[{"start":2356,"text":"E. antarcticus"}],"coordinates":[],"confidence":{"state":"pre-added","who":["ml:dpeker"],"prob":0.9518},"fields":{},"normalizations":{"n_33":{"source":{"name":"NematodeNames","id":"Euanta","url":null},"recName":"Eudorylaimus antarcticus","confidence":{"state":"pre-added","who":["ml:dpeker"],"prob":0.9518}}}},{"classId":"e_2","part":"s8v1","offsets":[{"start":2396,"text":"S. lindsayae"}],"coordinates":[],"confidence":{"state":"pre-added","who":["ml:dpeker"],"prob":0.9416},"fields":{},"normalizations":{"n_33":{"source":{"name":"NematodeNames","id":"Sclind","url":null},"recName":"Scottnema lindsayae","confidence":{"state":"pre-added","who":["ml:dpeker"],"prob":0.9416}}}},{"classId":"e_2","part":"s8v1","offsets":[{"start":2488,"text":"S. lindsayae"}],"coordinates":[],"confidence":{"state":"pre-added","who":["ml:dpeker"],"prob":0.9416},"fields":{},"normalizations":{"n_33":{"source":{"name":"NematodeNames","id":"Sclind","url":null},"recName":"Scottnema lindsayae","confidence":{"state":"pre-added","who":["ml:dpeker"],"prob":0.9416}}}},{"classId":"e_2","part":"s8v1","offsets":[{"start":2715,"text":"S. lindsayae"}],"coordinates":[],"confidence":{"state":"pre-added","who":["ml:dpeker"],"prob":0.9416},"fields":{},"normalizations":{"n_33":{"source":{"name":"NematodeNames","id":"Sclind","url":null},"recName":"Scottnema lindsayae","confidence":{"state":"pre-added","who":["ml:dpeker"],"prob":0.9416}}}},{"classId":"e_2","part":"s8v1","offsets":[{"start":2858,"text":"S. lindsayae"}],"coordinates":[],"confidence":{"state":"pre-added","who":["ml:dpeker"],"prob":0.9416},"fields":{},"normalizations":{"n_33":{"source":{"name":"NematodeNames","id":"Sclind","url":null},"recName":"Scottnema lindsayae","confidence":{"state":"pre-added","who":["ml:dpeker"],"prob":0.9416}}}},{"classId":"e_2","part":"s8v1","offsets":[{"start":2970,"text":"S. lindsayae"}],"coordinates":[],"confidence":{"state":"pre-added","who":["ml:dpeker"],"prob":0.9416},"fields":{},"normalizations":{"n_33":{"source":{"name":"NematodeNames","id":"Sclind","url":null},"recName":"Scottnema lindsayae","confidence":{"state":"pre-added","who":["ml:dpeker"],"prob":0.9416}}}},{"classId":"e_2","part":"s8v1","offsets":[{"start":3243,"text":"S. lindsayae"}],"coordinates":[],"confidence":{"state":"pre-added","who":["ml:dpeker"],"prob":0.9416},"fields":{},"normalizations":{"n_33":{"source":{"name":"NematodeNames","id":"Sclind","url":null},"recName":"Scottnema lindsayae","confidence":{"state":"pre-added","who":["ml:dpeker"],"prob":0.9416}}}},{"classId":"e_2","part":"s8v1","offsets":[{"start":3796,"text":"S. lindsayae"}],"coordinates":[],"confidence":{"state":"pre-added","who":["ml:dpeker"],"prob":0.9416},"fields":{},"normalizations":{"n_33":{"source":{"name":"NematodeNames","id":"Sclind","url":null},"recName":"Scottnema lindsayae","confidence":{"state":"pre-added","who":["ml:dpeker"],"prob":0.9416}}}},{"classId":"e_2","part":"s8v1","offsets":[{"start":4231,"text":"Scottnema"}],"coordinates":[],"confidence":{"state":"pre-added","who":["ml:dpeker"],"prob":0.9163},"fields":{},"normalizations":{"n_33":{"source":{"name":"NematodeNames","id":"Scotsp","url":null},"recName":"Scottnema spp.","confidence":{"state":"pre-added","who":["ml:dpeker"],"prob":0.9163}}}},{"classId":"e_2","part":"s8v1","offsets":[{"start":4327,"text":"Scottnema"}],"coordinates":[],"confidence":{"state":"pre-added","who":["ml:dpeker"],"prob":0.9163},"fields":{},"normalizations":{"n_33":{"source":{"name":"NematodeNames","id":"Scotsp","url":null},"recName":"Scottnema spp.","confidence":{"state":"pre-added","who":["ml:dpeker"],"prob":0.9163}}}},{"classId":"e_2","part":"s8v1","offsets":[{"start":4469,"text":"S. lindsayae"}],"coordinates":[],"confidence":{"state":"pre-added","who":["ml:dpeker"],"prob":0.9416},"fields":{},"normalizations":{"n_33":{"source":{"name":"NematodeNames","id":"Sclind","url":null},"recName":"Scottnema lindsayae","confidence":{"state":"pre-added","who":["ml:dpeker"],"prob":0.9416}}}},{"classId":"e_2","part":"s8v1","offsets":[{"start":4562,"text":"E. antarcticus"}],"coordinates":[],"confidence":{"state":"pre-added","who":["ml:dpeker"],"prob":0.9518},"fields":{},"normalizations":{"n_33":{"source":{"name":"NematodeNames","id":"Euanta","url":null},"recName":"Eudorylaimus antarcticus","confidence":{"state":"pre-added","who":["ml:dpeker"],"prob":0.9518}}}},{"classId":"e_2","part":"s8v1","offsets":[{"start":4628,"text":"S. lindsayae"}],"coordinates":[],"confidence":{"state":"pre-added","who":["ml:dpeker"],"prob":0.9416},"fields":{},"normalizations":{"n_33":{"source":{"name":"NematodeNames","id":"Sclind","url":null},"recName":"Scottnema lindsayae","confidence":{"state":"pre-added","who":["ml:dpeker"],"prob":0.9416}}}},{"classId":"e_2","part":"s8v1","offsets":[{"start":4644,"text":"E. antarcticus"}],"coordinates":[],"confidence":{"state":"pre-added","who":["ml:dpeker"],"prob":0.9518},"fields":{},"normalizations":{"n_33":{"source":{"name":"NematodeNames","id":"Euanta","url":null},"recName":"Eudorylaimus antarcticus","confidence":{"state":"pre-added","who":["ml:dpeker"],"prob":0.9518}}}},{"classId":"e_2","part":"s8v1","offsets":[{"start":4779,"text":"E. antarcticus"}],"coordinates":[],"confidence":{"state":"pre-added","who":["ml:dpeker"],"prob":0.9518},"fields":{},"normalizations":{"n_33":{"source":{"name":"NematodeNames","id":"Euanta","url":null},"recName":"Eudorylaimus antarcticus","confidence":{"state":"pre-added","who":["ml:dpeker"],"prob":0.9518}}}},{"classId":"e_2","part":"s8v1","offsets":[{"start":4818,"text":"S. lindsayae"}],"coordinates":[],"confidence":{"state":"pre-added","who":["ml:dpeker"],"prob":0.9416},"fields":{},"normalizations":{"n_33":{"source":{"name":"NematodeNames","id":"Sclind","url":null},"recName":"Scottnema lindsayae","confidence":{"state":"pre-added","who":["ml:dpeker"],"prob":0.9416}}}},{"classId":"e_47","part":"s8v1","offsets":[{"start":4836,"text":"we found that moisture had no eect on bacteria and a negative eect on S. lindsayae adults only."}],"coordinates":[{"x":"308.35","y":"601.26"},{"x":"286.69","y":"620.88"}],"confidence":{"state":"pre-added","who":["user:ICTAR"],"prob":1},"fields":{},"normalizations":{}},{"classId":"e_2","part":"s8v1","offsets":[{"start":4908,"text":"S. lindsayae"}],"coordinates":[],"confidence":{"state":"pre-added","who":["ml:dpeker"],"prob":0.9416},"fields":{},"normalizations":{"n_33":{"source":{"name":"NematodeNames","id":"Sclind","url":null},"recName":"Scottnema lindsayae","confidence":{"state":"pre-added","who":["ml:dpeker"],"prob":0.9416}}}},{"classId":"e_2","part":"s8v1","offsets":[{"start":5134,"text":"S. lindsayae"}],"coordinates":[],"confidence":{"state":"pre-added","who":["ml:dpeker"],"prob":0.9416},"fields":{},"normalizations":{"n_33":{"source":{"name":"NematodeNames","id":"Sclind","url":null},"recName":"Scottnema lindsayae","confidence":{"state":"pre-added","who":["ml:dpeker"],"prob":0.9416}}}},{"classId":"e_2","part":"s8v1","offsets":[{"start":5276,"text":"S. lindsayae"}],"coordinates":[],"confidence":{"state":"pre-added","who":["ml:dpeker"],"prob":0.9416},"fields":{},"normalizations":{"n_33":{"source":{"name":"NematodeNames","id":"Sclind","url":null},"recName":"Scottnema lindsayae","confidence":{"state":"pre-added","who":["ml:dpeker"],"prob":0.9416}}}},{"classId":"e_2","part":"s8v1","offsets":[{"start":5388,"text":"S. lindsayae"}],"coordinates":[],"confidence":{"state":"pre-added","who":["ml:dpeker"],"prob":0.9416},"fields":{},"normalizations":{"n_33":{"source":{"name":"NematodeNames","id":"Sclind","url":null},"recName":"Scottnema lindsayae","confidence":{"state":"pre-added","who":["ml:dpeker"],"prob":0.9416}}}},{"classId":"e_2","part":"s8v1","offsets":[{"start":5658,"text":"S. lindsayae"}],"coordinates":[],"confidence":{"state":"pre-added","who":["ml:dpeker"],"prob":0.9416},"fields":{},"normalizations":{"n_33":{"source":{"name":"NematodeNames","id":"Sclind","url":null},"recName":"Scottnema lindsayae","confidence":{"state":"pre-added","who":["ml:dpeker"],"prob":0.9416}}}},{"classId":"e_2","part":"s9v1","offsets":[{"start":178,"text":"S. lindsayae"}],"coordinates":[],"confidence":{"state":"pre-added","who":["ml:dpeker"],"prob":0.9416},"fields":{},"normalizations":{"n_33":{"source":{"name":"NematodeNames","id":"Sclind","url":null},"recName":"Scottnema lindsayae","confidence":{"state":"pre-added","who":["ml:dpeker"],"prob":0.9416}}}},{"classId":"e_4","part":"s9v1","offsets":[{"start":870,"text":"MDV"}],"coordinates":[],"confidence":{"state":"pre-added","who":["ml:dpeker"],"prob":0.9091},"fields":{},"normalizations":{"n_34":{"source":{"name":"GeoNames","id":"113892","url":null},"recName":"McMurdo Dry Valleys","confidence":{"state":"pre-added","who":["ml:dpeker"],"prob":0.9091}}}},{"classId":"e_2","part":"s9v1","offsets":[{"start":1186,"text":"Eudorylaimus"}],"coordinates":[],"confidence":{"state":"pre-added","who":["ml:dpeker"],"prob":0.9416},"fields":{},"normalizations":{"n_33":{"source":{"name":"NematodeNames","id":"Eudosp","url":null},"recName":"Eudorylaimus spp.","confidence":{"state":"pre-added","who":["ml:dpeker"],"prob":0.9416}}}},{"classId":"e_2","part":"s9v1","offsets":[{"start":1406,"text":"Scottnema"}],"coordinates":[],"confidence":{"state":"pre-added","who":["ml:dpeker"],"prob":0.9163},"fields":{},"normalizations":{"n_33":{"source":{"name":"NematodeNames","id":"Scotsp","url":null},"recName":"Scottnema spp.","confidence":{"state":"pre-added","who":["ml:dpeker"],"prob":0.9163}}}},{"classId":"e_2","part":"s9v1","offsets":[{"start":1463,"text":"Eudorylaimus"}],"coordinates":[],"confidence":{"state":"pre-added","who":["ml:dpeker"],"prob":0.9416},"fields":{},"normalizations":{"n_33":{"source":{"name":"NematodeNames","id":"Eudosp","url":null},"recName":"Eudorylaimus spp.","confidence":{"state":"pre-added","who":["ml:dpeker"],"prob":0.9416}}}},{"classId":"e_2","part":"s9v1","offsets":[{"start":1778,"text":"Eudorylaimus"}],"coordinates":[],"confidence":{"state":"pre-added","who":["ml:dpeker"],"prob":0.9416},"fields":{},"normalizations":{"n_33":{"source":{"name":"NematodeNames","id":"Eudosp","url":null},"recName":"Eudorylaimus spp.","confidence":{"state":"pre-added","who":["ml:dpeker"],"prob":0.9416}}}},{"classId":"e_2","part":"s9v1","offsets":[{"start":1815,"text":"E. antarcticus"}],"coordinates":[],"confidence":{"state":"pre-added","who":["ml:dpeker"],"prob":0.9518},"fields":{},"normalizations":{"n_33":{"source":{"name":"NematodeNames","id":"Euanta","url":null},"recName":"Eudorylaimus antarcticus","confidence":{"state":"pre-added","who":["ml:dpeker"],"prob":0.9518}}}},{"classId":"e_2","part":"s9v1","offsets":[{"start":1865,"text":"S. lindsayae"}],"coordinates":[],"confidence":{"state":"pre-added","who":["ml:dpeker"],"prob":0.9416},"fields":{},"normalizations":{"n_33":{"source":{"name":"NematodeNames","id":"Sclind","url":null},"recName":"Scottnema lindsayae","confidence":{"state":"pre-added","who":["ml:dpeker"],"prob":0.9416}}}},{"classId":"e_2","part":"s9v1","offsets":[{"start":1954,"text":"E. antarcticus"}],"coordinates":[],"confidence":{"state":"pre-added","who":["ml:dpeker"],"prob":0.9518},"fields":{},"normalizations":{"n_33":{"source":{"name":"NematodeNames","id":"Euanta","url":null},"recName":"Eudorylaimus antarcticus","confidence":{"state":"pre-added","who":["ml:dpeker"],"prob":0.9518}}}},{"classId":"e_2","part":"s9v1","offsets":[{"start":2055,"text":"Scottnema"}],"coordinates":[],"confidence":{"state":"pre-added","who":["ml:dpeker"],"prob":0.9163},"fields":{},"normalizations":{"n_33":{"source":{"name":"NematodeNames","id":"Scotsp","url":null},"recName":"Scottnema spp.","confidence":{"state":"pre-added","who":["ml:dpeker"],"prob":0.9163}}}},{"classId":"e_2","part":"s9v1","offsets":[{"start":2383,"text":"S. lindsayae"}],"coordinates":[],"confidence":{"state":"pre-added","who":["ml:dpeker"],"prob":0.9416},"fields":{},"normalizations":{"n_33":{"source":{"name":"NematodeNames","id":"Sclind","url":null},"recName":"Scottnema lindsayae","confidence":{"state":"pre-added","who":["ml:dpeker"],"prob":0.9416}}}},{"classId":"e_2","part":"s9v1","offsets":[{"start":2487,"text":"Eudorylaimus"}],"coordinates":[],"confidence":{"state":"pre-added","who":["ml:dpeker"],"prob":0.9416},"fields":{},"normalizations":{"n_33":{"source":{"name":"NematodeNames","id":"Eudosp","url":null},"recName":"Eudorylaimus spp.","confidence":{"state":"pre-added","who":["ml:dpeker"],"prob":0.9416}}}},{"classId":"e_2","part":"s9v1","offsets":[{"start":2512,"text":"Scottnema"}],"coordinates":[],"confidence":{"state":"pre-added","who":["ml:dpeker"],"prob":0.9163},"fields":{},"normalizations":{"n_33":{"source":{"name":"NematodeNames","id":"Scotsp","url":null},"recName":"Scottnema spp.","confidence":{"state":"pre-added","who":["ml:dpeker"],"prob":0.9163}}}},{"classId":"e_2","part":"s9v1","offsets":[{"start":2623,"text":"S. lindsayae"}],"coordinates":[],"confidence":{"state":"pre-added","who":["ml:dpeker"],"prob":0.9416},"fields":{},"normalizations":{"n_33":{"source":{"name":"NematodeNames","id":"Sclind","url":null},"recName":"Scottnema lindsayae","confidence":{"state":"pre-added","who":["ml:dpeker"],"prob":0.9416}}}},{"classId":"e_2","part":"s9v1","offsets":[{"start":2764,"text":"S. lindsayae"}],"coordinates":[],"confidence":{"state":"pre-added","who":["ml:dpeker"],"prob":0.9416},"fields":{},"normalizations":{"n_33":{"source":{"name":"NematodeNames","id":"Sclind","url":null},"recName":"Scottnema lindsayae","confidence":{"state":"pre-added","who":["ml:dpeker"],"prob":0.9416}}}},{"classId":"e_2","part":"s9v1","offsets":[{"start":2877,"text":"S. lindsayae"}],"coordinates":[],"confidence":{"state":"pre-added","who":["ml:dpeker"],"prob":0.9416},"fields":{},"normalizations":{"n_33":{"source":{"name":"NematodeNames","id":"Sclind","url":null},"recName":"Scottnema lindsayae","confidence":{"state":"pre-added","who":["ml:dpeker"],"prob":0.9416}}}},{"classId":"e_2","part":"s9v1","offsets":[{"start":2951,"text":"S. lindsayae"}],"coordinates":[],"confidence":{"state":"pre-added","who":["ml:dpeker"],"prob":0.9416},"fields":{},"normalizations":{"n_33":{"source":{"name":"NematodeNames","id":"Sclind","url":null},"recName":"Scottnema lindsayae","confidence":{"state":"pre-added","who":["ml:dpeker"],"prob":0.9416}}}},{"classId":"e_2","part":"s9v1","offsets":[{"start":3133,"text":"S. lindsayae"}],"coordinates":[],"confidence":{"state":"pre-added","who":["ml:dpeker"],"prob":0.9416},"fields":{},"normalizations":{"n_33":{"source":{"name":"NematodeNames","id":"Sclind","url":null},"recName":"Scottnema lindsayae","confidence":{"state":"pre-added","who":["ml:dpeker"],"prob":0.9416}}}},{"classId":"e_4","part":"s9v1","offsets":[{"start":3426,"text":"MDV"}],"coordinates":[],"confidence":{"state":"pre-added","who":["ml:dpeker"],"prob":0.9091},"fields":{},"normalizations":{"n_34":{"source":{"name":"GeoNames","id":"113892","url":null},"recName":"McMurdo Dry Valleys","confidence":{"state":"pre-added","who":["ml:dpeker"],"prob":0.9091}}}},{"classId":"e_2","part":"s9v1","offsets":[{"start":3464,"text":"S. lindsayae"}],"coordinates":[],"confidence":{"state":"pre-added","who":["ml:dpeker"],"prob":0.9416},"fields":{},"normalizations":{"n_33":{"source":{"name":"NematodeNames","id":"Sclind","url":null},"recName":"Scottnema lindsayae","confidence":{"state":"pre-added","who":["ml:dpeker"],"prob":0.9416}}}},{"classId":"e_2","part":"s9v1","offsets":[{"start":3490,"text":"E. antarcticus"}],"coordinates":[],"confidence":{"state":"pre-added","who":["ml:dpeker"],"prob":0.9518},"fields":{},"normalizations":{"n_33":{"source":{"name":"NematodeNames","id":"Euanta","url":null},"recName":"Eudorylaimus antarcticus","confidence":{"state":"pre-added","who":["ml:dpeker"],"prob":0.9518}}}},{"classId":"e_2","part":"s9v1","offsets":[{"start":3658,"text":"E. antarcticus"}],"coordinates":[],"confidence":{"state":"pre-added","who":["ml:dpeker"],"prob":0.9518},"fields":{},"normalizations":{"n_33":{"source":{"name":"NematodeNames","id":"Euanta","url":null},"recName":"Eudorylaimus antarcticus","confidence":{"state":"pre-added","who":["ml:dpeker"],"prob":0.9518}}}},{"classId":"e_4","part":"s9v1","offsets":[{"start":3781,"text":"Hjorth Hill"}],"coordinates":[],"confidence":{"state":"pre-added","who":["ml:dpeker"],"prob":0.9349},"fields":{},"normalizations":{"n_34":{"source":{"name":"GeoNames","id":"126557","url":null},"recName":"Hjorth Hill","confidence":{"state":"pre-added","who":["ml:dpeker"],"prob":0.9349}}}},{"classId":"e_4","part":"s9v1","offsets":[{"start":3802,"text":"Many Glaciers Pond"}],"coordinates":[],"confidence":{"state":"pre-added","who":["ml:dpeker"],"prob":0.9648},"fields":{},"normalizations":{"n_34":{"source":{"name":"GeoNames","id":"128405","url":null},"recName":"Many Glaciers Pond","confidence":{"state":"pre-added","who":["ml:dpeker"],"prob":0.9648}}}},{"classId":"e_2","part":"s9v1","offsets":[{"start":4012,"text":"E. antarcticus"}],"coordinates":[],"confidence":{"state":"pre-added","who":["ml:dpeker"],"prob":0.9518},"fields":{},"normalizations":{"n_33":{"source":{"name":"NematodeNames","id":"Euanta","url":null},"recName":"Eudorylaimus antarcticus","confidence":{"state":"pre-added","who":["ml:dpeker"],"prob":0.9518}}}},{"classId":"e_2","part":"s9v1","offsets":[{"start":4187,"text":"S. lindsayae"}],"coordinates":[],"confidence":{"state":"pre-added","who":["ml:dpeker"],"prob":0.9416},"fields":{},"normalizations":{"n_33":{"source":{"name":"NematodeNames","id":"Sclind","url":null},"recName":"Scottnema lindsayae","confidence":{"state":"pre-added","who":["ml:dpeker"],"prob":0.9416}}}},{"classId":"e_2","part":"s9v1","offsets":[{"start":4204,"text":"E. antarcticus"}],"coordinates":[],"confidence":{"state":"pre-added","who":["ml:dpeker"],"prob":0.9518},"fields":{},"normalizations":{"n_33":{"source":{"name":"NematodeNames","id":"Euanta","url":null},"recName":"Eudorylaimus antarcticus","confidence":{"state":"pre-added","who":["ml:dpeker"],"prob":0.9518}}}},{"classId":"e_2","part":"s9v1","offsets":[{"start":4383,"text":"S. lindsayae"}],"coordinates":[],"confidence":{"state":"pre-added","who":["ml:dpeker"],"prob":0.9416},"fields":{},"normalizations":{"n_33":{"source":{"name":"NematodeNames","id":"Sclind","url":null},"recName":"Scottnema lindsayae","confidence":{"state":"pre-added","who":["ml:dpeker"],"prob":0.9416}}}},{"classId":"e_2","part":"s9v1","offsets":[{"start":4400,"text":"E. antarcticus"}],"coordinates":[],"confidence":{"state":"pre-added","who":["ml:dpeker"],"prob":0.9518},"fields":{},"normalizations":{"n_33":{"source":{"name":"NematodeNames","id":"Euanta","url":null},"recName":"Eudorylaimus antarcticus","confidence":{"state":"pre-added","who":["ml:dpeker"],"prob":0.9518}}}},{"classId":"e_4","part":"s10v1","offsets":[{"start":73,"text":"McMurdo Dry Valleys"}],"coordinates":[],"confidence":{"state":"pre-added","who":["ml:dpeker"],"prob":0.9091},"fields":{},"normalizations":{"n_34":{"source":{"name":"GeoNames","id":"113892","url":null},"recName":"McMurdo Dry Valleys","confidence":{"state":"pre-added","who":["ml:dpeker"],"prob":0.9091}}}},{"classId":"e_4","part":"s10v1","offsets":[{"start":460,"text":"MDV"}],"coordinates":[],"confidence":{"state":"pre-added","who":["ml:dpeker"],"prob":0.9091},"fields":{},"normalizations":{"n_34":{"source":{"name":"GeoNames","id":"113892","url":null},"recName":"McMurdo Dry Valleys","confidence":{"state":"pre-added","who":["ml:dpeker"],"prob":0.9091}}}},{"classId":"e_2","part":"s10v1","offsets":[{"start":486,"text":"S. lindsayae"}],"coordinates":[],"confidence":{"state":"pre-added","who":["ml:dpeker"],"prob":0.9416},"fields":{},"normalizations":{"n_33":{"source":{"name":"NematodeNames","id":"Sclind","url":null},"recName":"Scottnema lindsayae","confidence":{"state":"pre-added","who":["ml:dpeker"],"prob":0.9416}}}},{"classId":"e_47","part":"s10v1","offsets":[{"start":538,"text":"bacterial abundances were lower in the Mixed (containing S. lindsayae) compared to the Eudorylaimus community treatment"}],"coordinates":[{"x":"76.54","y":"159.29"},{"x":"170.71","y":"178.91"}],"confidence":{"state":"pre-added","who":["user:ICTAR"],"prob":1},"fields":{},"normalizations":{}},{"classId":"e_2","part":"s10v1","offsets":[{"start":595,"text":"S. lindsayae"}],"coordinates":[],"confidence":{"state":"pre-added","who":["ml:dpeker"],"prob":0.9416},"fields":{},"normalizations":{"n_33":{"source":{"name":"NematodeNames","id":"Sclind","url":null},"recName":"Scottnema lindsayae","confidence":{"state":"pre-added","who":["ml:dpeker"],"prob":0.9416}}}},{"classId":"e_2","part":"s10v1","offsets":[{"start":625,"text":"Eudorylaimus"}],"coordinates":[],"confidence":{"state":"pre-added","who":["ml:dpeker"],"prob":0.9416},"fields":{},"normalizations":{"n_33":{"source":{"name":"NematodeNames","id":"Eudosp","url":null},"recName":"Eudorylaimus spp.","confidence":{"state":"pre-added","who":["ml:dpeker"],"prob":0.9416}}}},{"classId":"e_2","part":"s10v1","offsets":[{"start":679,"text":"E. antarcticus"}],"coordinates":[],"confidence":{"state":"pre-added","who":["ml:dpeker"],"prob":0.9518},"fields":{},"normalizations":{"n_33":{"source":{"name":"NematodeNames","id":"Euanta","url":null},"recName":"Eudorylaimus antarcticus","confidence":{"state":"pre-added","who":["ml:dpeker"],"prob":0.9518}}}},{"classId":"e_4","part":"s10v1","offsets":[{"start":972,"text":"MDV"}],"coordinates":[],"confidence":{"state":"pre-added","who":["ml:dpeker"],"prob":0.9091},"fields":{},"normalizations":{"n_34":{"source":{"name":"GeoNames","id":"113892","url":null},"recName":"McMurdo Dry Valleys","confidence":{"state":"pre-added","who":["ml:dpeker"],"prob":0.9091}}}},{"classId":"e_4","part":"s10v1","offsets":[{"start":1108,"text":"MDV"}],"coordinates":[],"confidence":{"state":"pre-added","who":["ml:dpeker"],"prob":0.9091},"fields":{},"normalizations":{"n_34":{"source":{"name":"GeoNames","id":"113892","url":null},"recName":"McMurdo Dry Valleys","confidence":{"state":"pre-added","who":["ml:dpeker"],"prob":0.9091}}}},{"classId":"e_4","part":"s10v1","offsets":[{"start":2037,"text":"McMurdo Dry Valleys"}],"coordinates":[],"confidence":{"state":"pre-added","who":["ml:dpeker"],"prob":0.9091},"fields":{},"normalizations":{"n_34":{"source":{"name":"GeoNames","id":"113892","url":null},"recName":"McMurdo Dry Valleys","confidence":{"state":"pre-added","who":["ml:dpeker"],"prob":0.9091}}}},{"classId":"e_4","part":"s10v1","offsets":[{"start":4075,"text":"Taylor Valley"}],"coordinates":[],"confidence":{"state":"pre-added","who":["ml:dpeker"],"prob":0.9472},"fields":{},"normalizations":{"n_34":{"source":{"name":"GeoNames","id":"132512","url":null},"recName":"Taylor Valley","confidence":{"state":"pre-added","who":["ml:dpeker"],"prob":0.9472}}}},{"classId":"e_4","part":"s11v1","offsets":[{"start":766,"text":"McMurdo Dry Valleys"}],"coordinates":[],"confidence":{"state":"pre-added","who":["ml:dpeker"],"prob":0.9091},"fields":{},"normalizations":{"n_34":{"source":{"name":"GeoNames","id":"113892","url":null},"recName":"McMurdo Dry Valleys","confidence":{"state":"pre-added","who":["ml:dpeker"],"prob":0.9091}}}},{"classId":"e_4","part":"s11v1","offsets":[{"start":959,"text":"Mcmurdo Dry Valleys"}],"coordinates":[],"confidence":{"state":"pre-added","who":["ml:dpeker"],"prob":0.9417},"fields":{},"normalizations":{"n_34":{"source":{"name":"GeoNames","id":"113892","url":null},"recName":"McMurdo Dry Valleys","confidence":{"state":"pre-added","who":["ml:dpeker"],"prob":0.9417}}}},{"classId":"e_4","part":"s11v1","offsets":[{"start":1110,"text":"McMurdo Dry Valleys"}],"coordinates":[],"confidence":{"state":"pre-added","who":["ml:dpeker"],"prob":0.9091},"fields":{},"normalizations":{"n_34":{"source":{"name":"GeoNames","id":"113892","url":null},"recName":"McMurdo Dry Valleys","confidence":{"state":"pre-added","who":["ml:dpeker"],"prob":0.9091}}}},{"classId":"e_2","part":"s12v1","offsets":[{"start":842,"text":"Eudorylaimus antarcticus"}],"coordinates":[],"confidence":{"state":"pre-added","who":["ml:dpeker"],"prob":0.9754},"fields":{},"normalizations":{"n_33":{"source":{"name":"NematodeNames","id":"Euanta","url":null},"recName":"Eudorylaimus antarcticus","confidence":{"state":"pre-added","who":["ml:dpeker"],"prob":0.9754}}}},{"classId":"e_4","part":"s12v1","offsets":[{"start":894,"text":"Taylor Valley"}],"coordinates":[],"confidence":{"state":"pre-added","who":["ml:dpeker"],"prob":0.9472},"fields":{},"normalizations":{"n_34":{"source":{"name":"GeoNames","id":"132512","url":null},"recName":"Taylor Valley","confidence":{"state":"pre-added","who":["ml:dpeker"],"prob":0.9472}}}},{"classId":"e_4","part":"s12v1","offsets":[{"start":1334,"text":"McMurdo Dry Valleys"}],"coordinates":[],"confidence":{"state":"pre-added","who":["ml:dpeker"],"prob":0.9091},"fields":{},"normalizations":{"n_34":{"source":{"name":"GeoNames","id":"113892","url":null},"recName":"McMurdo Dry Valleys","confidence":{"state":"pre-added","who":["ml:dpeker"],"prob":0.9091}}}},{"classId":"e_4","part":"s12v1","offsets":[{"start":1570,"text":"Taylor Valley"}],"coordinates":[],"confidence":{"state":"pre-added","who":["ml:dpeker"],"prob":0.9472},"fields":{},"normalizations":{"n_34":{"source":{"name":"GeoNames","id":"132512","url":null},"recName":"Taylor Valley","confidence":{"state":"pre-added","who":["ml:dpeker"],"prob":0.9472}}}},{"classId":"e_4","part":"s12v1","offsets":[{"start":1764,"text":"McMurdo Dry Valleys"}],"coordinates":[],"confidence":{"state":"pre-added","who":["ml:dpeker"],"prob":0.9091},"fields":{},"normalizations":{"n_34":{"source":{"name":"GeoNames","id":"113892","url":null},"recName":"McMurdo Dry Valleys","confidence":{"state":"pre-added","who":["ml:dpeker"],"prob":0.9091}}}},{"classId":"e_4","part":"s12v1","offsets":[{"start":3039,"text":"McMurdo Dry Valleys"}],"coordinates":[],"confidence":{"state":"pre-added","who":["ml:dpeker"],"prob":0.9091},"fields":{},"normalizations":{"n_34":{"source":{"name":"GeoNames","id":"113892","url":null},"recName":"McMurdo Dry Valleys","confidence":{"state":"pre-added","who":["ml:dpeker"],"prob":0.9091}}}},{"classId":"e_4","part":"s12v1","offsets":[{"start":3495,"text":"McMurdo Dry Valleys"}],"coordinates":[],"confidence":{"state":"pre-added","who":["ml:dpeker"],"prob":0.9091},"fields":{},"normalizations":{"n_34":{"source":{"name":"GeoNames","id":"113892","url":null},"recName":"McMurdo Dry Valleys","confidence":{"state":"pre-added","who":["ml:dpeker"],"prob":0.9091}}}},{"classId":"e_4","part":"s13v1","offsets":[{"start":61,"text":"MDV"}],"coordinates":[],"confidence":{"state":"pre-added","who":["ml:dpeker"],"prob":0.9091},"fields":{},"normalizations":{"n_34":{"source":{"name":"GeoNames","id":"113892","url":null},"recName":"McMurdo Dry Valleys","confidence":{"state":"pre-added","who":["ml:dpeker"],"prob":0.9091}}}},{"classId":"e_2","part":"s13v1","offsets":[{"start":253,"text":"Scottnema lindsayae"}],"coordinates":[],"confidence":{"state":"pre-added","who":["ml:dpeker"],"prob":0.9671},"fields":{},"normalizations":{"n_33":{"source":{"name":"NematodeNames","id":"Sclind","url":null},"recName":"Scottnema lindsayae","confidence":{"state":"pre-added","who":["ml:dpeker"],"prob":0.9671}}}},{"classId":"e_2","part":"s13v1","offsets":[{"start":702,"text":"Scottnema lindsayae"}],"coordinates":[],"confidence":{"state":"pre-added","who":["ml:dpeker"],"prob":0.9671},"fields":{},"normalizations":{"n_33":{"source":{"name":"NematodeNames","id":"Sclind","url":null},"recName":"Scottnema lindsayae","confidence":{"state":"pre-added","who":["ml:dpeker"],"prob":0.9671}}}},{"classId":"e_4","part":"s13v1","offsets":[{"start":725,"text":"Taylor Valley"}],"coordinates":[],"confidence":{"state":"pre-added","who":["ml:dpeker"],"prob":0.9472},"fields":{},"normalizations":{"n_34":{"source":{"name":"GeoNames","id":"132512","url":null},"recName":"Taylor Valley","confidence":{"state":"pre-added","who":["ml:dpeker"],"prob":0.9472}}}},{"classId":"e_4","part":"s13v1","offsets":[{"start":1387,"text":"Taylor Valley"}],"coordinates":[],"confidence":{"state":"pre-added","who":["ml:dpeker"],"prob":0.9472},"fields":{},"normalizations":{"n_34":{"source":{"name":"GeoNames","id":"132512","url":null},"recName":"Taylor Valley","confidence":{"state":"pre-added","who":["ml:dpeker"],"prob":0.9472}}}}],"relations":[{"classId":"r_22","type":"linked","directed":false,"entities":["s3v1|e_2|174,187","s3v1|e_4|237,249"],"confidence":{"state":"pre-added","who":["user:ICTAR"],"prob":1}},{"classId":"r_22","type":"linked","directed":false,"entities":["s4v1|e_4|3351,3368","s4v1|e_2|3255,3266"],"confidence":{"state":"pre-added","who":["user:ICTAR"],"prob":1}},{"classId":"r_22","type":"linked","directed":false,"entities":["s4v1|e_2|4386,4399","s4v1|e_4|4421,4437"],"confidence":{"state":"pre-added","who":["user:ICTAR"],"prob":1}},{"classId":"r_22","type":"linked","directed":false,"entities":["s4v1|e_4|4502,4512","s4v1|e_2|4546,4559"],"confidence":{"state":"pre-added","who":["user:ICTAR"],"prob":1}},{"classId":"r_22","type":"linked","directed":false,"entities":["s10v1|e_4|460,462","s10v1|e_2|486,497"],"confidence":{"state":"pre-added","who":["user:ICTAR"],"prob":1}},{"classId":"r_22","type":"linked","directed":false,"entities":["s10v1|e_4|460,462","s10v1|e_2|679,692"],"confidence":{"state":"pre-added","who":["user:ICTAR"],"prob":1}}]}