{"annotatable":{"parts":["s1v1","s2v1","s3v1","s4v1","s5v1","s6v1","s7v1","s8v1","s9v1","s10v1"]},"anncomplete":true,"sources":[],"metas":{"m_14":{"value":false,"confidence":{"state":"pre-added","who":["user:ICTAR"],"prob":1}},"m_76":{"value":true,"confidence":{"state":"pre-added","who":["user:ICTAR"],"prob":1}},"m_16":{"value":"Ross Sea Region","confidence":{"state":"pre-added","who":["user:ICTAR"],"prob":1}}},"entities":[{"classId":"e_4","part":"s1v1","offsets":[{"start":3887,"text":"Transantarctic Mountains"}],"coordinates":[],"confidence":{"state":"pre-added","who":["ml:dpeker"],"prob":0.9754},"fields":{},"normalizations":{"n_34":{"source":{"name":"GeoNamesSCAR","id":"132843","url":null},"recName":"Transantarctic Mountains","confidence":{"state":"pre-added","who":["ml:dpeker"],"prob":0.9754}}}},{"classId":"e_4","part":"s1v1","offsets":[{"start":5986,"text":"Transantarctic Mountains"}],"coordinates":[],"confidence":{"state":"pre-added","who":["ml:dpeker"],"prob":0.9754},"fields":{},"normalizations":{"n_34":{"source":{"name":"GeoNamesSCAR","id":"132843","url":null},"recName":"Transantarctic Mountains","confidence":{"state":"pre-added","who":["ml:dpeker"],"prob":0.9754}}}},{"classId":"e_4","part":"s2v1","offsets":[{"start":2640,"text":"Ross Ice Shelf"}],"coordinates":[],"confidence":{"state":"pre-added","who":["ml:dpeker"],"prob":0.9518},"fields":{},"normalizations":{"n_34":{"source":{"name":"GeoNamesSCAR","id":"130957","url":null},"recName":"Ross Ice Shelf","confidence":{"state":"pre-added","who":["ml:dpeker"],"prob":0.9518}}}},{"classId":"e_4","part":"s2v1","offsets":[{"start":3025,"text":"Ross Ice Shelf"}],"coordinates":[],"confidence":{"state":"pre-added","who":["ml:dpeker"],"prob":0.9518},"fields":{},"normalizations":{"n_34":{"source":{"name":"GeoNamesSCAR","id":"130957","url":null},"recName":"Ross Ice Shelf","confidence":{"state":"pre-added","who":["ml:dpeker"],"prob":0.9518}}}},{"classId":"e_4","part":"s2v1","offsets":[{"start":3663,"text":"QAR"}],"coordinates":[],"confidence":{"state":"pre-added","who":["ml:dpeker"],"prob":0.9127},"fields":{},"normalizations":{"n_34":{"source":{"name":"GeoNamesSCAR","id":"130475","url":null},"recName":"Queen Alexandra Range","confidence":{"state":"pre-added","who":["ml:dpeker"],"prob":0.9127}}}},{"classId":"e_4","part":"s2v1","offsets":[{"start":3676,"text":"QMM"}],"coordinates":[],"confidence":{"state":"pre-added","who":["ml:dpeker"],"prob":0.911},"fields":{},"normalizations":{"n_34":{"source":{"name":"GeoNamesSCAR","id":"130480","url":null},"recName":"Queen Maud Mountains","confidence":{"state":"pre-added","who":["ml:dpeker"],"prob":0.911}}}},{"classId":"e_4","part":"s2v1","offsets":[{"start":3729,"text":"QAR"}],"coordinates":[],"confidence":{"state":"pre-added","who":["ml:dpeker"],"prob":0.9127},"fields":{},"normalizations":{"n_34":{"source":{"name":"GeoNamesSCAR","id":"130475","url":null},"recName":"Queen Alexandra Range","confidence":{"state":"pre-added","who":["ml:dpeker"],"prob":0.9127}}}},{"classId":"e_4","part":"s2v1","offsets":[{"start":3733,"text":"QMM"}],"coordinates":[],"confidence":{"state":"pre-added","who":["ml:dpeker"],"prob":0.911},"fields":{},"normalizations":{"n_34":{"source":{"name":"GeoNamesSCAR","id":"130480","url":null},"recName":"Queen Maud Mountains","confidence":{"state":"pre-added","who":["ml:dpeker"],"prob":0.911}}}},{"classId":"e_4","part":"s3v1","offsets":[{"start":176,"text":"Queen Alexandra Range"}],"coordinates":[],"confidence":{"state":"pre-added","who":["ml:dpeker"],"prob":0.9127},"fields":{},"normalizations":{"n_34":{"source":{"name":"GeoNamesSCAR","id":"130475","url":null},"recName":"Queen Alexandra Range","confidence":{"state":"pre-added","who":["ml:dpeker"],"prob":0.9127}}}},{"classId":"e_4","part":"s3v1","offsets":[{"start":199,"text":"QAR"}],"coordinates":[],"confidence":{"state":"pre-added","who":["ml:dpeker"],"prob":0.9127},"fields":{},"normalizations":{"n_34":{"source":{"name":"GeoNamesSCAR","id":"130475","url":null},"recName":"Queen Alexandra Range","confidence":{"state":"pre-added","who":["ml:dpeker"],"prob":0.9127}}}},{"classId":"e_4","part":"s3v1","offsets":[{"start":213,"text":"Queen Maud Mountains"}],"coordinates":[],"confidence":{"state":"pre-added","who":["ml:dpeker"],"prob":0.911},"fields":{},"normalizations":{"n_34":{"source":{"name":"GeoNamesSCAR","id":"130480","url":null},"recName":"Queen Maud Mountains","confidence":{"state":"pre-added","who":["ml:dpeker"],"prob":0.911}}}},{"classId":"e_4","part":"s3v1","offsets":[{"start":235,"text":"QMM"}],"coordinates":[],"confidence":{"state":"pre-added","who":["ml:dpeker"],"prob":0.911},"fields":{},"normalizations":{"n_34":{"source":{"name":"GeoNamesSCAR","id":"130480","url":null},"recName":"Queen Maud Mountains","confidence":{"state":"pre-added","who":["ml:dpeker"],"prob":0.911}}}},{"classId":"e_4","part":"s3v1","offsets":[{"start":1445,"text":"QAR"}],"coordinates":[],"confidence":{"state":"pre-added","who":["ml:dpeker"],"prob":0.9127},"fields":{},"normalizations":{"n_34":{"source":{"name":"GeoNamesSCAR","id":"130475","url":null},"recName":"Queen Alexandra Range","confidence":{"state":"pre-added","who":["ml:dpeker"],"prob":0.9127}}}},{"classId":"e_4","part":"s3v1","offsets":[{"start":1457,"text":"QMM"}],"coordinates":[],"confidence":{"state":"pre-added","who":["ml:dpeker"],"prob":0.911},"fields":{},"normalizations":{"n_34":{"source":{"name":"GeoNamesSCAR","id":"130480","url":null},"recName":"Queen Maud Mountains","confidence":{"state":"pre-added","who":["ml:dpeker"],"prob":0.911}}}},{"classId":"e_39","part":"s3v1","offsets":[{"start":1631,"text":"Biscoia sudpolaris"}],"coordinates":[],"confidence":{"state":"pre-added","who":["ml:dpeker"],"prob":0.9648},"fields":{},"normalizations":{"n_44":{"source":{"name":"SpringtailNames","id":"bisudp","url":null},"recName":"Biscoia sudpolaris","confidence":{"state":"pre-added","who":["ml:dpeker"],"prob":0.9648}}}},{"classId":"e_4","part":"s3v1","offsets":[{"start":1738,"text":"Beardmore Glacier"}],"coordinates":[],"confidence":{"state":"pre-added","who":["ml:dpeker"],"prob":0.9622},"fields":{},"normalizations":{"n_34":{"source":{"name":"GeoNamesSCAR","id":"122318","url":null},"recName":"Beardmore Glacier","confidence":{"state":"pre-added","who":["ml:dpeker"],"prob":0.9622}}}},{"classId":"e_39","part":"s3v1","offsets":[{"start":1787,"text":"Tullbergia mediantarctica"}],"coordinates":[],"confidence":{"state":"pre-added","who":["ml:dpeker"],"prob":0.9766},"fields":{},"normalizations":{"n_44":{"source":{"name":"SpringtailNames","id":"tumedi","url":null},"recName":"Tullbergia mediantarctica","confidence":{"state":"pre-added","who":["ml:dpeker"],"prob":0.9766}}}},{"classId":"e_4","part":"s3v1","offsets":[{"start":1902,"text":"Shackleton Glacier"}],"coordinates":[],"confidence":{"state":"pre-added","who":["ml:dpeker"],"prob":0.9648},"fields":{},"normalizations":{"n_34":{"source":{"name":"GeoNamesSCAR","id":"131453","url":null},"recName":"Shackleton Glacier","confidence":{"state":"pre-added","who":["ml:dpeker"],"prob":0.9648}}}},{"classId":"e_39","part":"s3v1","offsets":[{"start":2708,"text":"Antarcti- cinella monoculata"}],"coordinates":[],"confidence":{"state":"pre-added","who":["ml:dpeker"],"prob":0.8852},"fields":{},"normalizations":{"n_44":{"source":{"name":"SpringtailNames","id":"anmono","url":null},"recName":"Antarcticinella monoculata","confidence":{"state":"pre-added","who":["ml:dpeker"],"prob":0.8852}}}},{"classId":"e_39","part":"s3v1","offsets":[{"start":2738,"text":"Cryptopygus nivicolus"}],"coordinates":[{"x":"114.35","y":"511.88"},{"x":"193.89","y":"517.20"}],"confidence":{"state":"pre-added","who":["user:ICTAR"],"prob":1},"fields":{},"normalizations":{"n_44":{"source":{"name":"SpringtailNames","id":"nenivi","url":null},"recName":"","confidence":{"state":"pre-added","who":["user:ICTAR"],"prob":1}}}},{"classId":"e_39","part":"s3v1","offsets":[{"start":2765,"text":"Gomphiocephalus hodgsoni"}],"coordinates":[],"confidence":{"state":"pre-added","who":["ml:dpeker"],"prob":0.9754},"fields":{},"normalizations":{"n_44":{"source":{"name":"SpringtailNames","id":"gohodg","url":null},"recName":"Gomphiocephalus hodgsoni","confidence":{"state":"pre-added","who":["ml:dpeker"],"prob":0.9754}}}},{"classId":"e_4","part":"s3v1","offsets":[{"start":2893,"text":"Cliff Nunatak"}],"coordinates":[{"x":"201.13","y":"531.68"},{"x":"253.01","y":"537.10"}],"confidence":{"state":"pre-added","who":["user:ICTAR"],"prob":1},"fields":{},"normalizations":{"n_52":{"source":{"name":"GeoNamesCustom","id":"AV010","url":null},"recName":"","confidence":{"state":"pre-added","who":["user:ICTAR"],"prob":1}}}},{"classId":"e_4","part":"s3v1","offsets":[{"start":2908,"text":"Mount Murray"}],"coordinates":[],"confidence":{"state":"pre-added","who":["ml:dpeker"],"prob":0.9416},"fields":{},"normalizations":{"n_34":{"source":{"name":"GeoNamesSCAR","id":"129232","url":null},"recName":"Murray, Mount","confidence":{"state":"pre-added","who":["ml:dpeker"],"prob":0.9416}}}},{"classId":"e_4","part":"s3v1","offsets":[{"start":2926,"text":"Pegtop Mountain"}],"coordinates":[],"confidence":{"state":"pre-added","who":["ml:dpeker"],"prob":0.9558},"fields":{},"normalizations":{"n_34":{"source":{"name":"GeoNamesSCAR","id":"129967","url":null},"recName":"Pegtop Mountain","confidence":{"state":"pre-added","who":["ml:dpeker"],"prob":0.9558}}}},{"classId":"e_39","part":"s3v1","offsets":[{"start":2974,"text":"A. monoculata"}],"coordinates":[{"x":"275.02","y":"541.76"},{"x":"82.24","y":"557.05"}],"confidence":{"state":"pre-added","who":["user:ICTAR"],"prob":1},"fields":{},"normalizations":{"n_44":{"source":{"name":"SpringtailNames","id":"anmono","url":null},"recName":"","confidence":{"state":"pre-added","who":["user:ICTAR"],"prob":1}}}},{"classId":"e_39","part":"s3v1","offsets":[{"start":3250,"text":"G. hodgsoni"}],"coordinates":[],"confidence":{"state":"pre-added","who":["ml:dpeker"],"prob":0.9349},"fields":{},"normalizations":{"n_44":{"source":{"name":"SpringtailNames","id":"gohodg","url":null},"recName":"Gomphiocephalus hodgsoni","confidence":{"state":"pre-added","who":["ml:dpeker"],"prob":0.9349}}}},{"classId":"e_39","part":"s3v1","offsets":[{"start":3293,"text":"A. mon- oculata"}],"coordinates":[],"confidence":{"state":"pre-added","who":["ml:dpeker"],"prob":0.7798},"fields":{},"normalizations":{"n_44":{"source":{"name":"SpringtailNames","id":"anmono","url":null},"recName":"Antarcticinella monoculata","confidence":{"state":"pre-added","who":["ml:dpeker"],"prob":0.7798}}}},{"classId":"e_39","part":"s3v1","offsets":[{"start":3560,"text":"G. hodgsoni"}],"coordinates":[],"confidence":{"state":"pre-added","who":["ml:dpeker"],"prob":0.9349},"fields":{},"normalizations":{"n_44":{"source":{"name":"SpringtailNames","id":"gohodg","url":null},"recName":"Gomphiocephalus hodgsoni","confidence":{"state":"pre-added","who":["ml:dpeker"],"prob":0.9349}}}},{"classId":"e_39","part":"s3v1","offsets":[{"start":3597,"text":"A. monoculata"}],"coordinates":[],"confidence":{"state":"pre-added","who":["ml:dpeker"],"prob":0.9472},"fields":{},"normalizations":{"n_44":{"source":{"name":"SpringtailNames","id":"anmono","url":null},"recName":"Antarcticinella monoculata","confidence":{"state":"pre-added","who":["ml:dpeker"],"prob":0.9472}}}},{"classId":"e_4","part":"s3v1","offsets":[{"start":3659,"text":"QMM"}],"coordinates":[],"confidence":{"state":"pre-added","who":["ml:dpeker"],"prob":0.911},"fields":{},"normalizations":{"n_34":{"source":{"name":"GeoNamesSCAR","id":"130480","url":null},"recName":"Queen Maud Mountains","confidence":{"state":"pre-added","who":["ml:dpeker"],"prob":0.911}}}},{"classId":"e_39","part":"s3v1","offsets":[{"start":3715,"text":"Antarctophorus subpolaris"}],"coordinates":[],"confidence":{"state":"pre-added","who":["ml:dpeker"],"prob":0.9766},"fields":{},"normalizations":{"n_44":{"source":{"name":"SpringtailNames","id":"ansubp","url":null},"recName":"Antarctophorus subpolaris","confidence":{"state":"pre-added","who":["ml:dpeker"],"prob":0.9766}}}},{"classId":"e_4","part":"s3v1","offsets":[{"start":3822,"text":"Shackleton Glacier"}],"coordinates":[],"confidence":{"state":"pre-added","who":["ml:dpeker"],"prob":0.9648},"fields":{},"normalizations":{"n_34":{"source":{"name":"GeoNamesSCAR","id":"131453","url":null},"recName":"Shackleton Glacier","confidence":{"state":"pre-added","who":["ml:dpeker"],"prob":0.9648}}}},{"classId":"e_39","part":"s3v1","offsets":[{"start":3842,"text":"A. subpolaris"}],"coordinates":[],"confidence":{"state":"pre-added","who":["ml:dpeker"],"prob":0.9472},"fields":{},"normalizations":{"n_44":{"source":{"name":"SpringtailNames","id":"ansubp","url":null},"recName":"Antarctophorus subpolaris","confidence":{"state":"pre-added","who":["ml:dpeker"],"prob":0.9472}}}},{"classId":"e_4","part":"s3v1","offsets":[{"start":3911,"text":"Beardmore Glacier"}],"coordinates":[],"confidence":{"state":"pre-added","who":["ml:dpeker"],"prob":0.9622},"fields":{},"normalizations":{"n_34":{"source":{"name":"GeoNamesSCAR","id":"122318","url":null},"recName":"Beardmore Glacier","confidence":{"state":"pre-added","who":["ml:dpeker"],"prob":0.9622}}}},{"classId":"e_4","part":"s3v1","offsets":[{"start":4005,"text":"Shack- leton Glacier"}],"coordinates":[],"confidence":{"state":"pre-added","who":["ml:dpeker"],"prob":0.837},"fields":{},"normalizations":{"n_34":{"source":{"name":"GeoNamesSCAR","id":"131453","url":null},"recName":"Shackleton Glacier","confidence":{"state":"pre-added","who":["ml:dpeker"],"prob":0.837}}}},{"classId":"e_39","part":"s3v1","offsets":[{"start":4077,"text":"G. hodgsoni"}],"coordinates":[],"confidence":{"state":"pre-added","who":["ml:dpeker"],"prob":0.9349},"fields":{},"normalizations":{"n_44":{"source":{"name":"SpringtailNames","id":"gohodg","url":null},"recName":"Gomphiocephalus hodgsoni","confidence":{"state":"pre-added","who":["ml:dpeker"],"prob":0.9349}}}},{"classId":"e_4","part":"s3v1","offsets":[{"start":4117,"text":"Beardmore Glacier"}],"coordinates":[],"confidence":{"state":"pre-added","who":["ml:dpeker"],"prob":0.9622},"fields":{},"normalizations":{"n_34":{"source":{"name":"GeoNamesSCAR","id":"122318","url":null},"recName":"Beardmore Glacier","confidence":{"state":"pre-added","who":["ml:dpeker"],"prob":0.9622}}}},{"classId":"e_4","part":"s3v1","offsets":[{"start":4147,"text":"QAR"}],"coordinates":[],"confidence":{"state":"pre-added","who":["ml:dpeker"],"prob":0.9127},"fields":{},"normalizations":{"n_34":{"source":{"name":"GeoNamesSCAR","id":"130475","url":null},"recName":"Queen Alexandra Range","confidence":{"state":"pre-added","who":["ml:dpeker"],"prob":0.9127}}}},{"classId":"e_39","part":"s3v1","offsets":[{"start":4318,"text":"G. hodgsoni"}],"coordinates":[],"confidence":{"state":"pre-added","who":["ml:dpeker"],"prob":0.9349},"fields":{},"normalizations":{"n_44":{"source":{"name":"SpringtailNames","id":"gohodg","url":null},"recName":"Gomphiocephalus hodgsoni","confidence":{"state":"pre-added","who":["ml:dpeker"],"prob":0.9349}}}},{"classId":"e_39","part":"s3v1","offsets":[{"start":4557,"text":"A. subpolaris"}],"coordinates":[],"confidence":{"state":"pre-added","who":["ml:dpeker"],"prob":0.9472},"fields":{},"normalizations":{"n_44":{"source":{"name":"SpringtailNames","id":"ansubp","url":null},"recName":"Antarctophorus subpolaris","confidence":{"state":"pre-added","who":["ml:dpeker"],"prob":0.9472}}}},{"classId":"e_4","part":"s3v1","offsets":[{"start":4606,"text":"Shackleton Glacier"}],"coordinates":[],"confidence":{"state":"pre-added","who":["ml:dpeker"],"prob":0.9648},"fields":{},"normalizations":{"n_34":{"source":{"name":"GeoNamesSCAR","id":"131453","url":null},"recName":"Shackleton Glacier","confidence":{"state":"pre-added","who":["ml:dpeker"],"prob":0.9648}}}},{"classId":"e_4","part":"s3v1","offsets":[{"start":4797,"text":"Beardmore Glacier"}],"coordinates":[],"confidence":{"state":"pre-added","who":["ml:dpeker"],"prob":0.9622},"fields":{},"normalizations":{"n_34":{"source":{"name":"GeoNamesSCAR","id":"122318","url":null},"recName":"Beardmore Glacier","confidence":{"state":"pre-added","who":["ml:dpeker"],"prob":0.9622}}}},{"classId":"e_39","part":"s3v1","offsets":[{"start":4829,"text":"A. subpolaris"}],"coordinates":[],"confidence":{"state":"pre-added","who":["ml:dpeker"],"prob":0.9472},"fields":{},"normalizations":{"n_44":{"source":{"name":"SpringtailNames","id":"ansubp","url":null},"recName":"Antarctophorus subpolaris","confidence":{"state":"pre-added","who":["ml:dpeker"],"prob":0.9472}}}},{"classId":"e_39","part":"s3v1","offsets":[{"start":4983,"text":"A. subpolaris"}],"coordinates":[],"confidence":{"state":"pre-added","who":["ml:dpeker"],"prob":0.9472},"fields":{},"normalizations":{"n_44":{"source":{"name":"SpringtailNames","id":"ansubp","url":null},"recName":"Antarctophorus subpolaris","confidence":{"state":"pre-added","who":["ml:dpeker"],"prob":0.9472}}}},{"classId":"e_4","part":"s3v1","offsets":[{"start":5212,"text":"Beardmore Glacier"}],"coordinates":[],"confidence":{"state":"pre-added","who":["ml:dpeker"],"prob":0.9622},"fields":{},"normalizations":{"n_34":{"source":{"name":"GeoNamesSCAR","id":"122318","url":null},"recName":"Beardmore Glacier","confidence":{"state":"pre-added","who":["ml:dpeker"],"prob":0.9622}}}},{"classId":"e_4","part":"s3v1","offsets":[{"start":5269,"text":"Shackleton Glacier"}],"coordinates":[],"confidence":{"state":"pre-added","who":["ml:dpeker"],"prob":0.9648},"fields":{},"normalizations":{"n_34":{"source":{"name":"GeoNamesSCAR","id":"131453","url":null},"recName":"Shackleton Glacier","confidence":{"state":"pre-added","who":["ml:dpeker"],"prob":0.9648}}}},{"classId":"e_39","part":"s3v1","offsets":[{"start":5375,"text":"A. monoculata"}],"coordinates":[],"confidence":{"state":"pre-added","who":["ml:dpeker"],"prob":0.9472},"fields":{},"normalizations":{"n_44":{"source":{"name":"SpringtailNames","id":"anmono","url":null},"recName":"Antarcticinella monoculata","confidence":{"state":"pre-added","who":["ml:dpeker"],"prob":0.9472}}}},{"classId":"e_39","part":"s3v1","offsets":[{"start":5518,"text":"A. subpolaris"}],"coordinates":[],"confidence":{"state":"pre-added","who":["ml:dpeker"],"prob":0.9472},"fields":{},"normalizations":{"n_44":{"source":{"name":"SpringtailNames","id":"ansubp","url":null},"recName":"Antarctophorus subpolaris","confidence":{"state":"pre-added","who":["ml:dpeker"],"prob":0.9472}}}},{"classId":"e_4","part":"s3v1","offsets":[{"start":5826,"text":"Beardmore Glacier"}],"coordinates":[],"confidence":{"state":"pre-added","who":["ml:dpeker"],"prob":0.9622},"fields":{},"normalizations":{"n_34":{"source":{"name":"GeoNamesSCAR","id":"122318","url":null},"recName":"Beardmore Glacier","confidence":{"state":"pre-added","who":["ml:dpeker"],"prob":0.9622}}}},{"classId":"e_39","part":"s3v1","offsets":[{"start":5858,"text":"A. subpolaris"}],"coordinates":[],"confidence":{"state":"pre-added","who":["ml:dpeker"],"prob":0.9472},"fields":{},"normalizations":{"n_44":{"source":{"name":"SpringtailNames","id":"ansubp","url":null},"recName":"Antarctophorus subpolaris","confidence":{"state":"pre-added","who":["ml:dpeker"],"prob":0.9472}}}},{"classId":"e_4","part":"s3v1","offsets":[{"start":6484,"text":"Ross Ice Shelf"}],"coordinates":[],"confidence":{"state":"pre-added","who":["ml:dpeker"],"prob":0.9518},"fields":{},"normalizations":{"n_34":{"source":{"name":"GeoNamesSCAR","id":"130957","url":null},"recName":"Ross Ice Shelf","confidence":{"state":"pre-added","who":["ml:dpeker"],"prob":0.9518}}}},{"classId":"e_39","part":"s3v1","offsets":[{"start":6603,"text":"B. sudpolaris"}],"coordinates":[],"confidence":{"state":"pre-added","who":["ml:dpeker"],"prob":0.9472},"fields":{},"normalizations":{"n_44":{"source":{"name":"SpringtailNames","id":"bisudp","url":null},"recName":"Biscoia sudpolaris","confidence":{"state":"pre-added","who":["ml:dpeker"],"prob":0.9472}}}},{"classId":"e_39","part":"s3v1","offsets":[{"start":6621,"text":"T. mediantarctica"}],"coordinates":[],"confidence":{"state":"pre-added","who":["ml:dpeker"],"prob":0.9622},"fields":{},"normalizations":{"n_44":{"source":{"name":"SpringtailNames","id":"tumedi","url":null},"recName":"Tullbergia mediantarctica","confidence":{"state":"pre-added","who":["ml:dpeker"],"prob":0.9622}}}},{"classId":"e_39","part":"s3v1","offsets":[{"start":7206,"text":"B. sudpolaris"}],"coordinates":[],"confidence":{"state":"pre-added","who":["ml:dpeker"],"prob":0.9472},"fields":{},"normalizations":{"n_44":{"source":{"name":"SpringtailNames","id":"bisudp","url":null},"recName":"Biscoia sudpolaris","confidence":{"state":"pre-added","who":["ml:dpeker"],"prob":0.9472}}}},{"classId":"e_39","part":"s3v1","offsets":[{"start":7224,"text":"T. mediantarctica"}],"coordinates":[],"confidence":{"state":"pre-added","who":["ml:dpeker"],"prob":0.9622},"fields":{},"normalizations":{"n_44":{"source":{"name":"SpringtailNames","id":"tumedi","url":null},"recName":"Tullbergia mediantarctica","confidence":{"state":"pre-added","who":["ml:dpeker"],"prob":0.9622}}}},{"classId":"e_39","part":"s3v1","offsets":[{"start":7442,"text":"A. monoculata"}],"coordinates":[],"confidence":{"state":"pre-added","who":["ml:dpeker"],"prob":0.9472},"fields":{},"normalizations":{"n_44":{"source":{"name":"SpringtailNames","id":"anmono","url":null},"recName":"Antarcticinella monoculata","confidence":{"state":"pre-added","who":["ml:dpeker"],"prob":0.9472}}}},{"classId":"e_39","part":"s3v1","offsets":[{"start":7475,"text":"G. hodgsoni"}],"coordinates":[],"confidence":{"state":"pre-added","who":["ml:dpeker"],"prob":0.9349},"fields":{},"normalizations":{"n_44":{"source":{"name":"SpringtailNames","id":"gohodg","url":null},"recName":"Gomphiocephalus hodgsoni","confidence":{"state":"pre-added","who":["ml:dpeker"],"prob":0.9349}}}},{"classId":"e_4","part":"s3v1","offsets":[{"start":7662,"text":"Mount Gran"}],"coordinates":[],"confidence":{"state":"pre-added","who":["ml:dpeker"],"prob":0.9266},"fields":{},"normalizations":{"n_34":{"source":{"name":"GeoNamesSCAR","id":"113422","url":null},"recName":"Gran, Mount","confidence":{"state":"pre-added","who":["ml:dpeker"],"prob":0.9266}}}},{"classId":"e_39","part":"s3v1","offsets":[{"start":7684,"text":"G. hodgsoni"}],"coordinates":[],"confidence":{"state":"pre-added","who":["ml:dpeker"],"prob":0.9349},"fields":{},"normalizations":{"n_44":{"source":{"name":"SpringtailNames","id":"gohodg","url":null},"recName":"Gomphiocephalus hodgsoni","confidence":{"state":"pre-added","who":["ml:dpeker"],"prob":0.9349}}}},{"classId":"e_39","part":"s3v1","offsets":[{"start":7909,"text":"A. monoculata"}],"coordinates":[],"confidence":{"state":"pre-added","who":["ml:dpeker"],"prob":0.9472},"fields":{},"normalizations":{"n_44":{"source":{"name":"SpringtailNames","id":"anmono","url":null},"recName":"Antarcticinella monoculata","confidence":{"state":"pre-added","who":["ml:dpeker"],"prob":0.9472}}}},{"classId":"e_39","part":"s3v1","offsets":[{"start":7928,"text":"G. hodgsoni"}],"coordinates":[],"confidence":{"state":"pre-added","who":["ml:dpeker"],"prob":0.9349},"fields":{},"normalizations":{"n_44":{"source":{"name":"SpringtailNames","id":"gohodg","url":null},"recName":"Gomphiocephalus hodgsoni","confidence":{"state":"pre-added","who":["ml:dpeker"],"prob":0.9349}}}},{"classId":"e_39","part":"s3v1","offsets":[{"start":8145,"text":"A. subpolaris"}],"coordinates":[],"confidence":{"state":"pre-added","who":["ml:dpeker"],"prob":0.9472},"fields":{},"normalizations":{"n_44":{"source":{"name":"SpringtailNames","id":"ansubp","url":null},"recName":"Antarctophorus subpolaris","confidence":{"state":"pre-added","who":["ml:dpeker"],"prob":0.9472}}}},{"classId":"e_39","part":"s3v1","offsets":[{"start":8160,"text":"G. hodgsoni"}],"coordinates":[],"confidence":{"state":"pre-added","who":["ml:dpeker"],"prob":0.9349},"fields":{},"normalizations":{"n_44":{"source":{"name":"SpringtailNames","id":"gohodg","url":null},"recName":"Gomphiocephalus hodgsoni","confidence":{"state":"pre-added","who":["ml:dpeker"],"prob":0.9349}}}},{"classId":"e_4","part":"s4v1","offsets":[{"start":86,"text":"Mackay Glaciers"}],"coordinates":[],"confidence":{"state":"pre-added","who":["ml:dpeker"],"prob":0.8884},"fields":{},"normalizations":{"n_34":{"source":{"name":"GeoNamesSCAR","id":"128291","url":null},"recName":"Mackay Glacier","confidence":{"state":"pre-added","who":["ml:dpeker"],"prob":0.8884}}}},{"classId":"e_39","part":"s4v1","offsets":[{"start":382,"text":"Friesea grisea"}],"coordinates":[],"confidence":{"state":"pre-added","who":["ml:dpeker"],"prob":0.9518},"fields":{},"normalizations":{"n_44":{"source":{"name":"SpringtailNames","id":"frgris","url":null},"recName":"Friesea grisea","confidence":{"state":"pre-added","who":["ml:dpeker"],"prob":0.9518}}}},{"classId":"e_4","part":"s4v1","offsets":[{"start":636,"text":"QAR"}],"coordinates":[],"confidence":{"state":"pre-added","who":["ml:dpeker"],"prob":0.9127},"fields":{},"normalizations":{"n_34":{"source":{"name":"GeoNamesSCAR","id":"130475","url":null},"recName":"Queen Alexandra Range","confidence":{"state":"pre-added","who":["ml:dpeker"],"prob":0.9127}}}},{"classId":"e_4","part":"s4v1","offsets":[{"start":649,"text":"QMM"}],"coordinates":[],"confidence":{"state":"pre-added","who":["ml:dpeker"],"prob":0.911},"fields":{},"normalizations":{"n_34":{"source":{"name":"GeoNamesSCAR","id":"130480","url":null},"recName":"Queen Maud Mountains","confidence":{"state":"pre-added","who":["ml:dpeker"],"prob":0.911}}}},{"classId":"e_39","part":"s5v1","offsets":[{"start":29,"text":"G. hodgsoni"}],"coordinates":[],"confidence":{"state":"pre-added","who":["ml:dpeker"],"prob":0.9349},"fields":{},"normalizations":{"n_44":{"source":{"name":"SpringtailNames","id":"gohodg","url":null},"recName":"Gomphiocephalus hodgsoni","confidence":{"state":"pre-added","who":["ml:dpeker"],"prob":0.9349}}}},{"classId":"e_39","part":"s5v1","offsets":[{"start":118,"text":"A. sub- polaris"}],"coordinates":[],"confidence":{"state":"pre-added","who":["ml:dpeker"],"prob":0.7798},"fields":{},"normalizations":{"n_44":{"source":{"name":"SpringtailNames","id":"ansubp","url":null},"recName":"Antarctophorus subpolaris","confidence":{"state":"pre-added","who":["ml:dpeker"],"prob":0.7798}}}},{"classId":"e_4","part":"s5v1","offsets":[{"start":179,"text":"QMM"}],"coordinates":[],"confidence":{"state":"pre-added","who":["ml:dpeker"],"prob":0.911},"fields":{},"normalizations":{"n_34":{"source":{"name":"GeoNamesSCAR","id":"130480","url":null},"recName":"Queen Maud Mountains","confidence":{"state":"pre-added","who":["ml:dpeker"],"prob":0.911}}}},{"classId":"e_4","part":"s5v1","offsets":[{"start":365,"text":"QAR"}],"coordinates":[],"confidence":{"state":"pre-added","who":["ml:dpeker"],"prob":0.9127},"fields":{},"normalizations":{"n_34":{"source":{"name":"GeoNamesSCAR","id":"130475","url":null},"recName":"Queen Alexandra Range","confidence":{"state":"pre-added","who":["ml:dpeker"],"prob":0.9127}}}},{"classId":"e_4","part":"s5v1","offsets":[{"start":373,"text":"QMM"}],"coordinates":[],"confidence":{"state":"pre-added","who":["ml:dpeker"],"prob":0.911},"fields":{},"normalizations":{"n_34":{"source":{"name":"GeoNamesSCAR","id":"130480","url":null},"recName":"Queen Maud Mountains","confidence":{"state":"pre-added","who":["ml:dpeker"],"prob":0.911}}}},{"classId":"e_4","part":"s5v1","offsets":[{"start":410,"text":"Ross Ice Shelf"}],"coordinates":[],"confidence":{"state":"pre-added","who":["ml:dpeker"],"prob":0.9518},"fields":{},"normalizations":{"n_34":{"source":{"name":"GeoNamesSCAR","id":"130957","url":null},"recName":"Ross Ice Shelf","confidence":{"state":"pre-added","who":["ml:dpeker"],"prob":0.9518}}}},{"classId":"e_39","part":"s5v1","offsets":[{"start":571,"text":"G. hodgsoni"}],"coordinates":[],"confidence":{"state":"pre-added","who":["ml:dpeker"],"prob":0.9349},"fields":{},"normalizations":{"n_44":{"source":{"name":"SpringtailNames","id":"gohodg","url":null},"recName":"Gomphiocephalus hodgsoni","confidence":{"state":"pre-added","who":["ml:dpeker"],"prob":0.9349}}}},{"classId":"e_4","part":"s5v1","offsets":[{"start":887,"text":"QAR"}],"coordinates":[],"confidence":{"state":"pre-added","who":["ml:dpeker"],"prob":0.9127},"fields":{},"normalizations":{"n_34":{"source":{"name":"GeoNamesSCAR","id":"130475","url":null},"recName":"Queen Alexandra Range","confidence":{"state":"pre-added","who":["ml:dpeker"],"prob":0.9127}}}},{"classId":"e_4","part":"s5v1","offsets":[{"start":895,"text":"QMM"}],"coordinates":[],"confidence":{"state":"pre-added","who":["ml:dpeker"],"prob":0.911},"fields":{},"normalizations":{"n_34":{"source":{"name":"GeoNamesSCAR","id":"130480","url":null},"recName":"Queen Maud Mountains","confidence":{"state":"pre-added","who":["ml:dpeker"],"prob":0.911}}}},{"classId":"e_39","part":"s5v1","offsets":[{"start":1311,"text":"A. subpolaris"}],"coordinates":[],"confidence":{"state":"pre-added","who":["ml:dpeker"],"prob":0.9472},"fields":{},"normalizations":{"n_44":{"source":{"name":"SpringtailNames","id":"ansubp","url":null},"recName":"Antarctophorus subpolaris","confidence":{"state":"pre-added","who":["ml:dpeker"],"prob":0.9472}}}},{"classId":"e_39","part":"s5v1","offsets":[{"start":1326,"text":"A. monoculata"}],"coordinates":[],"confidence":{"state":"pre-added","who":["ml:dpeker"],"prob":0.9472},"fields":{},"normalizations":{"n_44":{"source":{"name":"SpringtailNames","id":"anmono","url":null},"recName":"Antarcticinella monoculata","confidence":{"state":"pre-added","who":["ml:dpeker"],"prob":0.9472}}}},{"classId":"e_39","part":"s5v1","offsets":[{"start":1345,"text":"G. hodgsoni"}],"coordinates":[],"confidence":{"state":"pre-added","who":["ml:dpeker"],"prob":0.9349},"fields":{},"normalizations":{"n_44":{"source":{"name":"SpringtailNames","id":"gohodg","url":null},"recName":"Gomphiocephalus hodgsoni","confidence":{"state":"pre-added","who":["ml:dpeker"],"prob":0.9349}}}},{"classId":"e_4","part":"s5v1","offsets":[{"start":1736,"text":"Shackleton Glaciers"}],"coordinates":[],"confidence":{"state":"pre-added","who":["ml:dpeker"],"prob":0.914},"fields":{},"normalizations":{"n_34":{"source":{"name":"GeoNamesSCAR","id":"131453","url":null},"recName":"Shackleton Glacier","confidence":{"state":"pre-added","who":["ml:dpeker"],"prob":0.914}}}},{"classId":"e_4","part":"s5v1","offsets":[{"start":2021,"text":"QAR"}],"coordinates":[],"confidence":{"state":"pre-added","who":["ml:dpeker"],"prob":0.9127},"fields":{},"normalizations":{"n_34":{"source":{"name":"GeoNamesSCAR","id":"130475","url":null},"recName":"Queen Alexandra Range","confidence":{"state":"pre-added","who":["ml:dpeker"],"prob":0.9127}}}},{"classId":"e_4","part":"s5v1","offsets":[{"start":2029,"text":"QMM"}],"coordinates":[],"confidence":{"state":"pre-added","who":["ml:dpeker"],"prob":0.911},"fields":{},"normalizations":{"n_34":{"source":{"name":"GeoNamesSCAR","id":"130480","url":null},"recName":"Queen Maud Mountains","confidence":{"state":"pre-added","who":["ml:dpeker"],"prob":0.911}}}},{"classId":"e_39","part":"s5v1","offsets":[{"start":2874,"text":"G. hodgsoni"}],"coordinates":[],"confidence":{"state":"pre-added","who":["ml:dpeker"],"prob":0.9349},"fields":{},"normalizations":{"n_44":{"source":{"name":"SpringtailNames","id":"gohodg","url":null},"recName":"Gomphiocephalus hodgsoni","confidence":{"state":"pre-added","who":["ml:dpeker"],"prob":0.9349}}}},{"classId":"e_4","part":"s5v1","offsets":[{"start":3020,"text":"Mount Gran"}],"coordinates":[],"confidence":{"state":"pre-added","who":["ml:dpeker"],"prob":0.9266},"fields":{},"normalizations":{"n_34":{"source":{"name":"GeoNamesSCAR","id":"113422","url":null},"recName":"Gran, Mount","confidence":{"state":"pre-added","who":["ml:dpeker"],"prob":0.9266}}}},{"classId":"e_4","part":"s5v1","offsets":[{"start":3035,"text":"Towle Glacier"}],"coordinates":[],"confidence":{"state":"pre-added","who":["ml:dpeker"],"prob":0.9472},"fields":{},"normalizations":{"n_34":{"source":{"name":"GeoNamesSCAR","id":"132820","url":null},"recName":"Towle Glacier","confidence":{"state":"pre-added","who":["ml:dpeker"],"prob":0.9472}}}},{"classId":"e_39","part":"s5v1","offsets":[{"start":3270,"text":"G. hodgsoni"}],"coordinates":[],"confidence":{"state":"pre-added","who":["ml:dpeker"],"prob":0.9349},"fields":{},"normalizations":{"n_44":{"source":{"name":"SpringtailNames","id":"gohodg","url":null},"recName":"Gomphiocephalus hodgsoni","confidence":{"state":"pre-added","who":["ml:dpeker"],"prob":0.9349}}}},{"classId":"e_39","part":"s5v1","offsets":[{"start":3392,"text":"A. monoculata"}],"coordinates":[],"confidence":{"state":"pre-added","who":["ml:dpeker"],"prob":0.9472},"fields":{},"normalizations":{"n_44":{"source":{"name":"SpringtailNames","id":"anmono","url":null},"recName":"Antarcticinella monoculata","confidence":{"state":"pre-added","who":["ml:dpeker"],"prob":0.9472}}}},{"classId":"e_4","part":"s5v1","offsets":[{"start":3436,"text":"Pegtop Mountain"}],"coordinates":[],"confidence":{"state":"pre-added","who":["ml:dpeker"],"prob":0.9558},"fields":{},"normalizations":{"n_34":{"source":{"name":"GeoNamesSCAR","id":"129967","url":null},"recName":"Pegtop Mountain","confidence":{"state":"pre-added","who":["ml:dpeker"],"prob":0.9558}}}},{"classId":"e_4","part":"s5v1","offsets":[{"start":3541,"text":"Springtail Point"}],"coordinates":[],"confidence":{"state":"pre-added","who":["ml:dpeker"],"prob":0.9592},"fields":{},"normalizations":{"n_34":{"source":{"name":"GeoNamesSCAR","id":"132046","url":null},"recName":"Springtail Point","confidence":{"state":"pre-added","who":["ml:dpeker"],"prob":0.9592}}}},{"classId":"e_39","part":"s5v1","offsets":[{"start":3587,"text":"C. nivicolus"}],"coordinates":[{"x":"479.74","y":"133.80"},{"x":"524.19","y":"139.12"}],"confidence":{"state":"pre-added","who":["user:ICTAR"],"prob":1},"fields":{},"normalizations":{"n_44":{"source":{"name":"SpringtailNames","id":"nenivi","url":null},"recName":"","confidence":{"state":"pre-added","who":["user:ICTAR"],"prob":1}}}},{"classId":"e_4","part":"s5v1","offsets":[{"start":3613,"text":"Springtail Point"}],"coordinates":[],"confidence":{"state":"pre-added","who":["ml:dpeker"],"prob":0.9592},"fields":{},"normalizations":{"n_34":{"source":{"name":"GeoNamesSCAR","id":"132046","url":null},"recName":"Springtail Point","confidence":{"state":"pre-added","who":["ml:dpeker"],"prob":0.9592}}}},{"classId":"e_39","part":"s5v1","offsets":[{"start":3668,"text":"G. hodgsoni"}],"coordinates":[],"confidence":{"state":"pre-added","who":["ml:dpeker"],"prob":0.9349},"fields":{},"normalizations":{"n_44":{"source":{"name":"SpringtailNames","id":"gohodg","url":null},"recName":"Gomphiocephalus hodgsoni","confidence":{"state":"pre-added","who":["ml:dpeker"],"prob":0.9349}}}},{"classId":"e_39","part":"s5v1","offsets":[{"start":4074,"text":"A. subpolaris"}],"coordinates":[],"confidence":{"state":"pre-added","who":["ml:dpeker"],"prob":0.9472},"fields":{},"normalizations":{"n_44":{"source":{"name":"SpringtailNames","id":"ansubp","url":null},"recName":"Antarctophorus subpolaris","confidence":{"state":"pre-added","who":["ml:dpeker"],"prob":0.9472}}}},{"classId":"e_4","part":"s5v1","offsets":[{"start":5536,"text":"QAR"}],"coordinates":[],"confidence":{"state":"pre-added","who":["ml:dpeker"],"prob":0.9127},"fields":{},"normalizations":{"n_34":{"source":{"name":"GeoNamesSCAR","id":"130475","url":null},"recName":"Queen Alexandra Range","confidence":{"state":"pre-added","who":["ml:dpeker"],"prob":0.9127}}}},{"classId":"e_4","part":"s5v1","offsets":[{"start":5549,"text":"QMM"}],"coordinates":[],"confidence":{"state":"pre-added","who":["ml:dpeker"],"prob":0.911},"fields":{},"normalizations":{"n_34":{"source":{"name":"GeoNamesSCAR","id":"130480","url":null},"recName":"Queen Maud Mountains","confidence":{"state":"pre-added","who":["ml:dpeker"],"prob":0.911}}}},{"classId":"e_4","part":"s5v1","offsets":[{"start":5709,"text":"QAR"}],"coordinates":[],"confidence":{"state":"pre-added","who":["ml:dpeker"],"prob":0.9127},"fields":{},"normalizations":{"n_34":{"source":{"name":"GeoNamesSCAR","id":"130475","url":null},"recName":"Queen Alexandra Range","confidence":{"state":"pre-added","who":["ml:dpeker"],"prob":0.9127}}}},{"classId":"e_4","part":"s5v1","offsets":[{"start":5713,"text":"QMM"}],"coordinates":[],"confidence":{"state":"pre-added","who":["ml:dpeker"],"prob":0.911},"fields":{},"normalizations":{"n_34":{"source":{"name":"GeoNamesSCAR","id":"130480","url":null},"recName":"Queen Maud Mountains","confidence":{"state":"pre-added","who":["ml:dpeker"],"prob":0.911}}}},{"classId":"e_4","part":"s5v1","offsets":[{"start":6286,"text":"QAR"}],"coordinates":[],"confidence":{"state":"pre-added","who":["ml:dpeker"],"prob":0.9127},"fields":{},"normalizations":{"n_34":{"source":{"name":"GeoNamesSCAR","id":"130475","url":null},"recName":"Queen Alexandra Range","confidence":{"state":"pre-added","who":["ml:dpeker"],"prob":0.9127}}}},{"classId":"e_4","part":"s5v1","offsets":[{"start":6299,"text":"QMM"}],"coordinates":[],"confidence":{"state":"pre-added","who":["ml:dpeker"],"prob":0.911},"fields":{},"normalizations":{"n_34":{"source":{"name":"GeoNamesSCAR","id":"130480","url":null},"recName":"Queen Maud Mountains","confidence":{"state":"pre-added","who":["ml:dpeker"],"prob":0.911}}}},{"classId":"e_4","part":"s5v1","offsets":[{"start":6326,"text":"QAR"}],"coordinates":[],"confidence":{"state":"pre-added","who":["ml:dpeker"],"prob":0.9127},"fields":{},"normalizations":{"n_34":{"source":{"name":"GeoNamesSCAR","id":"130475","url":null},"recName":"Queen Alexandra Range","confidence":{"state":"pre-added","who":["ml:dpeker"],"prob":0.9127}}}},{"classId":"e_4","part":"s5v1","offsets":[{"start":6332,"text":"QMM"}],"coordinates":[],"confidence":{"state":"pre-added","who":["ml:dpeker"],"prob":0.911},"fields":{},"normalizations":{"n_34":{"source":{"name":"GeoNamesSCAR","id":"130480","url":null},"recName":"Queen Maud Mountains","confidence":{"state":"pre-added","who":["ml:dpeker"],"prob":0.911}}}},{"classId":"e_39","part":"s5v1","offsets":[{"start":6422,"text":"A. subpolaris"}],"coordinates":[],"confidence":{"state":"pre-added","who":["ml:dpeker"],"prob":0.9472},"fields":{},"normalizations":{"n_44":{"source":{"name":"SpringtailNames","id":"ansubp","url":null},"recName":"Antarctophorus subpolaris","confidence":{"state":"pre-added","who":["ml:dpeker"],"prob":0.9472}}}},{"classId":"e_39","part":"s5v1","offsets":[{"start":6488,"text":"B. sudpolaris"}],"coordinates":[],"confidence":{"state":"pre-added","who":["ml:dpeker"],"prob":0.9472},"fields":{},"normalizations":{"n_44":{"source":{"name":"SpringtailNames","id":"bisudp","url":null},"recName":"Biscoia sudpolaris","confidence":{"state":"pre-added","who":["ml:dpeker"],"prob":0.9472}}}},{"classId":"e_39","part":"s5v1","offsets":[{"start":6522,"text":"T. mediantarctica"}],"coordinates":[],"confidence":{"state":"pre-added","who":["ml:dpeker"],"prob":0.9622},"fields":{},"normalizations":{"n_44":{"source":{"name":"SpringtailNames","id":"tumedi","url":null},"recName":"Tullbergia mediantarctica","confidence":{"state":"pre-added","who":["ml:dpeker"],"prob":0.9622}}}},{"classId":"e_39","part":"s5v1","offsets":[{"start":6560,"text":"G. hodgsoni"}],"coordinates":[],"confidence":{"state":"pre-added","who":["ml:dpeker"],"prob":0.9349},"fields":{},"normalizations":{"n_44":{"source":{"name":"SpringtailNames","id":"gohodg","url":null},"recName":"Gomphiocephalus hodgsoni","confidence":{"state":"pre-added","who":["ml:dpeker"],"prob":0.9349}}}},{"classId":"e_39","part":"s5v1","offsets":[{"start":6623,"text":"A. monoculata"}],"coordinates":[],"confidence":{"state":"pre-added","who":["ml:dpeker"],"prob":0.9472},"fields":{},"normalizations":{"n_44":{"source":{"name":"SpringtailNames","id":"anmono","url":null},"recName":"Antarcticinella monoculata","confidence":{"state":"pre-added","who":["ml:dpeker"],"prob":0.9472}}}},{"classId":"e_4","part":"s6v1","offsets":[{"start":425,"text":"QAR"}],"coordinates":[],"confidence":{"state":"pre-added","who":["ml:dpeker"],"prob":0.9127},"fields":{},"normalizations":{"n_34":{"source":{"name":"GeoNamesSCAR","id":"130475","url":null},"recName":"Queen Alexandra Range","confidence":{"state":"pre-added","who":["ml:dpeker"],"prob":0.9127}}}},{"classId":"e_4","part":"s6v1","offsets":[{"start":437,"text":"QMM"}],"coordinates":[],"confidence":{"state":"pre-added","who":["ml:dpeker"],"prob":0.911},"fields":{},"normalizations":{"n_34":{"source":{"name":"GeoNamesSCAR","id":"130480","url":null},"recName":"Queen Maud Mountains","confidence":{"state":"pre-added","who":["ml:dpeker"],"prob":0.911}}}},{"classId":"e_4","part":"s6v1","offsets":[{"start":3896,"text":"QAR"}],"coordinates":[],"confidence":{"state":"pre-added","who":["ml:dpeker"],"prob":0.9127},"fields":{},"normalizations":{"n_34":{"source":{"name":"GeoNamesSCAR","id":"130475","url":null},"recName":"Queen Alexandra Range","confidence":{"state":"pre-added","who":["ml:dpeker"],"prob":0.9127}}}},{"classId":"e_4","part":"s6v1","offsets":[{"start":3908,"text":"QMM"}],"coordinates":[],"confidence":{"state":"pre-added","who":["ml:dpeker"],"prob":0.911},"fields":{},"normalizations":{"n_34":{"source":{"name":"GeoNamesSCAR","id":"130480","url":null},"recName":"Queen Maud Mountains","confidence":{"state":"pre-added","who":["ml:dpeker"],"prob":0.911}}}},{"classId":"e_39","part":"s6v1","offsets":[{"start":4006,"text":"G. hodgsoni"}],"coordinates":[],"confidence":{"state":"pre-added","who":["ml:dpeker"],"prob":0.9349},"fields":{},"normalizations":{"n_44":{"source":{"name":"SpringtailNames","id":"gohodg","url":null},"recName":"Gomphiocephalus hodgsoni","confidence":{"state":"pre-added","who":["ml:dpeker"],"prob":0.9349}}}},{"classId":"e_39","part":"s6v1","offsets":[{"start":4053,"text":"B. sudpolaris"}],"coordinates":[],"confidence":{"state":"pre-added","who":["ml:dpeker"],"prob":0.9472},"fields":{},"normalizations":{"n_44":{"source":{"name":"SpringtailNames","id":"bisudp","url":null},"recName":"Biscoia sudpolaris","confidence":{"state":"pre-added","who":["ml:dpeker"],"prob":0.9472}}}},{"classId":"e_39","part":"s6v1","offsets":[{"start":4102,"text":"T. mediantarctica"}],"coordinates":[],"confidence":{"state":"pre-added","who":["ml:dpeker"],"prob":0.9622},"fields":{},"normalizations":{"n_44":{"source":{"name":"SpringtailNames","id":"tumedi","url":null},"recName":"Tullbergia mediantarctica","confidence":{"state":"pre-added","who":["ml:dpeker"],"prob":0.9622}}}},{"classId":"e_39","part":"s6v1","offsets":[{"start":4220,"text":"A. subpolaris"}],"coordinates":[],"confidence":{"state":"pre-added","who":["ml:dpeker"],"prob":0.9472},"fields":{},"normalizations":{"n_44":{"source":{"name":"SpringtailNames","id":"ansubp","url":null},"recName":"Antarctophorus subpolaris","confidence":{"state":"pre-added","who":["ml:dpeker"],"prob":0.9472}}}},{"classId":"e_4","part":"s6v1","offsets":[{"start":4258,"text":"Shackleton Glacier"}],"coordinates":[],"confidence":{"state":"pre-added","who":["ml:dpeker"],"prob":0.9648},"fields":{},"normalizations":{"n_34":{"source":{"name":"GeoNamesSCAR","id":"131453","url":null},"recName":"Shackleton Glacier","confidence":{"state":"pre-added","who":["ml:dpeker"],"prob":0.9648}}}},{"classId":"e_4","part":"s7v1","offsets":[{"start":998,"text":"McMurdo Ice Shelf"}],"coordinates":[],"confidence":{"state":"pre-added","who":["ml:dpeker"],"prob":0.9622},"fields":{},"normalizations":{"n_34":{"source":{"name":"GeoNamesSCAR","id":"128723","url":null},"recName":"McMurdo Ice Shelf","confidence":{"state":"pre-added","who":["ml:dpeker"],"prob":0.9622}}}},{"classId":"e_4","part":"s7v1","offsets":[{"start":1953,"text":"QAR"}],"coordinates":[],"confidence":{"state":"pre-added","who":["ml:dpeker"],"prob":0.9127},"fields":{},"normalizations":{"n_34":{"source":{"name":"GeoNamesSCAR","id":"130475","url":null},"recName":"Queen Alexandra Range","confidence":{"state":"pre-added","who":["ml:dpeker"],"prob":0.9127}}}},{"classId":"e_39","part":"s7v1","offsets":[{"start":1961,"text":"G. hodgsoni"}],"coordinates":[],"confidence":{"state":"pre-added","who":["ml:dpeker"],"prob":0.9349},"fields":{},"normalizations":{"n_44":{"source":{"name":"SpringtailNames","id":"gohodg","url":null},"recName":"Gomphiocephalus hodgsoni","confidence":{"state":"pre-added","who":["ml:dpeker"],"prob":0.9349}}}},{"classId":"e_39","part":"s7v1","offsets":[{"start":2076,"text":"G. hodgsoni"}],"coordinates":[],"confidence":{"state":"pre-added","who":["ml:dpeker"],"prob":0.9349},"fields":{},"normalizations":{"n_44":{"source":{"name":"SpringtailNames","id":"gohodg","url":null},"recName":"Gomphiocephalus hodgsoni","confidence":{"state":"pre-added","who":["ml:dpeker"],"prob":0.9349}}}},{"classId":"e_39","part":"s7v1","offsets":[{"start":2235,"text":"A. monoculata"}],"coordinates":[],"confidence":{"state":"pre-added","who":["ml:dpeker"],"prob":0.9472},"fields":{},"normalizations":{"n_44":{"source":{"name":"SpringtailNames","id":"anmono","url":null},"recName":"Antarcticinella monoculata","confidence":{"state":"pre-added","who":["ml:dpeker"],"prob":0.9472}}}},{"classId":"e_39","part":"s7v1","offsets":[{"start":2536,"text":"G. hodgsoni"}],"coordinates":[],"confidence":{"state":"pre-added","who":["ml:dpeker"],"prob":0.9349},"fields":{},"normalizations":{"n_44":{"source":{"name":"SpringtailNames","id":"gohodg","url":null},"recName":"Gomphiocephalus hodgsoni","confidence":{"state":"pre-added","who":["ml:dpeker"],"prob":0.9349}}}},{"classId":"e_4","part":"s8v1","offsets":[{"start":1444,"text":"QAR"}],"coordinates":[],"confidence":{"state":"pre-added","who":["ml:dpeker"],"prob":0.9127},"fields":{},"normalizations":{"n_34":{"source":{"name":"GeoNamesSCAR","id":"130475","url":null},"recName":"Queen Alexandra Range","confidence":{"state":"pre-added","who":["ml:dpeker"],"prob":0.9127}}}},{"classId":"e_4","part":"s8v1","offsets":[{"start":1457,"text":"QMM"}],"coordinates":[],"confidence":{"state":"pre-added","who":["ml:dpeker"],"prob":0.911},"fields":{},"normalizations":{"n_34":{"source":{"name":"GeoNamesSCAR","id":"130480","url":null},"recName":"Queen Maud Mountains","confidence":{"state":"pre-added","who":["ml:dpeker"],"prob":0.911}}}},{"classId":"e_39","part":"s8v1","offsets":[{"start":1615,"text":"A. subpolaris"}],"coordinates":[],"confidence":{"state":"pre-added","who":["ml:dpeker"],"prob":0.9472},"fields":{},"normalizations":{"n_44":{"source":{"name":"SpringtailNames","id":"ansubp","url":null},"recName":"Antarctophorus subpolaris","confidence":{"state":"pre-added","who":["ml:dpeker"],"prob":0.9472}}}},{"classId":"e_39","part":"s8v1","offsets":[{"start":1786,"text":"G. hodgsoni"}],"coordinates":[],"confidence":{"state":"pre-added","who":["ml:dpeker"],"prob":0.9349},"fields":{},"normalizations":{"n_44":{"source":{"name":"SpringtailNames","id":"gohodg","url":null},"recName":"Gomphiocephalus hodgsoni","confidence":{"state":"pre-added","who":["ml:dpeker"],"prob":0.9349}}}},{"classId":"e_4","part":"s8v1","offsets":[{"start":1831,"text":"QAR"}],"coordinates":[],"confidence":{"state":"pre-added","who":["ml:dpeker"],"prob":0.9127},"fields":{},"normalizations":{"n_34":{"source":{"name":"GeoNamesSCAR","id":"130475","url":null},"recName":"Queen Alexandra Range","confidence":{"state":"pre-added","who":["ml:dpeker"],"prob":0.9127}}}},{"classId":"e_39","part":"s8v1","offsets":[{"start":2099,"text":"A. monoculata"}],"coordinates":[],"confidence":{"state":"pre-added","who":["ml:dpeker"],"prob":0.9472},"fields":{},"normalizations":{"n_44":{"source":{"name":"SpringtailNames","id":"anmono","url":null},"recName":"Antarcticinella monoculata","confidence":{"state":"pre-added","who":["ml:dpeker"],"prob":0.9472}}}},{"classId":"e_4","part":"s9v1","offsets":[{"start":945,"text":"McMurdo Dry Valleys"}],"coordinates":[],"confidence":{"state":"pre-added","who":["ml:dpeker"],"prob":0.9671},"fields":{},"normalizations":{"n_34":{"source":{"name":"GeoNamesSCAR","id":"113892","url":null},"recName":"McMurdo Dry Valleys","confidence":{"state":"pre-added","who":["ml:dpeker"],"prob":0.9671}}}},{"classId":"e_39","part":"s9v1","offsets":[{"start":1498,"text":"Gomphiocephalus hodgsoni"}],"coordinates":[],"confidence":{"state":"pre-added","who":["ml:dpeker"],"prob":0.9754},"fields":{},"normalizations":{"n_44":{"source":{"name":"SpringtailNames","id":"gohodg","url":null},"recName":"Gomphiocephalus hodgsoni","confidence":{"state":"pre-added","who":["ml:dpeker"],"prob":0.9754}}}},{"classId":"e_4","part":"s9v1","offsets":[{"start":3938,"text":"Queen Maud Mountains"}],"coordinates":[],"confidence":{"state":"pre-added","who":["ml:dpeker"],"prob":0.911},"fields":{},"normalizations":{"n_34":{"source":{"name":"GeoNamesSCAR","id":"130480","url":null},"recName":"Queen Maud Mountains","confidence":{"state":"pre-added","who":["ml:dpeker"],"prob":0.911}}}},{"classId":"e_4","part":"s9v1","offsets":[{"start":4235,"text":"Taylor Valley"}],"coordinates":[],"confidence":{"state":"pre-added","who":["ml:dpeker"],"prob":0.9472},"fields":{},"normalizations":{"n_34":{"source":{"name":"GeoNamesSCAR","id":"132512","url":null},"recName":"Taylor Valley","confidence":{"state":"pre-added","who":["ml:dpeker"],"prob":0.9472}}}},{"classId":"e_39","part":"s9v1","offsets":[{"start":6292,"text":"Gomphiocephalus hodgsoni"}],"coordinates":[],"confidence":{"state":"pre-added","who":["ml:dpeker"],"prob":0.9754},"fields":{},"normalizations":{"n_44":{"source":{"name":"SpringtailNames","id":"gohodg","url":null},"recName":"Gomphiocephalus hodgsoni","confidence":{"state":"pre-added","who":["ml:dpeker"],"prob":0.9754}}}},{"classId":"e_4","part":"s9v1","offsets":[{"start":6369,"text":"Taylor Valley"}],"coordinates":[],"confidence":{"state":"pre-added","who":["ml:dpeker"],"prob":0.9472},"fields":{},"normalizations":{"n_34":{"source":{"name":"GeoNamesSCAR","id":"132512","url":null},"recName":"Taylor Valley","confidence":{"state":"pre-added","who":["ml:dpeker"],"prob":0.9472}}}},{"classId":"e_39","part":"s9v1","offsets":[{"start":7883,"text":"Folsomia candida"}],"coordinates":[],"confidence":{"state":"pre-added","who":["ml:dpeker"],"prob":0.9592},"fields":{},"normalizations":{"n_44":{"source":{"name":"SpringtailNames","id":"focand","url":null},"recName":"Folsomia candida","confidence":{"state":"pre-added","who":["ml:dpeker"],"prob":0.9592}}}},{"classId":"e_39","part":"s9v1","offsets":[{"start":8365,"text":"Gomphiocephalus hodgsoni"}],"coordinates":[],"confidence":{"state":"pre-added","who":["ml:dpeker"],"prob":0.9754},"fields":{},"normalizations":{"n_44":{"source":{"name":"SpringtailNames","id":"gohodg","url":null},"recName":"Gomphiocephalus hodgsoni","confidence":{"state":"pre-added","who":["ml:dpeker"],"prob":0.9754}}}},{"classId":"e_4","part":"s9v1","offsets":[{"start":9937,"text":"Beardmore Glacier"}],"coordinates":[],"confidence":{"state":"pre-added","who":["ml:dpeker"],"prob":0.9622},"fields":{},"normalizations":{"n_34":{"source":{"name":"GeoNamesSCAR","id":"122318","url":null},"recName":"Beardmore Glacier","confidence":{"state":"pre-added","who":["ml:dpeker"],"prob":0.9622}}}},{"classId":"e_4","part":"s9v1","offsets":[{"start":10138,"text":"Taylor Valley"}],"coordinates":[],"confidence":{"state":"pre-added","who":["ml:dpeker"],"prob":0.9472},"fields":{},"normalizations":{"n_34":{"source":{"name":"GeoNamesSCAR","id":"132512","url":null},"recName":"Taylor Valley","confidence":{"state":"pre-added","who":["ml:dpeker"],"prob":0.9472}}}},{"classId":"e_4","part":"s9v1","offsets":[{"start":10153,"text":"Transantarctic Mountains"}],"coordinates":[],"confidence":{"state":"pre-added","who":["ml:dpeker"],"prob":0.9754},"fields":{},"normalizations":{"n_34":{"source":{"name":"GeoNamesSCAR","id":"132843","url":null},"recName":"Transantarctic Mountains","confidence":{"state":"pre-added","who":["ml:dpeker"],"prob":0.9754}}}},{"classId":"e_4","part":"s9v1","offsets":[{"start":10265,"text":"McMurdo Sound"}],"coordinates":[],"confidence":{"state":"pre-added","who":["ml:dpeker"],"prob":0.9472},"fields":{},"normalizations":{"n_34":{"source":{"name":"GeoNamesSCAR","id":"128724","url":null},"recName":"McMurdo Sound","confidence":{"state":"pre-added","who":["ml:dpeker"],"prob":0.9472}}}},{"classId":"e_4","part":"s9v1","offsets":[{"start":10618,"text":"Shackleton Glacier"}],"coordinates":[],"confidence":{"state":"pre-added","who":["ml:dpeker"],"prob":0.9648},"fields":{},"normalizations":{"n_34":{"source":{"name":"GeoNamesSCAR","id":"131453","url":null},"recName":"Shackleton Glacier","confidence":{"state":"pre-added","who":["ml:dpeker"],"prob":0.9648}}}},{"classId":"e_4","part":"s9v1","offsets":[{"start":10653,"text":"Transantarctic Mountains"}],"coordinates":[],"confidence":{"state":"pre-added","who":["ml:dpeker"],"prob":0.9754},"fields":{},"normalizations":{"n_34":{"source":{"name":"GeoNamesSCAR","id":"132843","url":null},"recName":"Transantarctic Mountains","confidence":{"state":"pre-added","who":["ml:dpeker"],"prob":0.9754}}}},{"classId":"e_4","part":"s9v1","offsets":[{"start":10845,"text":"Beardmore Glacier"}],"coordinates":[],"confidence":{"state":"pre-added","who":["ml:dpeker"],"prob":0.9622},"fields":{},"normalizations":{"n_34":{"source":{"name":"GeoNamesSCAR","id":"122318","url":null},"recName":"Beardmore Glacier","confidence":{"state":"pre-added","who":["ml:dpeker"],"prob":0.9622}}}}],"relations":[{"classId":"r_46","type":"linked","directed":false,"entities":["s3v1|e_39|1631,1648","s3v1|e_4|1738,1754"],"confidence":{"state":"pre-added","who":["user:ICTAR"],"prob":1}},{"classId":"r_46","type":"linked","directed":false,"entities":["s3v1|e_39|1787,1811","s3v1|e_4|1902,1919"],"confidence":{"state":"pre-added","who":["user:ICTAR"],"prob":1}},{"classId":"r_46","type":"linked","directed":false,"entities":["s3v1|e_4|2908,2919","s3v1|e_39|2974,2986"],"confidence":{"state":"pre-added","who":["user:ICTAR"],"prob":1}},{"classId":"r_46","type":"linked","directed":false,"entities":["s3v1|e_39|2974,2986","s3v1|e_4|2926,2940"],"confidence":{"state":"pre-added","who":["user:ICTAR"],"prob":1}},{"classId":"r_46","type":"linked","directed":false,"entities":["s3v1|e_39|2974,2986","s3v1|e_4|2893,2905"],"confidence":{"state":"pre-added","who":["user:ICTAR"],"prob":1}},{"classId":"r_46","type":"linked","directed":false,"entities":["s3v1|e_4|3659,3661","s3v1|e_39|3715,3739"],"confidence":{"state":"pre-added","who":["user:ICTAR"],"prob":1}},{"classId":"r_46","type":"linked","directed":false,"entities":["s3v1|e_4|3822,3839","s3v1|e_39|3842,3854"],"confidence":{"state":"pre-added","who":["user:ICTAR"],"prob":1}},{"classId":"r_46","type":"linked","directed":false,"entities":["s3v1|e_39|3842,3854","s3v1|e_4|3911,3927"],"confidence":{"state":"pre-added","who":["user:ICTAR"],"prob":1}},{"classId":"r_46","type":"linked","directed":false,"entities":["s3v1|e_39|3842,3854","s3v1|e_4|4005,4024"],"confidence":{"state":"pre-added","who":["user:ICTAR"],"prob":1}},{"classId":"r_46","type":"linked","directed":false,"entities":["s3v1|e_39|4077,4087","s3v1|e_4|4117,4133"],"confidence":{"state":"pre-added","who":["user:ICTAR"],"prob":1}},{"classId":"r_46","type":"linked","directed":false,"entities":["s3v1|e_39|4077,4087","s3v1|e_4|4147,4149"],"confidence":{"state":"pre-added","who":["user:ICTAR"],"prob":1}},{"classId":"r_46","type":"linked","directed":false,"entities":["s3v1|e_39|4557,4569","s3v1|e_4|4606,4623"],"confidence":{"state":"pre-added","who":["user:ICTAR"],"prob":1}},{"classId":"r_46","type":"linked","directed":false,"entities":["s3v1|e_4|4797,4813","s3v1|e_39|4829,4841"],"confidence":{"state":"pre-added","who":["user:ICTAR"],"prob":1}},{"classId":"r_46","type":"linked","directed":false,"entities":["s3v1|e_4|5826,5842","s3v1|e_39|5858,5870"],"confidence":{"state":"pre-added","who":["user:ICTAR"],"prob":1}},{"classId":"r_46","type":"linked","directed":false,"entities":["s3v1|e_4|7662,7671","s3v1|e_39|7684,7694"],"confidence":{"state":"pre-added","who":["user:ICTAR"],"prob":1}},{"classId":"r_46","type":"linked","directed":false,"entities":["s5v1|e_39|118,132","s5v1|e_4|179,181"],"confidence":{"state":"pre-added","who":["user:ICTAR"],"prob":1}},{"classId":"r_46","type":"linked","directed":false,"entities":["s5v1|e_39|3392,3404","s5v1|e_4|3436,3450"],"confidence":{"state":"pre-added","who":["user:ICTAR"],"prob":1}},{"classId":"r_46","type":"linked","directed":false,"entities":["s5v1|e_39|3392,3404","s5v1|e_4|3541,3556"],"confidence":{"state":"pre-added","who":["user:ICTAR"],"prob":1}},{"classId":"r_46","type":"linked","directed":false,"entities":["s5v1|e_39|3587,3598","s5v1|e_4|3613,3628"],"confidence":{"state":"pre-added","who":["user:ICTAR"],"prob":1}}]}