{"annotatable":{"parts":["s1v1","s2v1","s3v1","s4v1","s5v1","s6v1","s7v1","s8v1","s9v1","s10v1","s11v1","s12v1"]},"anncomplete":true,"sources":[],"metas":{"m_14":{"value":true,"confidence":{"state":"pre-added","who":["user:ICTAR"],"prob":1}},"m_16":{"value":"South Victoria Land","confidence":{"state":"pre-added","who":["user:ICTAR"],"prob":1}},"m_76":{"value":true,"confidence":{"state":"pre-added","who":["user:charlesklee"],"prob":1}}},"entities":[{"classId":"e_4","part":"s1v1","offsets":[{"start":197,"text":"Keble Valley"}],"coordinates":[],"confidence":{"state":"pre-added","who":["ml:dpeker"],"prob":0.9416},"fields":{},"normalizations":{"n_34":{"source":{"name":"GeoNamesSCAR","id":"134157","url":null},"recName":"Keble Valley","confidence":{"state":"pre-added","who":["ml:dpeker"],"prob":0.9416}}}},{"classId":"e_4","part":"s1v1","offsets":[{"start":211,"text":"Ross Island"}],"coordinates":[],"confidence":{"state":"pre-added","who":["ml:dpeker"],"prob":0.9349},"fields":{},"normalizations":{"n_34":{"source":{"name":"GeoNamesSCAR","id":"130958","url":null},"recName":"Ross Island","confidence":{"state":"pre-added","who":["ml:dpeker"],"prob":0.9349}}}},{"classId":"e_4","part":"s1v1","offsets":[{"start":606,"text":"Keble Valley"}],"coordinates":[],"confidence":{"state":"pre-added","who":["ml:dpeker"],"prob":0.9416},"fields":{},"normalizations":{"n_34":{"source":{"name":"GeoNamesSCAR","id":"134157","url":null},"recName":"Keble Valley","confidence":{"state":"pre-added","who":["ml:dpeker"],"prob":0.9416}}}},{"classId":"e_4","part":"s1v1","offsets":[{"start":620,"text":"Cape Bird"}],"coordinates":[],"confidence":{"state":"pre-added","who":["ml:dpeker"],"prob":0.9163},"fields":{},"normalizations":{"n_34":{"source":{"name":"GeoNamesSCAR","id":"122545","url":null},"recName":"Bird, Cape","confidence":{"state":"pre-added","who":["ml:dpeker"],"prob":0.9163}}}},{"classId":"e_4","part":"s1v1","offsets":[{"start":631,"text":"Ross Island"}],"coordinates":[],"confidence":{"state":"pre-added","who":["ml:dpeker"],"prob":0.9349},"fields":{},"normalizations":{"n_34":{"source":{"name":"GeoNamesSCAR","id":"130958","url":null},"recName":"Ross Island","confidence":{"state":"pre-added","who":["ml:dpeker"],"prob":0.9349}}}},{"classId":"e_38","part":"s1v1","offsets":[{"start":967,"text":"Stereotydeus mollis"}],"coordinates":[],"confidence":{"state":"pre-added","who":["ml:dpeker"],"prob":0.9671},"fields":{},"normalizations":{"n_43":{"source":{"name":"MiteNames","id":"Stmoll","url":null},"recName":"Stereotydeus mollis","confidence":{"state":"pre-added","who":["ml:dpeker"],"prob":0.9671}}}},{"classId":"e_47","part":"s1v1","offsets":[{"start":1211,"text":"Nematode (Panagrolaimus davidi), soil rotifer and soil protozoan abundance was significantly associated with this area of high productivity, and the cryptostigmatid mites S. mollis and Nanorchestes antarcticus were found near the stream centres. By contrast, the collembolan Gomphiocephalus hodgsoni was found at riparian margins, and it is hypothesised that this could be due to habitat and food preferences."}],"coordinates":[{"x":"159.60","y":"442.00"},{"x":"128.54","y":"505.36"}],"confidence":{"state":"pre-added","who":["user:ICTAR"],"prob":1},"fields":{},"normalizations":{}},{"classId":"e_2","part":"s1v1","offsets":[{"start":1221,"text":"Panagrolaimus davidi"}],"coordinates":[],"confidence":{"state":"pre-added","who":["ml:dpeker"],"prob":0.9692},"fields":{},"normalizations":{"n_33":{"source":{"name":"NematodeNames","id":"Padavi","url":null},"recName":"Panagrolaimus davidi","confidence":{"state":"pre-added","who":["ml:dpeker"],"prob":0.9692}}}},{"classId":"e_38","part":"s1v1","offsets":[{"start":1382,"text":"S. mollis"}],"coordinates":[],"confidence":{"state":"pre-added","who":["ml:dpeker"],"prob":0.9163},"fields":{},"normalizations":{"n_43":{"source":{"name":"MiteNames","id":"Stmoll","url":null},"recName":"Stereotydeus mollis","confidence":{"state":"pre-added","who":["ml:dpeker"],"prob":0.9163}}}},{"classId":"e_38","part":"s1v1","offsets":[{"start":1396,"text":"Nanorchestes antarcticus"}],"coordinates":[{"x":"235.09","y":"465.09"},{"x":"342.75","y":"470.87"}],"confidence":{"state":"pre-added","who":["user:ICTAR"],"prob":1},"fields":{},"normalizations":{"n_43":{"source":{"name":"MiteNames","id":"naanta","url":null},"recName":"","confidence":{"state":"pre-added","who":["user:charlesklee"],"prob":1}}}},{"classId":"e_39","part":"s1v1","offsets":[{"start":1486,"text":"Gomphiocephalus hodgsoni"}],"coordinates":[],"confidence":{"state":"pre-added","who":["ml:dpeker"],"prob":0.9754},"fields":{},"normalizations":{"n_44":{"source":{"name":"SpringtailNames","id":"Gohodg","url":null},"recName":"Gomphiocephalus hodgsoni","confidence":{"state":"pre-added","who":["ml:dpeker"],"prob":0.9754}}}},{"classId":"e_4","part":"s2v1","offsets":[{"start":250,"text":"McMurdo Sound"}],"coordinates":[],"confidence":{"state":"pre-added","who":["ml:dpeker"],"prob":0.9472},"fields":{},"normalizations":{"n_34":{"source":{"name":"GeoNamesSCAR","id":"128724","url":null},"recName":"McMurdo Sound","confidence":{"state":"pre-added","who":["ml:dpeker"],"prob":0.9472}}}},{"classId":"e_4","part":"s2v1","offsets":[{"start":802,"text":"McMurdo Sound"}],"coordinates":[],"confidence":{"state":"pre-added","who":["ml:dpeker"],"prob":0.9472},"fields":{},"normalizations":{"n_34":{"source":{"name":"GeoNamesSCAR","id":"128724","url":null},"recName":"McMurdo Sound","confidence":{"state":"pre-added","who":["ml:dpeker"],"prob":0.9472}}}},{"classId":"e_4","part":"s2v1","offsets":[{"start":1045,"text":"Ross Island"}],"coordinates":[],"confidence":{"state":"pre-added","who":["ml:dpeker"],"prob":0.9349},"fields":{},"normalizations":{"n_34":{"source":{"name":"GeoNamesSCAR","id":"130958","url":null},"recName":"Ross Island","confidence":{"state":"pre-added","who":["ml:dpeker"],"prob":0.9349}}}},{"classId":"e_4","part":"s2v1","offsets":[{"start":1311,"text":"Ross Island"}],"coordinates":[],"confidence":{"state":"pre-added","who":["ml:dpeker"],"prob":0.9349},"fields":{},"normalizations":{"n_34":{"source":{"name":"GeoNamesSCAR","id":"130958","url":null},"recName":"Ross Island","confidence":{"state":"pre-added","who":["ml:dpeker"],"prob":0.9349}}}},{"classId":"e_4","part":"s2v1","offsets":[{"start":1340,"text":"Cape Bird"}],"coordinates":[],"confidence":{"state":"pre-added","who":["ml:dpeker"],"prob":0.9163},"fields":{},"normalizations":{"n_34":{"source":{"name":"GeoNamesSCAR","id":"122545","url":null},"recName":"Bird, Cape","confidence":{"state":"pre-added","who":["ml:dpeker"],"prob":0.9163}}}},{"classId":"e_39","part":"s2v1","offsets":[{"start":1420,"text":"Gomphiocephalus hodgsoni"}],"coordinates":[],"confidence":{"state":"pre-added","who":["ml:dpeker"],"prob":0.9754},"fields":{},"normalizations":{"n_44":{"source":{"name":"SpringtailNames","id":"Gohodg","url":null},"recName":"Gomphiocephalus hodgsoni","confidence":{"state":"pre-added","who":["ml:dpeker"],"prob":0.9754}}}},{"classId":"e_4","part":"s2v1","offsets":[{"start":1527,"text":"Keble Valley"}],"coordinates":[],"confidence":{"state":"pre-added","who":["ml:dpeker"],"prob":0.9416},"fields":{},"normalizations":{"n_34":{"source":{"name":"GeoNamesSCAR","id":"134157","url":null},"recName":"Keble Valley","confidence":{"state":"pre-added","who":["ml:dpeker"],"prob":0.9416}}}},{"classId":"e_4","part":"s2v1","offsets":[{"start":1541,"text":"Cape Bird"}],"coordinates":[],"confidence":{"state":"pre-added","who":["ml:dpeker"],"prob":0.9163},"fields":{},"normalizations":{"n_34":{"source":{"name":"GeoNamesSCAR","id":"122545","url":null},"recName":"Bird, Cape","confidence":{"state":"pre-added","who":["ml:dpeker"],"prob":0.9163}}}},{"classId":"e_39","part":"s2v1","offsets":[{"start":1681,"text":"G. hodgsoni"}],"coordinates":[],"confidence":{"state":"pre-added","who":["ml:dpeker"],"prob":0.9349},"fields":{},"normalizations":{"n_44":{"source":{"name":"SpringtailNames","id":"Gohodg","url":null},"recName":"Gomphiocephalus hodgsoni","confidence":{"state":"pre-added","who":["ml:dpeker"],"prob":0.9349}}}},{"classId":"e_38","part":"s2v1","offsets":[{"start":1717,"text":"Nanorchestes antarcticus"}],"coordinates":[{"x":"299.11","y":"323.84"},{"x":"406.24","y":"329.62"}],"confidence":{"state":"pre-added","who":["user:ICTAR"],"prob":1},"fields":{},"normalizations":{"n_43":{"source":{"name":"MiteNames","id":"naanta","url":null},"recName":"","confidence":{"state":"pre-added","who":["user:charlesklee"],"prob":1}}}},{"classId":"e_38","part":"s2v1","offsets":[{"start":1746,"text":"Stereotydeus mollis"}],"coordinates":[],"confidence":{"state":"pre-added","who":["ml:dpeker"],"prob":0.9671},"fields":{},"normalizations":{"n_43":{"source":{"name":"MiteNames","id":"Stmoll","url":null},"recName":"Stereotydeus mollis","confidence":{"state":"pre-added","who":["ml:dpeker"],"prob":0.9671}}}},{"classId":"e_2","part":"s2v1","offsets":[{"start":1861,"text":"Panagrolaimus davidi"}],"coordinates":[],"confidence":{"state":"pre-added","who":["ml:dpeker"],"prob":0.9692},"fields":{},"normalizations":{"n_33":{"source":{"name":"NematodeNames","id":"Padavi","url":null},"recName":"Panagrolaimus davidi","confidence":{"state":"pre-added","who":["ml:dpeker"],"prob":0.9692}}}},{"classId":"e_2","part":"s2v1","offsets":[{"start":1886,"text":"Plectus sp"}],"coordinates":[],"confidence":{"state":"pre-added","who":["ml:dpeker"],"prob":0.8719},"fields":{},"normalizations":{"n_33":{"source":{"name":"NematodeNames","id":"Plecsp","url":null},"recName":"Plectus spp.","confidence":{"state":"pre-added","who":["ml:dpeker"],"prob":0.8719}}}},{"classId":"e_39","part":"s2v1","offsets":[{"start":2003,"text":"Gomphiocephalus hodgsoni"}],"coordinates":[],"confidence":{"state":"pre-added","who":["ml:dpeker"],"prob":0.9754},"fields":{},"normalizations":{"n_44":{"source":{"name":"SpringtailNames","id":"Gohodg","url":null},"recName":"Gomphiocephalus hodgsoni","confidence":{"state":"pre-added","who":["ml:dpeker"],"prob":0.9754}}}},{"classId":"e_38","part":"s2v1","offsets":[{"start":2032,"text":"S. mollis"}],"coordinates":[],"confidence":{"state":"pre-added","who":["ml:dpeker"],"prob":0.9163},"fields":{},"normalizations":{"n_43":{"source":{"name":"MiteNames","id":"Stmoll","url":null},"recName":"Stereotydeus mollis","confidence":{"state":"pre-added","who":["ml:dpeker"],"prob":0.9163}}}},{"classId":"e_4","part":"s2v1","offsets":[{"start":2221,"text":"Cape Bird"}],"coordinates":[],"confidence":{"state":"pre-added","who":["ml:dpeker"],"prob":0.9163},"fields":{},"normalizations":{"n_34":{"source":{"name":"GeoNamesSCAR","id":"122545","url":null},"recName":"Bird, Cape","confidence":{"state":"pre-added","who":["ml:dpeker"],"prob":0.9163}}}},{"classId":"e_4","part":"s2v1","offsets":[{"start":2567,"text":"Ross Island"}],"coordinates":[],"confidence":{"state":"pre-added","who":["ml:dpeker"],"prob":0.9349},"fields":{},"normalizations":{"n_34":{"source":{"name":"GeoNamesSCAR","id":"130958","url":null},"recName":"Ross Island","confidence":{"state":"pre-added","who":["ml:dpeker"],"prob":0.9349}}}},{"classId":"e_4","part":"s2v1","offsets":[{"start":3132,"text":"Cape Bird"}],"coordinates":[],"confidence":{"state":"pre-added","who":["ml:dpeker"],"prob":0.9163},"fields":{},"normalizations":{"n_34":{"source":{"name":"GeoNamesSCAR","id":"122545","url":null},"recName":"Bird, Cape","confidence":{"state":"pre-added","who":["ml:dpeker"],"prob":0.9163}}}},{"classId":"e_4","part":"s2v1","offsets":[{"start":3182,"text":"Ross Island"}],"coordinates":[],"confidence":{"state":"pre-added","who":["ml:dpeker"],"prob":0.9349},"fields":{},"normalizations":{"n_34":{"source":{"name":"GeoNamesSCAR","id":"130958","url":null},"recName":"Ross Island","confidence":{"state":"pre-added","who":["ml:dpeker"],"prob":0.9349}}}},{"classId":"e_4","part":"s2v1","offsets":[{"start":3228,"text":"Keble Valley"}],"coordinates":[],"confidence":{"state":"pre-added","who":["ml:dpeker"],"prob":0.9416},"fields":{},"normalizations":{"n_34":{"source":{"name":"GeoNamesSCAR","id":"134157","url":null},"recName":"Keble Valley","confidence":{"state":"pre-added","who":["ml:dpeker"],"prob":0.9416}}}},{"classId":"e_4","part":"s3v1","offsets":[{"start":72,"text":"Caughley Beach"}],"coordinates":[],"confidence":{"state":"pre-added","who":["ml:dpeker"],"prob":0.9518},"fields":{},"normalizations":{"n_34":{"source":{"name":"GeoNamesSCAR","id":"123382","url":null},"recName":"Caughley Beach","confidence":{"state":"pre-added","who":["ml:dpeker"],"prob":0.9518}}}},{"classId":"e_4","part":"s3v1","offsets":[{"start":156,"text":"Cape Bird"}],"coordinates":[],"confidence":{"state":"pre-added","who":["ml:dpeker"],"prob":0.9163},"fields":{},"normalizations":{"n_34":{"source":{"name":"GeoNamesSCAR","id":"122545","url":null},"recName":"Bird, Cape","confidence":{"state":"pre-added","who":["ml:dpeker"],"prob":0.9163}}}},{"classId":"e_4","part":"s3v1","offsets":[{"start":194,"text":"Keble Valley"}],"coordinates":[],"confidence":{"state":"pre-added","who":["ml:dpeker"],"prob":0.9416},"fields":{},"normalizations":{"n_34":{"source":{"name":"GeoNamesSCAR","id":"134157","url":null},"recName":"Keble Valley","confidence":{"state":"pre-added","who":["ml:dpeker"],"prob":0.9416}}}},{"classId":"e_4","part":"s3v1","offsets":[{"start":2095,"text":"Keble Valley"}],"coordinates":[],"confidence":{"state":"pre-added","who":["ml:dpeker"],"prob":0.9416},"fields":{},"normalizations":{"n_34":{"source":{"name":"GeoNamesSCAR","id":"134157","url":null},"recName":"Keble Valley","confidence":{"state":"pre-added","who":["ml:dpeker"],"prob":0.9416}}}},{"classId":"e_38","part":"s3v1","offsets":[{"start":2439,"text":"S. mol- lis"}],"coordinates":[],"confidence":{"state":"pre-added","who":["ml:dpeker"],"prob":0.6956},"fields":{},"normalizations":{"n_43":{"source":{"name":"MiteNames","id":"Stmoll","url":null},"recName":"Stereotydeus mollis","confidence":{"state":"pre-added","who":["ml:dpeker"],"prob":0.6956}}}},{"classId":"e_4","part":"s3v1","offsets":[{"start":3020,"text":"Cape Bird"}],"coordinates":[],"confidence":{"state":"pre-added","who":["ml:dpeker"],"prob":0.9163},"fields":{},"normalizations":{"n_34":{"source":{"name":"GeoNamesSCAR","id":"122545","url":null},"recName":"Bird, Cape","confidence":{"state":"pre-added","who":["ml:dpeker"],"prob":0.9163}}}},{"classId":"e_2","part":"s3v1","offsets":[{"start":3821,"text":"Panagrolaimus davidi"}],"coordinates":[],"confidence":{"state":"pre-added","who":["ml:dpeker"],"prob":0.9692},"fields":{},"normalizations":{"n_33":{"source":{"name":"NematodeNames","id":"Padavi","url":null},"recName":"Panagrolaimus davidi","confidence":{"state":"pre-added","who":["ml:dpeker"],"prob":0.9692}}}},{"classId":"e_4","part":"s4v1","offsets":[{"start":75,"text":"Cape Bird"}],"coordinates":[],"confidence":{"state":"pre-added","who":["ml:dpeker"],"prob":0.9163},"fields":{},"normalizations":{"n_34":{"source":{"name":"GeoNamesSCAR","id":"122545","url":null},"recName":"Bird, Cape","confidence":{"state":"pre-added","who":["ml:dpeker"],"prob":0.9163}}}},{"classId":"e_39","part":"s4v1","offsets":[{"start":1422,"text":"G. hodgsoni"}],"coordinates":[],"confidence":{"state":"pre-added","who":["ml:dpeker"],"prob":0.9349},"fields":{},"normalizations":{"n_44":{"source":{"name":"SpringtailNames","id":"Gohodg","url":null},"recName":"Gomphiocephalus hodgsoni","confidence":{"state":"pre-added","who":["ml:dpeker"],"prob":0.9349}}}},{"classId":"e_38","part":"s4v1","offsets":[{"start":1441,"text":"S. mollis"}],"coordinates":[],"confidence":{"state":"pre-added","who":["ml:dpeker"],"prob":0.9163},"fields":{},"normalizations":{"n_43":{"source":{"name":"MiteNames","id":"Stmoll","url":null},"recName":"Stereotydeus mollis","confidence":{"state":"pre-added","who":["ml:dpeker"],"prob":0.9163}}}},{"classId":"e_4","part":"s5v1","offsets":[{"start":93,"text":"Keble Valley"}],"coordinates":[],"confidence":{"state":"pre-added","who":["ml:dpeker"],"prob":0.9416},"fields":{},"normalizations":{"n_34":{"source":{"name":"GeoNamesSCAR","id":"134157","url":null},"recName":"Keble Valley","confidence":{"state":"pre-added","who":["ml:dpeker"],"prob":0.9416}}}},{"classId":"e_4","part":"s5v1","offsets":[{"start":107,"text":"Ross Island"}],"coordinates":[],"confidence":{"state":"pre-added","who":["ml:dpeker"],"prob":0.9349},"fields":{},"normalizations":{"n_34":{"source":{"name":"GeoNamesSCAR","id":"130958","url":null},"recName":"Ross Island","confidence":{"state":"pre-added","who":["ml:dpeker"],"prob":0.9349}}}},{"classId":"e_4","part":"s5v1","offsets":[{"start":428,"text":"Keble Valley"}],"coordinates":[],"confidence":{"state":"pre-added","who":["ml:dpeker"],"prob":0.9416},"fields":{},"normalizations":{"n_34":{"source":{"name":"GeoNamesSCAR","id":"134157","url":null},"recName":"Keble Valley","confidence":{"state":"pre-added","who":["ml:dpeker"],"prob":0.9416}}}},{"classId":"e_4","part":"s5v1","offsets":[{"start":442,"text":"Ross Island"}],"coordinates":[],"confidence":{"state":"pre-added","who":["ml:dpeker"],"prob":0.9349},"fields":{},"normalizations":{"n_34":{"source":{"name":"GeoNamesSCAR","id":"130958","url":null},"recName":"Ross Island","confidence":{"state":"pre-added","who":["ml:dpeker"],"prob":0.9349}}}},{"classId":"e_4","part":"s6v1","offsets":[{"start":1656,"text":"Keble Valley"}],"coordinates":[],"confidence":{"state":"pre-added","who":["ml:dpeker"],"prob":0.9416},"fields":{},"normalizations":{"n_34":{"source":{"name":"GeoNamesSCAR","id":"134157","url":null},"recName":"Keble Valley","confidence":{"state":"pre-added","who":["ml:dpeker"],"prob":0.9416}}}},{"classId":"e_4","part":"s6v1","offsets":[{"start":1670,"text":"Ross Island"}],"coordinates":[],"confidence":{"state":"pre-added","who":["ml:dpeker"],"prob":0.9349},"fields":{},"normalizations":{"n_34":{"source":{"name":"GeoNamesSCAR","id":"130958","url":null},"recName":"Ross Island","confidence":{"state":"pre-added","who":["ml:dpeker"],"prob":0.9349}}}},{"classId":"e_39","part":"s7v1","offsets":[{"start":81,"text":"Gomphiocephalus hodgsoni"}],"coordinates":[],"confidence":{"state":"pre-added","who":["ml:dpeker"],"prob":0.9754},"fields":{},"normalizations":{"n_44":{"source":{"name":"SpringtailNames","id":"Gohodg","url":null},"recName":"Gomphiocephalus hodgsoni","confidence":{"state":"pre-added","who":["ml:dpeker"],"prob":0.9754}}}},{"classId":"e_4","part":"s7v1","offsets":[{"start":127,"text":"Keble Valley"}],"coordinates":[],"confidence":{"state":"pre-added","who":["ml:dpeker"],"prob":0.9416},"fields":{},"normalizations":{"n_34":{"source":{"name":"GeoNamesSCAR","id":"134157","url":null},"recName":"Keble Valley","confidence":{"state":"pre-added","who":["ml:dpeker"],"prob":0.9416}}}},{"classId":"e_4","part":"s7v1","offsets":[{"start":141,"text":"Cape Bird"}],"coordinates":[],"confidence":{"state":"pre-added","who":["ml:dpeker"],"prob":0.9163},"fields":{},"normalizations":{"n_34":{"source":{"name":"GeoNamesSCAR","id":"122545","url":null},"recName":"Bird, Cape","confidence":{"state":"pre-added","who":["ml:dpeker"],"prob":0.9163}}}},{"classId":"e_4","part":"s7v1","offsets":[{"start":152,"text":"Ross Island"}],"coordinates":[],"confidence":{"state":"pre-added","who":["ml:dpeker"],"prob":0.9349},"fields":{},"normalizations":{"n_34":{"source":{"name":"GeoNamesSCAR","id":"130958","url":null},"recName":"Ross Island","confidence":{"state":"pre-added","who":["ml:dpeker"],"prob":0.9349}}}},{"classId":"e_38","part":"s7v1","offsets":[{"start":358,"text":"Stereotydeus mollis"}],"coordinates":[],"confidence":{"state":"pre-added","who":["ml:dpeker"],"prob":0.9671},"fields":{},"normalizations":{"n_43":{"source":{"name":"MiteNames","id":"Stmoll","url":null},"recName":"Stereotydeus mollis","confidence":{"state":"pre-added","who":["ml:dpeker"],"prob":0.9671}}}},{"classId":"e_4","part":"s7v1","offsets":[{"start":399,"text":"Keble Valley"}],"coordinates":[],"confidence":{"state":"pre-added","who":["ml:dpeker"],"prob":0.9416},"fields":{},"normalizations":{"n_34":{"source":{"name":"GeoNamesSCAR","id":"134157","url":null},"recName":"Keble Valley","confidence":{"state":"pre-added","who":["ml:dpeker"],"prob":0.9416}}}},{"classId":"e_4","part":"s7v1","offsets":[{"start":413,"text":"Cape Bird"}],"coordinates":[],"confidence":{"state":"pre-added","who":["ml:dpeker"],"prob":0.9163},"fields":{},"normalizations":{"n_34":{"source":{"name":"GeoNamesSCAR","id":"122545","url":null},"recName":"Bird, Cape","confidence":{"state":"pre-added","who":["ml:dpeker"],"prob":0.9163}}}},{"classId":"e_4","part":"s7v1","offsets":[{"start":424,"text":"Ross Island"}],"coordinates":[],"confidence":{"state":"pre-added","who":["ml:dpeker"],"prob":0.9349},"fields":{},"normalizations":{"n_34":{"source":{"name":"GeoNamesSCAR","id":"130958","url":null},"recName":"Ross Island","confidence":{"state":"pre-added","who":["ml:dpeker"],"prob":0.9349}}}},{"classId":"e_2","part":"s8v1","offsets":[{"start":83,"text":"Panagrolaimus davidi"}],"coordinates":[],"confidence":{"state":"pre-added","who":["ml:dpeker"],"prob":0.9692},"fields":{},"normalizations":{"n_33":{"source":{"name":"NematodeNames","id":"Padavi","url":null},"recName":"Panagrolaimus davidi","confidence":{"state":"pre-added","who":["ml:dpeker"],"prob":0.9692}}}},{"classId":"e_2","part":"s8v1","offsets":[{"start":677,"text":"P. davidi"}],"coordinates":[],"confidence":{"state":"pre-added","who":["ml:dpeker"],"prob":0.9163},"fields":{},"normalizations":{"n_33":{"source":{"name":"NematodeNames","id":"Padavi","url":null},"recName":"Panagrolaimus davidi","confidence":{"state":"pre-added","who":["ml:dpeker"],"prob":0.9163}}}},{"classId":"e_38","part":"s8v1","offsets":[{"start":1918,"text":"S. mollis"}],"coordinates":[],"confidence":{"state":"pre-added","who":["ml:dpeker"],"prob":0.9163},"fields":{},"normalizations":{"n_43":{"source":{"name":"MiteNames","id":"Stmoll","url":null},"recName":"Stereotydeus mollis","confidence":{"state":"pre-added","who":["ml:dpeker"],"prob":0.9163}}}},{"classId":"e_39","part":"s8v1","offsets":[{"start":1937,"text":"G. hodgsoni"}],"coordinates":[],"confidence":{"state":"pre-added","who":["ml:dpeker"],"prob":0.9349},"fields":{},"normalizations":{"n_44":{"source":{"name":"SpringtailNames","id":"Gohodg","url":null},"recName":"Gomphiocephalus hodgsoni","confidence":{"state":"pre-added","who":["ml:dpeker"],"prob":0.9349}}}},{"classId":"e_39","part":"s8v1","offsets":[{"start":2010,"text":"G. hodgsoni"}],"coordinates":[],"confidence":{"state":"pre-added","who":["ml:dpeker"],"prob":0.9349},"fields":{},"normalizations":{"n_44":{"source":{"name":"SpringtailNames","id":"Gohodg","url":null},"recName":"Gomphiocephalus hodgsoni","confidence":{"state":"pre-added","who":["ml:dpeker"],"prob":0.9349}}}},{"classId":"e_38","part":"s8v1","offsets":[{"start":2026,"text":"S. mollis"}],"coordinates":[],"confidence":{"state":"pre-added","who":["ml:dpeker"],"prob":0.9163},"fields":{},"normalizations":{"n_43":{"source":{"name":"MiteNames","id":"Stmoll","url":null},"recName":"Stereotydeus mollis","confidence":{"state":"pre-added","who":["ml:dpeker"],"prob":0.9163}}}},{"classId":"e_4","part":"s8v1","offsets":[{"start":2157,"text":"Keble Valley"}],"coordinates":[],"confidence":{"state":"pre-added","who":["ml:dpeker"],"prob":0.9416},"fields":{},"normalizations":{"n_34":{"source":{"name":"GeoNamesSCAR","id":"134157","url":null},"recName":"Keble Valley","confidence":{"state":"pre-added","who":["ml:dpeker"],"prob":0.9416}}}},{"classId":"e_4","part":"s8v1","offsets":[{"start":2171,"text":"Cape Bird"}],"coordinates":[],"confidence":{"state":"pre-added","who":["ml:dpeker"],"prob":0.9163},"fields":{},"normalizations":{"n_34":{"source":{"name":"GeoNamesSCAR","id":"122545","url":null},"recName":"Bird, Cape","confidence":{"state":"pre-added","who":["ml:dpeker"],"prob":0.9163}}}},{"classId":"e_4","part":"s8v1","offsets":[{"start":2182,"text":"Ross Island"}],"coordinates":[],"confidence":{"state":"pre-added","who":["ml:dpeker"],"prob":0.9349},"fields":{},"normalizations":{"n_34":{"source":{"name":"GeoNamesSCAR","id":"130958","url":null},"recName":"Ross Island","confidence":{"state":"pre-added","who":["ml:dpeker"],"prob":0.9349}}}},{"classId":"e_39","part":"s8v1","offsets":[{"start":2510,"text":"G. hodgsoni"}],"coordinates":[],"confidence":{"state":"pre-added","who":["ml:dpeker"],"prob":0.9349},"fields":{},"normalizations":{"n_44":{"source":{"name":"SpringtailNames","id":"Gohodg","url":null},"recName":"Gomphiocephalus hodgsoni","confidence":{"state":"pre-added","who":["ml:dpeker"],"prob":0.9349}}}},{"classId":"e_38","part":"s8v1","offsets":[{"start":2542,"text":"S. mollis\n\n+**"}],"coordinates":[],"confidence":{"state":"pre-added","who":["ml:dpeker"],"prob":0.6578},"fields":{},"normalizations":{"n_43":{"source":{"name":"MiteNames","id":"Stmoll","url":null},"recName":"Stereotydeus mollis","confidence":{"state":"pre-added","who":["ml:dpeker"],"prob":0.6578}}}},{"classId":"e_38","part":"s8v1","offsets":[{"start":2574,"text":"N. antarcticus"}],"coordinates":[{"x":"68.62","y":"199.85"},{"x":"126.92","y":"205.71"}],"confidence":{"state":"pre-added","who":["user:ICTAR"],"prob":1},"fields":{},"normalizations":{"n_43":{"source":{"name":"MiteNames","id":"naanta","url":null},"recName":"","confidence":{"state":"pre-added","who":["user:charlesklee"],"prob":1}}}},{"classId":"e_4","part":"s9v1","offsets":[{"start":234,"text":"Keble Valley"}],"coordinates":[],"confidence":{"state":"pre-added","who":["ml:dpeker"],"prob":0.9416},"fields":{},"normalizations":{"n_34":{"source":{"name":"GeoNamesSCAR","id":"134157","url":null},"recName":"Keble Valley","confidence":{"state":"pre-added","who":["ml:dpeker"],"prob":0.9416}}}},{"classId":"e_4","part":"s9v1","offsets":[{"start":248,"text":"Ross Island"}],"coordinates":[],"confidence":{"state":"pre-added","who":["ml:dpeker"],"prob":0.9349},"fields":{},"normalizations":{"n_34":{"source":{"name":"GeoNamesSCAR","id":"130958","url":null},"recName":"Ross Island","confidence":{"state":"pre-added","who":["ml:dpeker"],"prob":0.9349}}}},{"classId":"e_47","part":"s9v1","offsets":[{"start":1714,"text":"while the mites were present in some of the"}],"coordinates":[{"x":"245.41","y":"609.81"},{"x":"434.87","y":"615.67"}],"confidence":{"state":"pre-added","who":["user:ICTAR"],"prob":1},"fields":{},"normalizations":{}},{"classId":"e_47","part":"s10v1","offsets":[{"start":39,"text":"wettest areas, where primary productivity was highest, collembolan abundance was highest at the riparian margins"}],"coordinates":[{"x":"49.08","y":"69.35"},{"x":"176.65","y":"86.71"}],"confidence":{"state":"pre-added","who":["user:ICTAR"],"prob":1},"fields":{},"normalizations":{}},{"classId":"e_39","part":"s10v1","offsets":[{"start":178,"text":"G. hodgsoni"}],"coordinates":[],"confidence":{"state":"pre-added","who":["ml:dpeker"],"prob":0.9349},"fields":{},"normalizations":{"n_44":{"source":{"name":"SpringtailNames","id":"Gohodg","url":null},"recName":"Gomphiocephalus hodgsoni","confidence":{"state":"pre-added","who":["ml:dpeker"],"prob":0.9349}}}},{"classId":"e_39","part":"s10v1","offsets":[{"start":329,"text":"G. hodgsoni"}],"coordinates":[],"confidence":{"state":"pre-added","who":["ml:dpeker"],"prob":0.9349},"fields":{},"normalizations":{"n_44":{"source":{"name":"SpringtailNames","id":"Gohodg","url":null},"recName":"Gomphiocephalus hodgsoni","confidence":{"state":"pre-added","who":["ml:dpeker"],"prob":0.9349}}}},{"classId":"e_4","part":"s10v1","offsets":[{"start":344,"text":"Cape Bird"}],"coordinates":[],"confidence":{"state":"pre-added","who":["ml:dpeker"],"prob":0.9163},"fields":{},"normalizations":{"n_34":{"source":{"name":"GeoNamesSCAR","id":"122545","url":null},"recName":"Bird, Cape","confidence":{"state":"pre-added","who":["ml:dpeker"],"prob":0.9163}}}},{"classId":"e_39","part":"s10v1","offsets":[{"start":383,"text":"G. hodgsoni"}],"coordinates":[],"confidence":{"state":"pre-added","who":["ml:dpeker"],"prob":0.9349},"fields":{},"normalizations":{"n_44":{"source":{"name":"SpringtailNames","id":"Gohodg","url":null},"recName":"Gomphiocephalus hodgsoni","confidence":{"state":"pre-added","who":["ml:dpeker"],"prob":0.9349}}}},{"classId":"e_39","part":"s10v1","offsets":[{"start":704,"text":"G. hodgsoni"}],"coordinates":[],"confidence":{"state":"pre-added","who":["ml:dpeker"],"prob":0.9349},"fields":{},"normalizations":{"n_44":{"source":{"name":"SpringtailNames","id":"Gohodg","url":null},"recName":"Gomphiocephalus hodgsoni","confidence":{"state":"pre-added","who":["ml:dpeker"],"prob":0.9349}}}},{"classId":"e_39","part":"s10v1","offsets":[{"start":756,"text":"G. hodgsoni"}],"coordinates":[],"confidence":{"state":"pre-added","who":["ml:dpeker"],"prob":0.9349},"fields":{},"normalizations":{"n_44":{"source":{"name":"SpringtailNames","id":"Gohodg","url":null},"recName":"Gomphiocephalus hodgsoni","confidence":{"state":"pre-added","who":["ml:dpeker"],"prob":0.9349}}}},{"classId":"e_4","part":"s10v1","offsets":[{"start":778,"text":"Cape Geo- logy"}],"coordinates":[],"confidence":{"state":"pre-added","who":["ml:dpeker"],"prob":0.7634},"fields":{},"normalizations":{"n_34":{"source":{"name":"GeoNamesSCAR","id":"125618","url":null},"recName":"Geology, Cape","confidence":{"state":"pre-added","who":["ml:dpeker"],"prob":0.7634}}}},{"classId":"e_39","part":"s10v1","offsets":[{"start":1002,"text":"G. hodgsoni"}],"coordinates":[],"confidence":{"state":"pre-added","who":["ml:dpeker"],"prob":0.9349},"fields":{},"normalizations":{"n_44":{"source":{"name":"SpringtailNames","id":"Gohodg","url":null},"recName":"Gomphiocephalus hodgsoni","confidence":{"state":"pre-added","who":["ml:dpeker"],"prob":0.9349}}}},{"classId":"e_39","part":"s10v1","offsets":[{"start":1318,"text":"G. hodgsoni"}],"coordinates":[],"confidence":{"state":"pre-added","who":["ml:dpeker"],"prob":0.9349},"fields":{},"normalizations":{"n_44":{"source":{"name":"SpringtailNames","id":"Gohodg","url":null},"recName":"Gomphiocephalus hodgsoni","confidence":{"state":"pre-added","who":["ml:dpeker"],"prob":0.9349}}}},{"classId":"e_38","part":"s10v1","offsets":[{"start":1331,"text":"S. mollis"}],"coordinates":[],"confidence":{"state":"pre-added","who":["ml:dpeker"],"prob":0.9163},"fields":{},"normalizations":{"n_43":{"source":{"name":"MiteNames","id":"Stmoll","url":null},"recName":"Stereotydeus mollis","confidence":{"state":"pre-added","who":["ml:dpeker"],"prob":0.9163}}}},{"classId":"e_38","part":"s10v1","offsets":[{"start":1445,"text":"S. mollis"}],"coordinates":[],"confidence":{"state":"pre-added","who":["ml:dpeker"],"prob":0.9163},"fields":{},"normalizations":{"n_43":{"source":{"name":"MiteNames","id":"Stmoll","url":null},"recName":"Stereotydeus mollis","confidence":{"state":"pre-added","who":["ml:dpeker"],"prob":0.9163}}}},{"classId":"e_39","part":"s10v1","offsets":[{"start":1515,"text":"G. hodgsoni"}],"coordinates":[],"confidence":{"state":"pre-added","who":["ml:dpeker"],"prob":0.9349},"fields":{},"normalizations":{"n_44":{"source":{"name":"SpringtailNames","id":"Gohodg","url":null},"recName":"Gomphiocephalus hodgsoni","confidence":{"state":"pre-added","who":["ml:dpeker"],"prob":0.9349}}}},{"classId":"e_47","part":"s10v1","offsets":[{"start":2504,"text":"Tardigrades appear negatively correlated to productivity, but the number of tardigrades found was very low, so this may not be truly indicative of their ecology at this site."}],"coordinates":[{"x":"221.53","y":"402.84"},{"x":"245.56","y":"431.70"}],"confidence":{"state":"pre-added","who":["user:ICTAR"],"prob":1},"fields":{},"normalizations":{}},{"classId":"e_4","part":"s10v1","offsets":[{"start":3877,"text":"McMurdo Sound"}],"coordinates":[],"confidence":{"state":"pre-added","who":["ml:dpeker"],"prob":0.9472},"fields":{},"normalizations":{"n_34":{"source":{"name":"GeoNamesSCAR","id":"128724","url":null},"recName":"McMurdo Sound","confidence":{"state":"pre-added","who":["ml:dpeker"],"prob":0.9472}}}},{"classId":"e_39","part":"s11v1","offsets":[{"start":1811,"text":"Gomphiocephalus hodgsoni"}],"coordinates":[],"confidence":{"state":"pre-added","who":["ml:dpeker"],"prob":0.9754},"fields":{},"normalizations":{"n_44":{"source":{"name":"SpringtailNames","id":"Gohodg","url":null},"recName":"Gomphiocephalus hodgsoni","confidence":{"state":"pre-added","who":["ml:dpeker"],"prob":0.9754}}}},{"classId":"e_4","part":"s11v1","offsets":[{"start":1879,"text":"Cape Geology"}],"coordinates":[],"confidence":{"state":"pre-added","who":["ml:dpeker"],"prob":0.9416},"fields":{},"normalizations":{"n_34":{"source":{"name":"GeoNamesSCAR","id":"125618","url":null},"recName":"Geology, Cape","confidence":{"state":"pre-added","who":["ml:dpeker"],"prob":0.9416}}}},{"classId":"e_39","part":"s11v1","offsets":[{"start":2020,"text":"Gomphiocephalus hodgsoni"}],"coordinates":[],"confidence":{"state":"pre-added","who":["ml:dpeker"],"prob":0.9754},"fields":{},"normalizations":{"n_44":{"source":{"name":"SpringtailNames","id":"Gohodg","url":null},"recName":"Gomphiocephalus hodgsoni","confidence":{"state":"pre-added","who":["ml:dpeker"],"prob":0.9754}}}},{"classId":"e_4","part":"s11v1","offsets":[{"start":2063,"text":"Cape Bird"}],"coordinates":[],"confidence":{"state":"pre-added","who":["ml:dpeker"],"prob":0.9163},"fields":{},"normalizations":{"n_34":{"source":{"name":"GeoNamesSCAR","id":"122545","url":null},"recName":"Bird, Cape","confidence":{"state":"pre-added","who":["ml:dpeker"],"prob":0.9163}}}},{"classId":"e_39","part":"s11v1","offsets":[{"start":3066,"text":"Gomphiocephalus hodgsoni"}],"coordinates":[],"confidence":{"state":"pre-added","who":["ml:dpeker"],"prob":0.9754},"fields":{},"normalizations":{"n_44":{"source":{"name":"SpringtailNames","id":"Gohodg","url":null},"recName":"Gomphiocephalus hodgsoni","confidence":{"state":"pre-added","who":["ml:dpeker"],"prob":0.9754}}}},{"classId":"e_4","part":"s12v1","offsets":[{"start":274,"text":"Canada Glacier"}],"coordinates":[],"confidence":{"state":"pre-added","who":["ml:dpeker"],"prob":0.9518},"fields":{},"normalizations":{"n_34":{"source":{"name":"GeoNamesSCAR","id":"123257","url":null},"recName":"Canada Glacier","confidence":{"state":"pre-added","who":["ml:dpeker"],"prob":0.9518}}}},{"classId":"e_4","part":"s12v1","offsets":[{"start":459,"text":"Cape Bird"}],"coordinates":[],"confidence":{"state":"pre-added","who":["ml:dpeker"],"prob":0.9163},"fields":{},"normalizations":{"n_34":{"source":{"name":"GeoNamesSCAR","id":"122545","url":null},"recName":"Bird, Cape","confidence":{"state":"pre-added","who":["ml:dpeker"],"prob":0.9163}}}},{"classId":"e_2","part":"s12v1","offsets":[{"start":1508,"text":"Panagrolaimus da- vidi"}],"coordinates":[],"confidence":{"state":"pre-added","who":["ml:dpeker"],"prob":0.8524},"fields":{},"normalizations":{"n_33":{"source":{"name":"NematodeNames","id":"Padavi","url":null},"recName":"Panagrolaimus davidi","confidence":{"state":"pre-added","who":["ml:dpeker"],"prob":0.8524}}}},{"classId":"e_2","part":"s12v1","offsets":[{"start":1700,"text":"Pana- grolaimus davidi"}],"coordinates":[],"confidence":{"state":"pre-added","who":["ml:dpeker"],"prob":0.8524},"fields":{},"normalizations":{"n_33":{"source":{"name":"NematodeNames","id":"Padavi","url":null},"recName":"Panagrolaimus davidi","confidence":{"state":"pre-added","who":["ml:dpeker"],"prob":0.8524}}}},{"classId":"e_4","part":"s12v1","offsets":[{"start":1870,"text":"McMurdo Sound"}],"coordinates":[],"confidence":{"state":"pre-added","who":["ml:dpeker"],"prob":0.9472},"fields":{},"normalizations":{"n_34":{"source":{"name":"GeoNamesSCAR","id":"128724","url":null},"recName":"McMurdo Sound","confidence":{"state":"pre-added","who":["ml:dpeker"],"prob":0.9472}}}}],"relations":[{"classId":"r_22","type":"linked","directed":false,"entities":["s2v1|e_4|1541,1549","s2v1|e_2|1861,1880"],"confidence":{"state":"pre-added","who":["user:ICTAR"],"prob":1}},{"classId":"r_22","type":"linked","directed":false,"entities":["s2v1|e_4|1541,1549","s2v1|e_2|1886,1895"],"confidence":{"state":"pre-added","who":["user:ICTAR"],"prob":1}},{"classId":"r_22","type":"linked","directed":false,"entities":["s2v1|e_2|1861,1880","s2v1|e_4|1527,1538"],"confidence":{"state":"pre-added","who":["user:ICTAR"],"prob":1}},{"classId":"r_22","type":"linked","directed":false,"entities":["s2v1|e_2|1886,1895","s2v1|e_4|1527,1538"],"confidence":{"state":"pre-added","who":["user:ICTAR"],"prob":1}},{"classId":"r_45","type":"linked","directed":false,"entities":["s2v1|e_4|1541,1549","s2v1|e_38|1717,1740"],"confidence":{"state":"pre-added","who":["user:ICTAR"],"prob":1}},{"classId":"r_45","type":"linked","directed":false,"entities":["s2v1|e_4|1541,1549","s2v1|e_38|1746,1764"],"confidence":{"state":"pre-added","who":["user:ICTAR"],"prob":1}},{"classId":"r_45","type":"linked","directed":false,"entities":["s2v1|e_38|1717,1740","s2v1|e_4|1527,1538"],"confidence":{"state":"pre-added","who":["user:ICTAR"],"prob":1}},{"classId":"r_45","type":"linked","directed":false,"entities":["s2v1|e_38|1746,1764","s2v1|e_4|1527,1538"],"confidence":{"state":"pre-added","who":["user:ICTAR"],"prob":1}},{"classId":"r_45","type":"linked","directed":false,"entities":["s7v1|e_38|358,376","s7v1|e_4|399,410"],"confidence":{"state":"pre-added","who":["user:ICTAR"],"prob":1}},{"classId":"r_45","type":"linked","directed":false,"entities":["s7v1|e_38|358,376","s7v1|e_4|413,421"],"confidence":{"state":"pre-added","who":["user:ICTAR"],"prob":1}},{"classId":"r_45","type":"linked","directed":false,"entities":["s7v1|e_38|358,376","s7v1|e_4|424,434"],"confidence":{"state":"pre-added","who":["user:ICTAR"],"prob":1}},{"classId":"r_45","type":"linked","directed":false,"entities":["s8v1|e_38|2542,2555","s8v1|e_4|2157,2168"],"confidence":{"state":"pre-added","who":["user:ICTAR"],"prob":1}},{"classId":"r_45","type":"linked","directed":false,"entities":["s8v1|e_38|2542,2555","s8v1|e_4|2171,2179"],"confidence":{"state":"pre-added","who":["user:ICTAR"],"prob":1}},{"classId":"r_45","type":"linked","directed":false,"entities":["s8v1|e_38|2542,2555","s8v1|e_4|2182,2192"],"confidence":{"state":"pre-added","who":["user:ICTAR"],"prob":1}},{"classId":"r_45","type":"linked","directed":false,"entities":["s8v1|e_38|2574,2587","s8v1|e_4|2157,2168"],"confidence":{"state":"pre-added","who":["user:ICTAR"],"prob":1}},{"classId":"r_45","type":"linked","directed":false,"entities":["s8v1|e_38|2574,2587","s8v1|e_4|2171,2179"],"confidence":{"state":"pre-added","who":["user:ICTAR"],"prob":1}},{"classId":"r_45","type":"linked","directed":false,"entities":["s8v1|e_38|2574,2587","s8v1|e_4|2182,2192"],"confidence":{"state":"pre-added","who":["user:ICTAR"],"prob":1}},{"classId":"r_46","type":"linked","directed":false,"entities":["s2v1|e_4|1311,1321","s2v1|e_39|1420,1443"],"confidence":{"state":"pre-added","who":["user:ICTAR"],"prob":1}},{"classId":"r_46","type":"linked","directed":false,"entities":["s2v1|e_4|1340,1348","s2v1|e_39|1420,1443"],"confidence":{"state":"pre-added","who":["user:ICTAR"],"prob":1}},{"classId":"r_46","type":"linked","directed":false,"entities":["s2v1|e_4|1541,1549","s2v1|e_39|1681,1691"],"confidence":{"state":"pre-added","who":["user:ICTAR"],"prob":1}},{"classId":"r_46","type":"linked","directed":false,"entities":["s2v1|e_39|1681,1691","s2v1|e_4|1527,1538"],"confidence":{"state":"pre-added","who":["user:ICTAR"],"prob":1}},{"classId":"r_46","type":"linked","directed":false,"entities":["s7v1|e_39|81,104","s7v1|e_4|127,138"],"confidence":{"state":"pre-added","who":["user:ICTAR"],"prob":1}},{"classId":"r_46","type":"linked","directed":false,"entities":["s7v1|e_39|81,104","s7v1|e_4|141,149"],"confidence":{"state":"pre-added","who":["user:ICTAR"],"prob":1}},{"classId":"r_46","type":"linked","directed":false,"entities":["s7v1|e_39|81,104","s7v1|e_4|152,162"],"confidence":{"state":"pre-added","who":["user:ICTAR"],"prob":1}},{"classId":"r_46","type":"linked","directed":false,"entities":["s8v1|e_39|2510,2520","s8v1|e_4|2157,2168"],"confidence":{"state":"pre-added","who":["user:ICTAR"],"prob":1}},{"classId":"r_46","type":"linked","directed":false,"entities":["s8v1|e_39|2510,2520","s8v1|e_4|2171,2179"],"confidence":{"state":"pre-added","who":["user:ICTAR"],"prob":1}},{"classId":"r_46","type":"linked","directed":false,"entities":["s8v1|e_39|2510,2520","s8v1|e_4|2182,2192"],"confidence":{"state":"pre-added","who":["user:ICTAR"],"prob":1}},{"classId":"r_46","type":"linked","directed":false,"entities":["s10v1|e_39|329,339","s10v1|e_4|344,352"],"confidence":{"state":"pre-added","who":["user:ICTAR"],"prob":1}},{"classId":"r_46","type":"linked","directed":false,"entities":["s10v1|e_39|756,766","s10v1|e_4|778,791"],"confidence":{"state":"pre-added","who":["user:ICTAR"],"prob":1}}]}