{"annotatable":{"parts":["s1v1","s2v1","s3v1","s4v1","s5v1","s6v1","s7v1","s8v1","s9v1","s10v1","s11v1"]},"anncomplete":true,"sources":[],"metas":{"m_14":{"value":false,"confidence":{"state":"pre-added","who":["user:ICTAR"],"prob":1}},"m_16":{"value":"South Victoria Land","confidence":{"state":"pre-added","who":["user:ICTAR"],"prob":1}},"m_76":{"value":true,"confidence":{"state":"pre-added","who":["user:charlesklee"],"prob":1}}},"entities":[{"classId":"e_4","part":"s1v1","offsets":[{"start":575,"text":"Ross Dependency"}],"coordinates":[],"confidence":{"state":"pre-added","who":["ml:dpeker"],"prob":0.9558},"fields":{},"normalizations":{"n_34":{"source":{"name":"GeoNamesSCAR","id":"134188","url":null},"recName":"Ross Dependency","confidence":{"state":"pre-added","who":["ml:dpeker"],"prob":0.9558}}}},{"classId":"e_4","part":"s1v1","offsets":[{"start":644,"text":"Taylor Valley"}],"coordinates":[],"confidence":{"state":"pre-added","who":["ml:dpeker"],"prob":0.9472},"fields":{},"normalizations":{"n_34":{"source":{"name":"GeoNamesSCAR","id":"132512","url":null},"recName":"Taylor Valley","confidence":{"state":"pre-added","who":["ml:dpeker"],"prob":0.9472}}}},{"classId":"e_39","part":"s1v1","offsets":[{"start":871,"text":"Gomphiocephalus hodgsoni"}],"coordinates":[],"confidence":{"state":"pre-added","who":["ml:dpeker"],"prob":0.9754},"fields":{},"normalizations":{"n_44":{"source":{"name":"SpringtailNames","id":"Gohodg","url":null},"recName":"Gomphiocephalus hodgsoni","confidence":{"state":"pre-added","who":["ml:dpeker"],"prob":0.9754}}}},{"classId":"e_39","part":"s1v1","offsets":[{"start":897,"text":"Neocryptopygus nivicolus"}],"coordinates":[],"confidence":{"state":"pre-added","who":["ml:dpeker"],"prob":0.9754},"fields":{},"normalizations":{"n_44":{"source":{"name":"SpringtailNames","id":"Nenivi","url":null},"recName":"Neocryptus nivicolus","confidence":{"state":"pre-added","who":["ml:dpeker"],"prob":0.9754}}}},{"classId":"e_38","part":"s1v1","offsets":[{"start":926,"text":"Stereotydeus mollis"}],"coordinates":[],"confidence":{"state":"pre-added","who":["ml:dpeker"],"prob":0.9671},"fields":{},"normalizations":{"n_43":{"source":{"name":"MiteNames","id":"Stmoll","url":null},"recName":"Stereotydeus mollis","confidence":{"state":"pre-added","who":["ml:dpeker"],"prob":0.9671}}}},{"classId":"e_4","part":"s1v1","offsets":[{"start":1113,"text":"McMurdo Station"}],"coordinates":[],"confidence":{"state":"pre-added","who":["ml:dpeker"],"prob":0.9558},"fields":{},"normalizations":{"n_34":{"source":{"name":"GeoNamesSCAR","id":"128725","url":null},"recName":"McMurdo Station","confidence":{"state":"pre-added","who":["ml:dpeker"],"prob":0.9558}}}},{"classId":"e_4","part":"s1v1","offsets":[{"start":1161,"text":"Marble Point"}],"coordinates":[],"confidence":{"state":"pre-added","who":["ml:dpeker"],"prob":0.9416},"fields":{},"normalizations":{"n_34":{"source":{"name":"GeoNamesSCAR","id":"113829","url":null},"recName":"Marble Point","confidence":{"state":"pre-added","who":["ml:dpeker"],"prob":0.9416}}}},{"classId":"e_39","part":"s1v1","offsets":[{"start":1195,"text":"G. hodgsoni"}],"coordinates":[],"confidence":{"state":"pre-added","who":["ml:dpeker"],"prob":0.9349},"fields":{},"normalizations":{"n_44":{"source":{"name":"SpringtailNames","id":"Gohodg","url":null},"recName":"Gomphiocephalus hodgsoni","confidence":{"state":"pre-added","who":["ml:dpeker"],"prob":0.9349}}}},{"classId":"e_38","part":"s1v1","offsets":[{"start":1211,"text":"S. mollis"}],"coordinates":[],"confidence":{"state":"pre-added","who":["ml:dpeker"],"prob":0.9163},"fields":{},"normalizations":{"n_43":{"source":{"name":"MiteNames","id":"Stmoll","url":null},"recName":"Stereotydeus mollis","confidence":{"state":"pre-added","who":["ml:dpeker"],"prob":0.9163}}}},{"classId":"e_4","part":"s2v1","offsets":[{"start":1219,"text":"Ross Dependency"}],"coordinates":[],"confidence":{"state":"pre-added","who":["ml:dpeker"],"prob":0.9558},"fields":{},"normalizations":{"n_34":{"source":{"name":"GeoNamesSCAR","id":"134188","url":null},"recName":"Ross Dependency","confidence":{"state":"pre-added","who":["ml:dpeker"],"prob":0.9558}}}},{"classId":"e_4","part":"s2v1","offsets":[{"start":1912,"text":"Ross Dependency"}],"coordinates":[],"confidence":{"state":"pre-added","who":["ml:dpeker"],"prob":0.9558},"fields":{},"normalizations":{"n_34":{"source":{"name":"GeoNamesSCAR","id":"134188","url":null},"recName":"Ross Dependency","confidence":{"state":"pre-added","who":["ml:dpeker"],"prob":0.9558}}}},{"classId":"e_4","part":"s2v1","offsets":[{"start":2234,"text":"Ross Island"}],"coordinates":[],"confidence":{"state":"pre-added","who":["ml:dpeker"],"prob":0.9349},"fields":{},"normalizations":{"n_34":{"source":{"name":"GeoNamesSCAR","id":"130958","url":null},"recName":"Ross Island","confidence":{"state":"pre-added","who":["ml:dpeker"],"prob":0.9349}}}},{"classId":"e_4","part":"s2v1","offsets":[{"start":2349,"text":"Bratina Island"}],"coordinates":[],"confidence":{"state":"pre-added","who":["ml:dpeker"],"prob":0.9518},"fields":{},"normalizations":{"n_34":{"source":{"name":"GeoNamesSCAR","id":"122878","url":null},"recName":"Bratina Island","confidence":{"state":"pre-added","who":["ml:dpeker"],"prob":0.9518}}}},{"classId":"e_4","part":"s2v1","offsets":[{"start":2365,"text":"Cape Bird"}],"coordinates":[],"confidence":{"state":"pre-added","who":["ml:dpeker"],"prob":0.9163},"fields":{},"normalizations":{"n_34":{"source":{"name":"GeoNamesSCAR","id":"122545","url":null},"recName":"Bird, Cape","confidence":{"state":"pre-added","who":["ml:dpeker"],"prob":0.9163}}}},{"classId":"e_4","part":"s2v1","offsets":[{"start":2379,"text":"Hut Point Peninsula"}],"coordinates":[],"confidence":{"state":"pre-added","who":["ml:dpeker"],"prob":0.9671},"fields":{},"normalizations":{"n_34":{"source":{"name":"GeoNamesSCAR","id":"113600","url":null},"recName":"Hut Point Peninsula","confidence":{"state":"pre-added","who":["ml:dpeker"],"prob":0.9671}}}},{"classId":"e_4","part":"s2v1","offsets":[{"start":2451,"text":"Beaufort Island"}],"coordinates":[],"confidence":{"state":"pre-added","who":["ml:dpeker"],"prob":0.9558},"fields":{},"normalizations":{"n_34":{"source":{"name":"GeoNamesSCAR","id":"122323","url":null},"recName":"Beaufort Island","confidence":{"state":"pre-added","who":["ml:dpeker"],"prob":0.9558}}}},{"classId":"e_4","part":"s2v1","offsets":[{"start":2473,"text":"Royds, Cape"}],"coordinates":[],"confidence":{"state":"pre-added","who":["ml:dpeker"],"prob":0.9349},"fields":{},"normalizations":{"n_34":{"source":{"name":"GeoNamesSCAR","id":"131005","url":null},"recName":"Royds, Cape","confidence":{"state":"pre-added","who":["ml:dpeker"],"prob":0.9349}}}},{"classId":"e_4","part":"s2v1","offsets":[{"start":2492,"text":"Garwood Valley"}],"coordinates":[],"confidence":{"state":"pre-added","who":["ml:dpeker"],"prob":0.9518},"fields":{},"normalizations":{"n_34":{"source":{"name":"GeoNamesSCAR","id":"125553","url":null},"recName":"Garwood Valley","confidence":{"state":"pre-added","who":["ml:dpeker"],"prob":0.9518}}}},{"classId":"e_4","part":"s2v1","offsets":[{"start":2508,"text":"Miers Valley"}],"coordinates":[],"confidence":{"state":"pre-added","who":["ml:dpeker"],"prob":0.9416},"fields":{},"normalizations":{"n_34":{"source":{"name":"GeoNamesSCAR","id":"128868","url":null},"recName":"Miers Valley","confidence":{"state":"pre-added","who":["ml:dpeker"],"prob":0.9416}}}},{"classId":"e_4","part":"s2v1","offsets":[{"start":2537,"text":"Hut Point Peninsula"}],"coordinates":[],"confidence":{"state":"pre-added","who":["ml:dpeker"],"prob":0.9671},"fields":{},"normalizations":{"n_34":{"source":{"name":"GeoNamesSCAR","id":"113600","url":null},"recName":"Hut Point Peninsula","confidence":{"state":"pre-added","who":["ml:dpeker"],"prob":0.9671}}}},{"classId":"e_4","part":"s2v1","offsets":[{"start":2616,"text":"Cape Crozier"}],"coordinates":[],"confidence":{"state":"pre-added","who":["ml:dpeker"],"prob":0.9416},"fields":{},"normalizations":{"n_34":{"source":{"name":"GeoNamesSCAR","id":"123976","url":null},"recName":"Crozier, Cape","confidence":{"state":"pre-added","who":["ml:dpeker"],"prob":0.9416}}}},{"classId":"e_4","part":"s2v1","offsets":[{"start":2660,"text":"Springtail Point"}],"coordinates":[],"confidence":{"state":"pre-added","who":["ml:dpeker"],"prob":0.9592},"fields":{},"normalizations":{"n_34":{"source":{"name":"GeoNamesSCAR","id":"132046","url":null},"recName":"Springtail Point","confidence":{"state":"pre-added","who":["ml:dpeker"],"prob":0.9592}}}},{"classId":"e_4","part":"s2v1","offsets":[{"start":2678,"text":"Marble Point"}],"coordinates":[],"confidence":{"state":"pre-added","who":["ml:dpeker"],"prob":0.9416},"fields":{},"normalizations":{"n_34":{"source":{"name":"GeoNamesSCAR","id":"113829","url":null},"recName":"Marble Point","confidence":{"state":"pre-added","who":["ml:dpeker"],"prob":0.9416}}}},{"classId":"e_4","part":"s2v1","offsets":[{"start":2695,"text":"Taylor Valley"}],"coordinates":[],"confidence":{"state":"pre-added","who":["ml:dpeker"],"prob":0.9472},"fields":{},"normalizations":{"n_34":{"source":{"name":"GeoNamesSCAR","id":"132512","url":null},"recName":"Taylor Valley","confidence":{"state":"pre-added","who":["ml:dpeker"],"prob":0.9472}}}},{"classId":"e_39","part":"s3v1","offsets":[{"start":749,"text":"Neocryptopygus nivicolus"}],"coordinates":[],"confidence":{"state":"pre-added","who":["ml:dpeker"],"prob":0.9754},"fields":{},"normalizations":{"n_44":{"source":{"name":"SpringtailNames","id":"Nenivi","url":null},"recName":"Neocryptus nivicolus","confidence":{"state":"pre-added","who":["ml:dpeker"],"prob":0.9754}}}},{"classId":"e_38","part":"s3v1","offsets":[{"start":790,"text":"Stereotydeus mollis"}],"coordinates":[],"confidence":{"state":"pre-added","who":["ml:dpeker"],"prob":0.9671},"fields":{},"normalizations":{"n_43":{"source":{"name":"MiteNames","id":"Stmoll","url":null},"recName":"Stereotydeus mollis","confidence":{"state":"pre-added","who":["ml:dpeker"],"prob":0.9671}}}},{"classId":"e_39","part":"s3v1","offsets":[{"start":840,"text":"Gomphiocephalus hodgsoni"}],"coordinates":[],"confidence":{"state":"pre-added","who":["ml:dpeker"],"prob":0.9754},"fields":{},"normalizations":{"n_44":{"source":{"name":"SpringtailNames","id":"Gohodg","url":null},"recName":"Gomphiocephalus hodgsoni","confidence":{"state":"pre-added","who":["ml:dpeker"],"prob":0.9754}}}},{"classId":"e_4","part":"s3v1","offsets":[{"start":1081,"text":"Beaufort Island"}],"coordinates":[],"confidence":{"state":"pre-added","who":["ml:dpeker"],"prob":0.9558},"fields":{},"normalizations":{"n_34":{"source":{"name":"GeoNamesSCAR","id":"122323","url":null},"recName":"Beaufort Island","confidence":{"state":"pre-added","who":["ml:dpeker"],"prob":0.9558}}}},{"classId":"e_4","part":"s3v1","offsets":[{"start":1101,"text":"Bratina Island"}],"coordinates":[],"confidence":{"state":"pre-added","who":["ml:dpeker"],"prob":0.9518},"fields":{},"normalizations":{"n_34":{"source":{"name":"GeoNamesSCAR","id":"122878","url":null},"recName":"Bratina Island","confidence":{"state":"pre-added","who":["ml:dpeker"],"prob":0.9518}}}},{"classId":"e_39","part":"s3v1","offsets":[{"start":1117,"text":"Gomphiocephalus hodgsoni"}],"coordinates":[],"confidence":{"state":"pre-added","who":["ml:dpeker"],"prob":0.9754},"fields":{},"normalizations":{"n_44":{"source":{"name":"SpringtailNames","id":"Gohodg","url":null},"recName":"Gomphiocephalus hodgsoni","confidence":{"state":"pre-added","who":["ml:dpeker"],"prob":0.9754}}}},{"classId":"e_38","part":"s3v1","offsets":[{"start":1159,"text":"Stereotydeus mollis"}],"coordinates":[],"confidence":{"state":"pre-added","who":["ml:dpeker"],"prob":0.9671},"fields":{},"normalizations":{"n_43":{"source":{"name":"MiteNames","id":"Stmoll","url":null},"recName":"Stereotydeus mollis","confidence":{"state":"pre-added","who":["ml:dpeker"],"prob":0.9671}}}},{"classId":"e_4","part":"s3v1","offsets":[{"start":1233,"text":"Beaufort Island"}],"coordinates":[],"confidence":{"state":"pre-added","who":["ml:dpeker"],"prob":0.9558},"fields":{},"normalizations":{"n_34":{"source":{"name":"GeoNamesSCAR","id":"122323","url":null},"recName":"Beaufort Island","confidence":{"state":"pre-added","who":["ml:dpeker"],"prob":0.9558}}}},{"classId":"e_4","part":"s3v1","offsets":[{"start":1319,"text":"Bratina Island"}],"coordinates":[],"confidence":{"state":"pre-added","who":["ml:dpeker"],"prob":0.9518},"fields":{},"normalizations":{"n_34":{"source":{"name":"GeoNamesSCAR","id":"122878","url":null},"recName":"Bratina Island","confidence":{"state":"pre-added","who":["ml:dpeker"],"prob":0.9518}}}},{"classId":"e_4","part":"s4v1","offsets":[{"start":238,"text":"Bratina Island"}],"coordinates":[],"confidence":{"state":"pre-added","who":["ml:dpeker"],"prob":0.9518},"fields":{},"normalizations":{"n_34":{"source":{"name":"GeoNamesSCAR","id":"122878","url":null},"recName":"Bratina Island","confidence":{"state":"pre-added","who":["ml:dpeker"],"prob":0.9518}}}},{"classId":"e_4","part":"s4v1","offsets":[{"start":297,"text":"Ross Island"}],"coordinates":[],"confidence":{"state":"pre-added","who":["ml:dpeker"],"prob":0.9349},"fields":{},"normalizations":{"n_34":{"source":{"name":"GeoNamesSCAR","id":"130958","url":null},"recName":"Ross Island","confidence":{"state":"pre-added","who":["ml:dpeker"],"prob":0.9349}}}},{"classId":"e_39","part":"s4v1","offsets":[{"start":310,"text":"G. hodgsoni"}],"coordinates":[],"confidence":{"state":"pre-added","who":["ml:dpeker"],"prob":0.9349},"fields":{},"normalizations":{"n_44":{"source":{"name":"SpringtailNames","id":"Gohodg","url":null},"recName":"Gomphiocephalus hodgsoni","confidence":{"state":"pre-added","who":["ml:dpeker"],"prob":0.9349}}}},{"classId":"e_38","part":"s4v1","offsets":[{"start":326,"text":"S. mollis"}],"coordinates":[],"confidence":{"state":"pre-added","who":["ml:dpeker"],"prob":0.9163},"fields":{},"normalizations":{"n_43":{"source":{"name":"MiteNames","id":"Stmoll","url":null},"recName":"Stereotydeus mollis","confidence":{"state":"pre-added","who":["ml:dpeker"],"prob":0.9163}}}},{"classId":"e_4","part":"s4v1","offsets":[{"start":355,"text":"Cape Bird"}],"coordinates":[],"confidence":{"state":"pre-added","who":["ml:dpeker"],"prob":0.9163},"fields":{},"normalizations":{"n_34":{"source":{"name":"GeoNamesSCAR","id":"122545","url":null},"recName":"Bird, Cape","confidence":{"state":"pre-added","who":["ml:dpeker"],"prob":0.9163}}}},{"classId":"e_4","part":"s4v1","offsets":[{"start":394,"text":"Cape Crozier"}],"coordinates":[],"confidence":{"state":"pre-added","who":["ml:dpeker"],"prob":0.9416},"fields":{},"normalizations":{"n_34":{"source":{"name":"GeoNamesSCAR","id":"123976","url":null},"recName":"Crozier, Cape","confidence":{"state":"pre-added","who":["ml:dpeker"],"prob":0.9416}}}},{"classId":"e_4","part":"s4v1","offsets":[{"start":424,"text":"Cape Royds"}],"coordinates":[],"confidence":{"state":"pre-added","who":["ml:dpeker"],"prob":0.9266},"fields":{},"normalizations":{"n_34":{"source":{"name":"GeoNamesSCAR","id":"131005","url":null},"recName":"Royds, Cape","confidence":{"state":"pre-added","who":["ml:dpeker"],"prob":0.9266}}}},{"classId":"e_4","part":"s4v1","offsets":[{"start":471,"text":"Cape Royds"}],"coordinates":[],"confidence":{"state":"pre-added","who":["ml:dpeker"],"prob":0.9266},"fields":{},"normalizations":{"n_34":{"source":{"name":"GeoNamesSCAR","id":"131005","url":null},"recName":"Royds, Cape","confidence":{"state":"pre-added","who":["ml:dpeker"],"prob":0.9266}}}},{"classId":"e_4","part":"s4v1","offsets":[{"start":490,"text":"Cape Barne"}],"coordinates":[],"confidence":{"state":"pre-added","who":["ml:dpeker"],"prob":0.9266},"fields":{},"normalizations":{"n_34":{"source":{"name":"GeoNamesSCAR","id":"112732","url":null},"recName":"Barne, Cape","confidence":{"state":"pre-added","who":["ml:dpeker"],"prob":0.9266}}}},{"classId":"e_4","part":"s4v1","offsets":[{"start":519,"text":"Cape Evans"}],"coordinates":[],"confidence":{"state":"pre-added","who":["ml:dpeker"],"prob":0.9266},"fields":{},"normalizations":{"n_34":{"source":{"name":"GeoNamesSCAR","id":"113260","url":null},"recName":"Evans, Cape","confidence":{"state":"pre-added","who":["ml:dpeker"],"prob":0.9266}}}},{"classId":"e_38","part":"s4v1","offsets":[{"start":530,"text":"S. mollis"}],"coordinates":[],"confidence":{"state":"pre-added","who":["ml:dpeker"],"prob":0.9163},"fields":{},"normalizations":{"n_43":{"source":{"name":"MiteNames","id":"Stmoll","url":null},"recName":"Stereotydeus mollis","confidence":{"state":"pre-added","who":["ml:dpeker"],"prob":0.9163}}}},{"classId":"e_39","part":"s4v1","offsets":[{"start":614,"text":"G. hodgsoni"}],"coordinates":[],"confidence":{"state":"pre-added","who":["ml:dpeker"],"prob":0.9349},"fields":{},"normalizations":{"n_44":{"source":{"name":"SpringtailNames","id":"Gohodg","url":null},"recName":"Gomphiocephalus hodgsoni","confidence":{"state":"pre-added","who":["ml:dpeker"],"prob":0.9349}}}},{"classId":"e_4","part":"s4v1","offsets":[{"start":808,"text":"McMurdo Station"}],"coordinates":[],"confidence":{"state":"pre-added","who":["ml:dpeker"],"prob":0.9558},"fields":{},"normalizations":{"n_34":{"source":{"name":"GeoNamesSCAR","id":"128725","url":null},"recName":"McMurdo Station","confidence":{"state":"pre-added","who":["ml:dpeker"],"prob":0.9558}}}},{"classId":"e_4","part":"s4v1","offsets":[{"start":832,"text":"Hut Point Peninsula"}],"coordinates":[],"confidence":{"state":"pre-added","who":["ml:dpeker"],"prob":0.9671},"fields":{},"normalizations":{"n_34":{"source":{"name":"GeoNamesSCAR","id":"113600","url":null},"recName":"Hut Point Peninsula","confidence":{"state":"pre-added","who":["ml:dpeker"],"prob":0.9671}}}},{"classId":"e_4","part":"s4v1","offsets":[{"start":853,"text":"Ross Island"}],"coordinates":[],"confidence":{"state":"pre-added","who":["ml:dpeker"],"prob":0.9349},"fields":{},"normalizations":{"n_34":{"source":{"name":"GeoNamesSCAR","id":"130958","url":null},"recName":"Ross Island","confidence":{"state":"pre-added","who":["ml:dpeker"],"prob":0.9349}}}},{"classId":"e_38","part":"s4v1","offsets":[{"start":866,"text":"S. mollis"}],"coordinates":[],"confidence":{"state":"pre-added","who":["ml:dpeker"],"prob":0.9163},"fields":{},"normalizations":{"n_43":{"source":{"name":"MiteNames","id":"Stmoll","url":null},"recName":"Stereotydeus mollis","confidence":{"state":"pre-added","who":["ml:dpeker"],"prob":0.9163}}}},{"classId":"e_4","part":"s4v1","offsets":[{"start":917,"text":"Cape Armitage"}],"coordinates":[],"confidence":{"state":"pre-added","who":["ml:dpeker"],"prob":0.9472},"fields":{},"normalizations":{"n_34":{"source":{"name":"GeoNamesSCAR","id":"121919","url":null},"recName":"Armitage, Cape","confidence":{"state":"pre-added","who":["ml:dpeker"],"prob":0.9472}}}},{"classId":"e_4","part":"s4v1","offsets":[{"start":979,"text":"Hut Point"}],"coordinates":[],"confidence":{"state":"pre-added","who":["ml:dpeker"],"prob":0.9163},"fields":{},"normalizations":{"n_34":{"source":{"name":"GeoNamesSCAR","id":"113599","url":null},"recName":"Hut Point","confidence":{"state":"pre-added","who":["ml:dpeker"],"prob":0.9163}}}},{"classId":"e_39","part":"s4v1","offsets":[{"start":1071,"text":"G. hodgsoni"}],"coordinates":[],"confidence":{"state":"pre-added","who":["ml:dpeker"],"prob":0.9349},"fields":{},"normalizations":{"n_44":{"source":{"name":"SpringtailNames","id":"Gohodg","url":null},"recName":"Gomphiocephalus hodgsoni","confidence":{"state":"pre-added","who":["ml:dpeker"],"prob":0.9349}}}},{"classId":"e_4","part":"s4v1","offsets":[{"start":1117,"text":"Hut Point"}],"coordinates":[],"confidence":{"state":"pre-added","who":["ml:dpeker"],"prob":0.9163},"fields":{},"normalizations":{"n_34":{"source":{"name":"GeoNamesSCAR","id":"113599","url":null},"recName":"Hut Point","confidence":{"state":"pre-added","who":["ml:dpeker"],"prob":0.9163}}}},{"classId":"e_4","part":"s4v1","offsets":[{"start":1137,"text":"McMurdo Station"}],"coordinates":[],"confidence":{"state":"pre-added","who":["ml:dpeker"],"prob":0.9558},"fields":{},"normalizations":{"n_34":{"source":{"name":"GeoNamesSCAR","id":"128725","url":null},"recName":"McMurdo Station","confidence":{"state":"pre-added","who":["ml:dpeker"],"prob":0.9558}}}},{"classId":"e_4","part":"s4v1","offsets":[{"start":1291,"text":"Cape Geology"}],"coordinates":[],"confidence":{"state":"pre-added","who":["ml:dpeker"],"prob":0.9416},"fields":{},"normalizations":{"n_34":{"source":{"name":"GeoNamesSCAR","id":"125618","url":null},"recName":"Geology, Cape","confidence":{"state":"pre-added","who":["ml:dpeker"],"prob":0.9416}}}},{"classId":"e_4","part":"s4v1","offsets":[{"start":1305,"text":"Granite Harbour"}],"coordinates":[{"x":"204.13","y":"460.31"},{"x":"275.62","y":"466.17"}],"confidence":{"state":"pre-added","who":["user:ICTAR"],"prob":1},"fields":{},"normalizations":{"n_34":{"source":{"name":"GeoNamesSCAR","id":"125876","url":null},"recName":"","confidence":{"state":"pre-added","who":["user:ICTAR"],"prob":1}}}},{"classId":"e_39","part":"s4v1","offsets":[{"start":1365,"text":"G. hodgsoni"}],"coordinates":[],"confidence":{"state":"pre-added","who":["ml:dpeker"],"prob":0.9349},"fields":{},"normalizations":{"n_44":{"source":{"name":"SpringtailNames","id":"Gohodg","url":null},"recName":"Gomphiocephalus hodgsoni","confidence":{"state":"pre-added","who":["ml:dpeker"],"prob":0.9349}}}},{"classId":"e_39","part":"s4v1","offsets":[{"start":1381,"text":"Neocryptopygus nivicolus"}],"coordinates":[],"confidence":{"state":"pre-added","who":["ml:dpeker"],"prob":0.9754},"fields":{},"normalizations":{"n_44":{"source":{"name":"SpringtailNames","id":"Nenivi","url":null},"recName":"Neocryptus nivicolus","confidence":{"state":"pre-added","who":["ml:dpeker"],"prob":0.9754}}}},{"classId":"e_38","part":"s4v1","offsets":[{"start":1417,"text":"S. mollis"}],"coordinates":[],"confidence":{"state":"pre-added","who":["ml:dpeker"],"prob":0.9163},"fields":{},"normalizations":{"n_43":{"source":{"name":"MiteNames","id":"Stmoll","url":null},"recName":"Stereotydeus mollis","confidence":{"state":"pre-added","who":["ml:dpeker"],"prob":0.9163}}}},{"classId":"e_39","part":"s4v1","offsets":[{"start":1428,"text":"G. hodgsoni"}],"coordinates":[],"confidence":{"state":"pre-added","who":["ml:dpeker"],"prob":0.9349},"fields":{},"normalizations":{"n_44":{"source":{"name":"SpringtailNames","id":"Gohodg","url":null},"recName":"Gomphiocephalus hodgsoni","confidence":{"state":"pre-added","who":["ml:dpeker"],"prob":0.9349}}}},{"classId":"e_39","part":"s4v1","offsets":[{"start":1513,"text":"N. nivicolus"}],"coordinates":[],"confidence":{"state":"pre-added","who":["ml:dpeker"],"prob":0.9416},"fields":{},"normalizations":{"n_44":{"source":{"name":"SpringtailNames","id":"Nenivi","url":null},"recName":"Neocryptus nivicolus","confidence":{"state":"pre-added","who":["ml:dpeker"],"prob":0.9416}}}},{"classId":"e_4","part":"s4v1","offsets":[{"start":1575,"text":"Mt. England"}],"coordinates":[{"x":"305.68","y":"494.81"},{"x":"360.50","y":"500.67"}],"confidence":{"state":"pre-added","who":["user:ICTAR"],"prob":1},"fields":{},"normalizations":{"n_34":{"source":{"name":"GeoNamesSCAR","id":"113242","url":null},"recName":"","confidence":{"state":"pre-added","who":["user:ICTAR"],"prob":1}}}},{"classId":"e_39","part":"s4v1","offsets":[{"start":1604,"text":"G. hodgsoni"}],"coordinates":[],"confidence":{"state":"pre-added","who":["ml:dpeker"],"prob":0.9349},"fields":{},"normalizations":{"n_44":{"source":{"name":"SpringtailNames","id":"Gohodg","url":null},"recName":"Gomphiocephalus hodgsoni","confidence":{"state":"pre-added","who":["ml:dpeker"],"prob":0.9349}}}},{"classId":"e_39","part":"s4v1","offsets":[{"start":1617,"text":"N. nivicolus"}],"coordinates":[],"confidence":{"state":"pre-added","who":["ml:dpeker"],"prob":0.9416},"fields":{},"normalizations":{"n_44":{"source":{"name":"SpringtailNames","id":"Nenivi","url":null},"recName":"Neocryptus nivicolus","confidence":{"state":"pre-added","who":["ml:dpeker"],"prob":0.9416}}}},{"classId":"e_38","part":"s4v1","offsets":[{"start":1634,"text":"S. mollis"}],"coordinates":[],"confidence":{"state":"pre-added","who":["ml:dpeker"],"prob":0.9163},"fields":{},"normalizations":{"n_43":{"source":{"name":"MiteNames","id":"Stmoll","url":null},"recName":"Stereotydeus mollis","confidence":{"state":"pre-added","who":["ml:dpeker"],"prob":0.9163}}}},{"classId":"e_39","part":"s4v1","offsets":[{"start":1778,"text":"G. hodgsoni"}],"coordinates":[],"confidence":{"state":"pre-added","who":["ml:dpeker"],"prob":0.9349},"fields":{},"normalizations":{"n_44":{"source":{"name":"SpringtailNames","id":"Gohodg","url":null},"recName":"Gomphiocephalus hodgsoni","confidence":{"state":"pre-added","who":["ml:dpeker"],"prob":0.9349}}}},{"classId":"e_38","part":"s4v1","offsets":[{"start":1810,"text":"S. mollis"}],"coordinates":[],"confidence":{"state":"pre-added","who":["ml:dpeker"],"prob":0.9163},"fields":{},"normalizations":{"n_43":{"source":{"name":"MiteNames","id":"Stmoll","url":null},"recName":"Stereotydeus mollis","confidence":{"state":"pre-added","who":["ml:dpeker"],"prob":0.9163}}}},{"classId":"e_4","part":"s4v1","offsets":[{"start":1828,"text":"Mt. England"}],"coordinates":[{"x":"314.05","y":"529.31"},{"x":"366.79","y":"535.17"}],"confidence":{"state":"pre-added","who":["user:ICTAR"],"prob":1},"fields":{},"normalizations":{"n_34":{"source":{"name":"GeoNamesSCAR","id":"113242","url":null},"recName":"","confidence":{"state":"pre-added","who":["user:ICTAR"],"prob":1}}}},{"classId":"e_4","part":"s4v1","offsets":[{"start":1844,"text":"New Glac- ier"}],"coordinates":[],"confidence":{"state":"pre-added","who":["ml:dpeker"],"prob":0.7443},"fields":{},"normalizations":{"n_34":{"source":{"name":"GeoNamesSCAR","id":"129360","url":null},"recName":"New Glacier","confidence":{"state":"pre-added","who":["ml:dpeker"],"prob":0.7443}}}},{"classId":"e_4","part":"s4v1","offsets":[{"start":1908,"text":"Marble Point"}],"coordinates":[],"confidence":{"state":"pre-added","who":["ml:dpeker"],"prob":0.9416},"fields":{},"normalizations":{"n_34":{"source":{"name":"GeoNamesSCAR","id":"113829","url":null},"recName":"Marble Point","confidence":{"state":"pre-added","who":["ml:dpeker"],"prob":0.9416}}}},{"classId":"e_38","part":"s4v1","offsets":[{"start":2003,"text":"S. mollis"}],"coordinates":[],"confidence":{"state":"pre-added","who":["ml:dpeker"],"prob":0.9163},"fields":{},"normalizations":{"n_43":{"source":{"name":"MiteNames","id":"Stmoll","url":null},"recName":"Stereotydeus mollis","confidence":{"state":"pre-added","who":["ml:dpeker"],"prob":0.9163}}}},{"classId":"e_39","part":"s4v1","offsets":[{"start":2063,"text":"G. hodgsoni"}],"coordinates":[],"confidence":{"state":"pre-added","who":["ml:dpeker"],"prob":0.9349},"fields":{},"normalizations":{"n_44":{"source":{"name":"SpringtailNames","id":"Gohodg","url":null},"recName":"Gomphiocephalus hodgsoni","confidence":{"state":"pre-added","who":["ml:dpeker"],"prob":0.9349}}}},{"classId":"e_4","part":"s4v1","offsets":[{"start":2188,"text":"Gneiss Point"}],"coordinates":[],"confidence":{"state":"pre-added","who":["ml:dpeker"],"prob":0.9416},"fields":{},"normalizations":{"n_34":{"source":{"name":"GeoNamesSCAR","id":"125754","url":null},"recName":"Gneiss Point","confidence":{"state":"pre-added","who":["ml:dpeker"],"prob":0.9416}}}},{"classId":"e_4","part":"s4v1","offsets":[{"start":2205,"text":"Marble Point"}],"coordinates":[],"confidence":{"state":"pre-added","who":["ml:dpeker"],"prob":0.9416},"fields":{},"normalizations":{"n_34":{"source":{"name":"GeoNamesSCAR","id":"113829","url":null},"recName":"Marble Point","confidence":{"state":"pre-added","who":["ml:dpeker"],"prob":0.9416}}}},{"classId":"e_4","part":"s4v1","offsets":[{"start":2248,"text":"Wilson Piedmont Glacier"}],"coordinates":[],"confidence":{"state":"pre-added","who":["ml:dpeker"],"prob":0.9741},"fields":{},"normalizations":{"n_34":{"source":{"name":"GeoNamesSCAR","id":"133762","url":null},"recName":"Wilson Piedmont Glacier","confidence":{"state":"pre-added","who":["ml:dpeker"],"prob":0.9741}}}},{"classId":"e_39","part":"s4v1","offsets":[{"start":2286,"text":"G. hodgsoni"}],"coordinates":[],"confidence":{"state":"pre-added","who":["ml:dpeker"],"prob":0.9349},"fields":{},"normalizations":{"n_44":{"source":{"name":"SpringtailNames","id":"Gohodg","url":null},"recName":"Gomphiocephalus hodgsoni","confidence":{"state":"pre-added","who":["ml:dpeker"],"prob":0.9349}}}},{"classId":"e_4","part":"s4v1","offsets":[{"start":2320,"text":"Marble Point"}],"coordinates":[],"confidence":{"state":"pre-added","who":["ml:dpeker"],"prob":0.9416},"fields":{},"normalizations":{"n_34":{"source":{"name":"GeoNamesSCAR","id":"113829","url":null},"recName":"Marble Point","confidence":{"state":"pre-added","who":["ml:dpeker"],"prob":0.9416}}}},{"classId":"e_38","part":"s5v1","offsets":[{"start":55,"text":"S. mollis"}],"coordinates":[],"confidence":{"state":"pre-added","who":["ml:dpeker"],"prob":0.9163},"fields":{},"normalizations":{"n_43":{"source":{"name":"MiteNames","id":"Stmoll","url":null},"recName":"Stereotydeus mollis","confidence":{"state":"pre-added","who":["ml:dpeker"],"prob":0.9163}}}},{"classId":"e_4","part":"s5v1","offsets":[{"start":110,"text":"Lake Fryxell"}],"coordinates":[],"confidence":{"state":"pre-added","who":["ml:dpeker"],"prob":0.9416},"fields":{},"normalizations":{"n_34":{"source":{"name":"GeoNamesSCAR","id":"125440","url":null},"recName":"Fryxell, Lake","confidence":{"state":"pre-added","who":["ml:dpeker"],"prob":0.9416}}}},{"classId":"e_4","part":"s5v1","offsets":[{"start":130,"text":"Taylor Valley"}],"coordinates":[],"confidence":{"state":"pre-added","who":["ml:dpeker"],"prob":0.9472},"fields":{},"normalizations":{"n_34":{"source":{"name":"GeoNamesSCAR","id":"132512","url":null},"recName":"Taylor Valley","confidence":{"state":"pre-added","who":["ml:dpeker"],"prob":0.9472}}}},{"classId":"e_39","part":"s5v1","offsets":[{"start":170,"text":"G. hodgsoni"}],"coordinates":[],"confidence":{"state":"pre-added","who":["ml:dpeker"],"prob":0.9349},"fields":{},"normalizations":{"n_44":{"source":{"name":"SpringtailNames","id":"Gohodg","url":null},"recName":"Gomphiocephalus hodgsoni","confidence":{"state":"pre-added","who":["ml:dpeker"],"prob":0.9349}}}},{"classId":"e_4","part":"s5v1","offsets":[{"start":336,"text":"Howard Glacier"}],"coordinates":[],"confidence":{"state":"pre-added","who":["ml:dpeker"],"prob":0.9518},"fields":{},"normalizations":{"n_34":{"source":{"name":"GeoNamesSCAR","id":"126761","url":null},"recName":"Howard Glacier","confidence":{"state":"pre-added","who":["ml:dpeker"],"prob":0.9518}}}},{"classId":"e_4","part":"s5v1","offsets":[{"start":364,"text":"Borns Glacier"}],"coordinates":[],"confidence":{"state":"pre-added","who":["ml:dpeker"],"prob":0.9472},"fields":{},"normalizations":{"n_34":{"source":{"name":"GeoNamesSCAR","id":"122754","url":null},"recName":"Borns Glacier","confidence":{"state":"pre-added","who":["ml:dpeker"],"prob":0.9472}}}},{"classId":"e_39","part":"s5v1","offsets":[{"start":403,"text":"G. hodgsoni"}],"coordinates":[],"confidence":{"state":"pre-added","who":["ml:dpeker"],"prob":0.9349},"fields":{},"normalizations":{"n_44":{"source":{"name":"SpringtailNames","id":"Gohodg","url":null},"recName":"Gomphiocephalus hodgsoni","confidence":{"state":"pre-added","who":["ml:dpeker"],"prob":0.9349}}}},{"classId":"e_38","part":"s5v1","offsets":[{"start":419,"text":"S. mollis"}],"coordinates":[],"confidence":{"state":"pre-added","who":["ml:dpeker"],"prob":0.9163},"fields":{},"normalizations":{"n_43":{"source":{"name":"MiteNames","id":"Stmoll","url":null},"recName":"Stereotydeus mollis","confidence":{"state":"pre-added","who":["ml:dpeker"],"prob":0.9163}}}},{"classId":"e_4","part":"s5v1","offsets":[{"start":485,"text":"Lake Chad"}],"coordinates":[],"confidence":{"state":"pre-added","who":["ml:dpeker"],"prob":0.9163},"fields":{},"normalizations":{"n_34":{"source":{"name":"GeoNamesSCAR","id":"123422","url":null},"recName":"Chad, Lake","confidence":{"state":"pre-added","who":["ml:dpeker"],"prob":0.9163}}}},{"classId":"e_39","part":"s5v1","offsets":[{"start":552,"text":"G. hodg- soni"}],"coordinates":[],"confidence":{"state":"pre-added","who":["ml:dpeker"],"prob":0.7443},"fields":{},"normalizations":{"n_44":{"source":{"name":"SpringtailNames","id":"Gohodg","url":null},"recName":"Gomphiocephalus hodgsoni","confidence":{"state":"pre-added","who":["ml:dpeker"],"prob":0.7443}}}},{"classId":"e_38","part":"s5v1","offsets":[{"start":570,"text":"S. mollis"}],"coordinates":[],"confidence":{"state":"pre-added","who":["ml:dpeker"],"prob":0.9163},"fields":{},"normalizations":{"n_43":{"source":{"name":"MiteNames","id":"Stmoll","url":null},"recName":"Stereotydeus mollis","confidence":{"state":"pre-added","who":["ml:dpeker"],"prob":0.9163}}}},{"classId":"e_4","part":"s5v1","offsets":[{"start":614,"text":"Delta Stream"}],"coordinates":[],"confidence":{"state":"pre-added","who":["ml:dpeker"],"prob":0.9416},"fields":{},"normalizations":{"n_34":{"source":{"name":"GeoNamesSCAR","id":"124244","url":null},"recName":"Delta Stream","confidence":{"state":"pre-added","who":["ml:dpeker"],"prob":0.9416}}}},{"classId":"e_4","part":"s5v1","offsets":[{"start":632,"text":"Howard Glac- ier"}],"coordinates":[],"confidence":{"state":"pre-added","who":["ml:dpeker"],"prob":0.7942},"fields":{},"normalizations":{"n_34":{"source":{"name":"GeoNamesSCAR","id":"126761","url":null},"recName":"Howard Glacier","confidence":{"state":"pre-added","who":["ml:dpeker"],"prob":0.7942}}}},{"classId":"e_4","part":"s5v1","offsets":[{"start":662,"text":"Lake Fryxel"}],"coordinates":[],"confidence":{"state":"pre-added","who":["ml:dpeker"],"prob":0.857},"fields":{},"normalizations":{"n_34":{"source":{"name":"GeoNamesSCAR","id":"125440","url":null},"recName":"Fryxell, Lake","confidence":{"state":"pre-added","who":["ml:dpeker"],"prob":0.857}}}},{"classId":"e_4","part":"s5v1","offsets":[{"start":800,"text":"Calkin Glaciers"}],"coordinates":[],"confidence":{"state":"pre-added","who":["ml:dpeker"],"prob":0.8884},"fields":{},"normalizations":{"n_34":{"source":{"name":"GeoNamesSCAR","id":"123216","url":null},"recName":"Calkin Glacier","confidence":{"state":"pre-added","who":["ml:dpeker"],"prob":0.8884}}}},{"classId":"e_39","part":"s5v1","offsets":[{"start":943,"text":"G. hodgsoni"}],"coordinates":[],"confidence":{"state":"pre-added","who":["ml:dpeker"],"prob":0.9349},"fields":{},"normalizations":{"n_44":{"source":{"name":"SpringtailNames","id":"Gohodg","url":null},"recName":"Gomphiocephalus hodgsoni","confidence":{"state":"pre-added","who":["ml:dpeker"],"prob":0.9349}}}},{"classId":"e_38","part":"s5v1","offsets":[{"start":959,"text":"S. mollis"}],"coordinates":[],"confidence":{"state":"pre-added","who":["ml:dpeker"],"prob":0.9163},"fields":{},"normalizations":{"n_43":{"source":{"name":"MiteNames","id":"Stmoll","url":null},"recName":"Stereotydeus mollis","confidence":{"state":"pre-added","who":["ml:dpeker"],"prob":0.9163}}}},{"classId":"e_4","part":"s5v1","offsets":[{"start":1009,"text":"Miers Val- ley"}],"coordinates":[],"confidence":{"state":"pre-added","who":["ml:dpeker"],"prob":0.7634},"fields":{},"normalizations":{"n_34":{"source":{"name":"GeoNamesSCAR","id":"128868","url":null},"recName":"Miers Valley","confidence":{"state":"pre-added","who":["ml:dpeker"],"prob":0.7634}}}},{"classId":"e_4","part":"s5v1","offsets":[{"start":1058,"text":"Miers Valley"}],"coordinates":[],"confidence":{"state":"pre-added","who":["ml:dpeker"],"prob":0.9416},"fields":{},"normalizations":{"n_34":{"source":{"name":"GeoNamesSCAR","id":"128868","url":null},"recName":"Miers Valley","confidence":{"state":"pre-added","who":["ml:dpeker"],"prob":0.9416}}}},{"classId":"e_4","part":"s5v1","offsets":[{"start":1089,"text":"Garwood Valley"}],"coordinates":[],"confidence":{"state":"pre-added","who":["ml:dpeker"],"prob":0.9518},"fields":{},"normalizations":{"n_34":{"source":{"name":"GeoNamesSCAR","id":"125553","url":null},"recName":"Garwood Valley","confidence":{"state":"pre-added","who":["ml:dpeker"],"prob":0.9518}}}},{"classId":"e_39","part":"s5v1","offsets":[{"start":1208,"text":"Gomphiocephalus hodgsoni"}],"coordinates":[],"confidence":{"state":"pre-added","who":["ml:dpeker"],"prob":0.9754},"fields":{},"normalizations":{"n_44":{"source":{"name":"SpringtailNames","id":"Gohodg","url":null},"recName":"Gomphiocephalus hodgsoni","confidence":{"state":"pre-added","who":["ml:dpeker"],"prob":0.9754}}}},{"classId":"e_39","part":"s5v1","offsets":[{"start":1234,"text":"Neocryptopygus nivicolus"}],"coordinates":[],"confidence":{"state":"pre-added","who":["ml:dpeker"],"prob":0.9754},"fields":{},"normalizations":{"n_44":{"source":{"name":"SpringtailNames","id":"Nenivi","url":null},"recName":"Neocryptus nivicolus","confidence":{"state":"pre-added","who":["ml:dpeker"],"prob":0.9754}}}},{"classId":"e_38","part":"s5v1","offsets":[{"start":1263,"text":"Stereotydeus mollis"}],"coordinates":[],"confidence":{"state":"pre-added","who":["ml:dpeker"],"prob":0.9671},"fields":{},"normalizations":{"n_43":{"source":{"name":"MiteNames","id":"Stmoll","url":null},"recName":"Stereotydeus mollis","confidence":{"state":"pre-added","who":["ml:dpeker"],"prob":0.9671}}}},{"classId":"e_4","part":"s5v1","offsets":[{"start":1321,"text":"Ross Island"}],"coordinates":[],"confidence":{"state":"pre-added","who":["ml:dpeker"],"prob":0.9349},"fields":{},"normalizations":{"n_34":{"source":{"name":"GeoNamesSCAR","id":"130958","url":null},"recName":"Ross Island","confidence":{"state":"pre-added","who":["ml:dpeker"],"prob":0.9349}}}},{"classId":"e_4","part":"s5v1","offsets":[{"start":1334,"text":"Beaufort Island"}],"coordinates":[],"confidence":{"state":"pre-added","who":["ml:dpeker"],"prob":0.9558},"fields":{},"normalizations":{"n_34":{"source":{"name":"GeoNamesSCAR","id":"122323","url":null},"recName":"Beaufort Island","confidence":{"state":"pre-added","who":["ml:dpeker"],"prob":0.9558}}}},{"classId":"e_39","part":"s5v1","offsets":[{"start":1425,"text":"G. hodgsoni"}],"coordinates":[],"confidence":{"state":"pre-added","who":["ml:dpeker"],"prob":0.9349},"fields":{},"normalizations":{"n_44":{"source":{"name":"SpringtailNames","id":"Gohodg","url":null},"recName":"Gomphiocephalus hodgsoni","confidence":{"state":"pre-added","who":["ml:dpeker"],"prob":0.9349}}}},{"classId":"e_4","part":"s5v1","offsets":[{"start":1473,"text":"Minna Bluff"}],"coordinates":[],"confidence":{"state":"pre-added","who":["ml:dpeker"],"prob":0.9349},"fields":{},"normalizations":{"n_34":{"source":{"name":"GeoNamesSCAR","id":"128940","url":null},"recName":"Minna Bluff","confidence":{"state":"pre-added","who":["ml:dpeker"],"prob":0.9349}}}},{"classId":"e_4","part":"s5v1","offsets":[{"start":1499,"text":"Black"}],"coordinates":[{"x":"49.08","y":"334.53"},{"x":"73.57","y":"340.39"}],"confidence":{"state":"pre-added","who":["user:ICTAR"],"prob":1},"fields":{},"normalizations":{"n_34":{"source":{"name":"GeoNamesSCAR","id":"122575","url":null},"recName":"","confidence":{"state":"pre-added","who":["user:ICTAR"],"prob":1}}}},{"classId":"e_4","part":"s5v1","offsets":[{"start":1506,"text":"White,"}],"coordinates":[{"x":"78.14","y":"334.53"},{"x":"106.43","y":"340.39"}],"confidence":{"state":"pre-added","who":["user:ICTAR"],"prob":1},"fields":{},"normalizations":{"n_34":{"source":{"name":"GeoNamesSCAR","id":"133639","url":null},"recName":"","confidence":{"state":"pre-added","who":["user:ICTAR"],"prob":1}}}},{"classId":"e_4","part":"s5v1","offsets":[{"start":1513,"text":"Ross"}],"coordinates":[{"x":"108.56","y":"334.53"},{"x":"128.98","y":"340.39"}],"confidence":{"state":"pre-added","who":["user:ICTAR"],"prob":1},"fields":{},"normalizations":{"n_34":{"source":{"name":"GeoNamesSCAR","id":"130958","url":null},"recName":"","confidence":{"state":"pre-added","who":["user:ICTAR"],"prob":1}}}},{"classId":"e_4","part":"s5v1","offsets":[{"start":1522,"text":"Beaufort Islands"}],"coordinates":[],"confidence":{"state":"pre-added","who":["ml:dpeker"],"prob":0.8961},"fields":{},"normalizations":{"n_34":{"source":{"name":"GeoNamesSCAR","id":"122323","url":null},"recName":"Beaufort Island","confidence":{"state":"pre-added","who":["ml:dpeker"],"prob":0.8961}}}},{"classId":"e_4","part":"s5v1","offsets":[{"start":1611,"text":"Ross Island"}],"coordinates":[],"confidence":{"state":"pre-added","who":["ml:dpeker"],"prob":0.9349},"fields":{},"normalizations":{"n_34":{"source":{"name":"GeoNamesSCAR","id":"130958","url":null},"recName":"Ross Island","confidence":{"state":"pre-added","who":["ml:dpeker"],"prob":0.9349}}}},{"classId":"e_4","part":"s5v1","offsets":[{"start":1624,"text":"Taylor Valley"}],"coordinates":[],"confidence":{"state":"pre-added","who":["ml:dpeker"],"prob":0.9472},"fields":{},"normalizations":{"n_34":{"source":{"name":"GeoNamesSCAR","id":"132512","url":null},"recName":"Taylor Valley","confidence":{"state":"pre-added","who":["ml:dpeker"],"prob":0.9472}}}},{"classId":"e_4","part":"s5v1","offsets":[{"start":1639,"text":"Marble Point"}],"coordinates":[],"confidence":{"state":"pre-added","who":["ml:dpeker"],"prob":0.9416},"fields":{},"normalizations":{"n_34":{"source":{"name":"GeoNamesSCAR","id":"113829","url":null},"recName":"Marble Point","confidence":{"state":"pre-added","who":["ml:dpeker"],"prob":0.9416}}}},{"classId":"e_4","part":"s5v1","offsets":[{"start":1653,"text":"Miers Valley"}],"coordinates":[],"confidence":{"state":"pre-added","who":["ml:dpeker"],"prob":0.9416},"fields":{},"normalizations":{"n_34":{"source":{"name":"GeoNamesSCAR","id":"128868","url":null},"recName":"Miers Valley","confidence":{"state":"pre-added","who":["ml:dpeker"],"prob":0.9416}}}},{"classId":"e_4","part":"s5v1","offsets":[{"start":1670,"text":"Granite Harbour"}],"coordinates":[{"x":"49.08","y":"358.47"},{"x":"118.18","y":"364.33"}],"confidence":{"state":"pre-added","who":["user:ICTAR"],"prob":1},"fields":{},"normalizations":{"n_34":{"source":{"name":"GeoNamesSCAR","id":"125876","url":null},"recName":"","confidence":{"state":"pre-added","who":["user:ICTAR"],"prob":1}}}},{"classId":"e_39","part":"s5v1","offsets":[{"start":1695,"text":"N. nivicolus"}],"coordinates":[],"confidence":{"state":"pre-added","who":["ml:dpeker"],"prob":0.9416},"fields":{},"normalizations":{"n_44":{"source":{"name":"SpringtailNames","id":"Nenivi","url":null},"recName":"Neocryptus nivicolus","confidence":{"state":"pre-added","who":["ml:dpeker"],"prob":0.9416}}}},{"classId":"e_4","part":"s5v1","offsets":[{"start":1738,"text":"Mt. Gran"}],"coordinates":[{"x":"345.42","y":"358.47"},{"x":"383.92","y":"364.33"}],"confidence":{"state":"pre-added","who":["user:ICTAR"],"prob":1},"fields":{},"normalizations":{"n_34":{"source":{"name":"GeoNamesSCAR","id":"113422","url":null},"recName":"","confidence":{"state":"pre-added","who":["user:ICTAR"],"prob":1}}}},{"classId":"e_4","part":"s5v1","offsets":[{"start":1747,"text":"Wil- lett Range"}],"coordinates":[],"confidence":{"state":"pre-added","who":["ml:dpeker"],"prob":0.7798},"fields":{},"normalizations":{"n_34":{"source":{"name":"GeoNamesSCAR","id":"133719","url":null},"recName":"Willett Range","confidence":{"state":"pre-added","who":["ml:dpeker"],"prob":0.7798}}}},{"classId":"e_4","part":"s5v1","offsets":[{"start":1764,"text":"Mt. Seuss,"}],"coordinates":[{"x":"96.35","y":"370.44"},{"x":"139.97","y":"376.30"}],"confidence":{"state":"pre-added","who":["user:ICTAR"],"prob":1},"fields":{},"normalizations":{"n_52":{"source":{"name":"GeoNamesCustom","id":"CKL004","url":null},"recName":"","confidence":{"state":"pre-added","who":["user:charlesklee"],"prob":1}}}},{"classId":"e_4","part":"s5v1","offsets":[{"start":1782,"text":"Mt. England"}],"coordinates":[{"x":"172.23","y":"370.44"},{"x":"224.30","y":"376.30"}],"confidence":{"state":"pre-added","who":["user:ICTAR"],"prob":1},"fields":{},"normalizations":{"n_34":{"source":{"name":"GeoNamesSCAR","id":"113242","url":null},"recName":"","confidence":{"state":"pre-added","who":["user:ICTAR"],"prob":1}}}},{"classId":"e_4","part":"s5v1","offsets":[{"start":1885,"text":"Cape Geology"}],"coordinates":[],"confidence":{"state":"pre-added","who":["ml:dpeker"],"prob":0.9416},"fields":{},"normalizations":{"n_34":{"source":{"name":"GeoNamesSCAR","id":"125618","url":null},"recName":"Geology, Cape","confidence":{"state":"pre-added","who":["ml:dpeker"],"prob":0.9416}}}},{"classId":"e_4","part":"s5v1","offsets":[{"start":1902,"text":"Mt. England,"}],"coordinates":[{"x":"316.74","y":"382.41"},{"x":"372.00","y":"388.27"}],"confidence":{"state":"pre-added","who":["user:ICTAR"],"prob":1},"fields":{},"normalizations":{"n_34":{"source":{"name":"GeoNamesSCAR","id":"113242","url":null},"recName":"","confidence":{"state":"pre-added","who":["user:ICTAR"],"prob":1}}}},{"classId":"e_4","part":"s5v1","offsets":[{"start":1915,"text":"Granite Harbour."}],"coordinates":[{"x":"374.75","y":"382.41"},{"x":"86.11","y":"400.24"}],"confidence":{"state":"pre-added","who":["user:ICTAR"],"prob":1},"fields":{},"normalizations":{"n_34":{"source":{"name":"GeoNamesSCAR","id":"125876","url":null},"recName":"","confidence":{"state":"pre-added","who":["user:ICTAR"],"prob":1}}}},{"classId":"e_38","part":"s5v1","offsets":[{"start":1952,"text":"S. mollis"}],"coordinates":[],"confidence":{"state":"pre-added","who":["ml:dpeker"],"prob":0.9163},"fields":{},"normalizations":{"n_43":{"source":{"name":"MiteNames","id":"Stmoll","url":null},"recName":"Stereotydeus mollis","confidence":{"state":"pre-added","who":["ml:dpeker"],"prob":0.9163}}}},{"classId":"e_39","part":"s5v1","offsets":[{"start":1995,"text":"G. hodgsoni"}],"coordinates":[],"confidence":{"state":"pre-added","who":["ml:dpeker"],"prob":0.9349},"fields":{},"normalizations":{"n_44":{"source":{"name":"SpringtailNames","id":"Gohodg","url":null},"recName":"Gomphiocephalus hodgsoni","confidence":{"state":"pre-added","who":["ml:dpeker"],"prob":0.9349}}}},{"classId":"e_4","part":"s5v1","offsets":[{"start":2036,"text":"Terra Nova Bay"}],"coordinates":[],"confidence":{"state":"pre-added","who":["ml:dpeker"],"prob":0.9518},"fields":{},"normalizations":{"n_34":{"source":{"name":"GeoNamesSCAR","id":"132576","url":null},"recName":"Terra Nova Bay","confidence":{"state":"pre-added","who":["ml:dpeker"],"prob":0.9518}}}},{"classId":"e_4","part":"s5v1","offsets":[{"start":2072,"text":"Franklin Island"}],"coordinates":[],"confidence":{"state":"pre-added","who":["ml:dpeker"],"prob":0.9558},"fields":{},"normalizations":{"n_34":{"source":{"name":"GeoNamesSCAR","id":"125368","url":null},"recName":"Franklin Island","confidence":{"state":"pre-added","who":["ml:dpeker"],"prob":0.9558}}}},{"classId":"e_4","part":"s5v1","offsets":[{"start":2157,"text":"Ross Island"}],"coordinates":[],"confidence":{"state":"pre-added","who":["ml:dpeker"],"prob":0.9349},"fields":{},"normalizations":{"n_34":{"source":{"name":"GeoNamesSCAR","id":"130958","url":null},"recName":"Ross Island","confidence":{"state":"pre-added","who":["ml:dpeker"],"prob":0.9349}}}},{"classId":"e_4","part":"s5v1","offsets":[{"start":2170,"text":"Taylor Valley"}],"coordinates":[],"confidence":{"state":"pre-added","who":["ml:dpeker"],"prob":0.9472},"fields":{},"normalizations":{"n_34":{"source":{"name":"GeoNamesSCAR","id":"132512","url":null},"recName":"Taylor Valley","confidence":{"state":"pre-added","who":["ml:dpeker"],"prob":0.9472}}}},{"classId":"e_4","part":"s5v1","offsets":[{"start":2185,"text":"Marble Point"}],"coordinates":[],"confidence":{"state":"pre-added","who":["ml:dpeker"],"prob":0.9416},"fields":{},"normalizations":{"n_34":{"source":{"name":"GeoNamesSCAR","id":"113829","url":null},"recName":"Marble Point","confidence":{"state":"pre-added","who":["ml:dpeker"],"prob":0.9416}}}},{"classId":"e_4","part":"s5v1","offsets":[{"start":2199,"text":"Miers Valley"}],"coordinates":[],"confidence":{"state":"pre-added","who":["ml:dpeker"],"prob":0.9416},"fields":{},"normalizations":{"n_34":{"source":{"name":"GeoNamesSCAR","id":"128868","url":null},"recName":"Miers Valley","confidence":{"state":"pre-added","who":["ml:dpeker"],"prob":0.9416}}}},{"classId":"e_4","part":"s5v1","offsets":[{"start":2223,"text":"Granite Harbour."}],"coordinates":[{"x":"244.43","y":"430.28"},{"x":"315.57","y":"436.14"}],"confidence":{"state":"pre-added","who":["user:ICTAR"],"prob":1},"fields":{},"normalizations":{"n_34":{"source":{"name":"GeoNamesSCAR","id":"125876","url":null},"recName":"","confidence":{"state":"pre-added","who":["user:ICTAR"],"prob":1}}}},{"classId":"e_39","part":"s5v1","offsets":[{"start":2271,"text":"G. hodgsoni"}],"coordinates":[],"confidence":{"state":"pre-added","who":["ml:dpeker"],"prob":0.9349},"fields":{},"normalizations":{"n_44":{"source":{"name":"SpringtailNames","id":"Gohodg","url":null},"recName":"Gomphiocephalus hodgsoni","confidence":{"state":"pre-added","who":["ml:dpeker"],"prob":0.9349}}}},{"classId":"e_4","part":"s5v1","offsets":[{"start":2286,"text":"Taylor Valley"}],"coordinates":[],"confidence":{"state":"pre-added","who":["ml:dpeker"],"prob":0.9472},"fields":{},"normalizations":{"n_34":{"source":{"name":"GeoNamesSCAR","id":"132512","url":null},"recName":"Taylor Valley","confidence":{"state":"pre-added","who":["ml:dpeker"],"prob":0.9472}}}},{"classId":"e_4","part":"s5v1","offsets":[{"start":2536,"text":"Howard Glaciers"}],"coordinates":[],"confidence":{"state":"pre-added","who":["ml:dpeker"],"prob":0.8884},"fields":{},"normalizations":{"n_34":{"source":{"name":"GeoNamesSCAR","id":"126761","url":null},"recName":"Howard Glacier","confidence":{"state":"pre-added","who":["ml:dpeker"],"prob":0.8884}}}},{"classId":"e_38","part":"s5v1","offsets":[{"start":2566,"text":"S. mol- lis"}],"coordinates":[],"confidence":{"state":"pre-added","who":["ml:dpeker"],"prob":0.6956},"fields":{},"normalizations":{"n_43":{"source":{"name":"MiteNames","id":"Stmoll","url":null},"recName":"Stereotydeus mollis","confidence":{"state":"pre-added","who":["ml:dpeker"],"prob":0.6956}}}},{"classId":"e_4","part":"s5v1","offsets":[{"start":2612,"text":"Rhone Glacier"}],"coordinates":[],"confidence":{"state":"pre-added","who":["ml:dpeker"],"prob":0.9472},"fields":{},"normalizations":{"n_34":{"source":{"name":"GeoNamesSCAR","id":"130736","url":null},"recName":"Rhone Glacier","confidence":{"state":"pre-added","who":["ml:dpeker"],"prob":0.9472}}}},{"classId":"e_4","part":"s5v1","offsets":[{"start":2627,"text":"Canada Glacier"}],"coordinates":[],"confidence":{"state":"pre-added","who":["ml:dpeker"],"prob":0.9518},"fields":{},"normalizations":{"n_34":{"source":{"name":"GeoNamesSCAR","id":"123257","url":null},"recName":"Canada Glacier","confidence":{"state":"pre-added","who":["ml:dpeker"],"prob":0.9518}}}},{"classId":"e_4","part":"s5v1","offsets":[{"start":2646,"text":"Lake Chad"}],"coordinates":[],"confidence":{"state":"pre-added","who":["ml:dpeker"],"prob":0.9163},"fields":{},"normalizations":{"n_34":{"source":{"name":"GeoNamesSCAR","id":"123422","url":null},"recName":"Chad, Lake","confidence":{"state":"pre-added","who":["ml:dpeker"],"prob":0.9163}}}},{"classId":"e_4","part":"s5v1","offsets":[{"start":2802,"text":"Lake Chad"}],"coordinates":[],"confidence":{"state":"pre-added","who":["ml:dpeker"],"prob":0.9163},"fields":{},"normalizations":{"n_34":{"source":{"name":"GeoNamesSCAR","id":"123422","url":null},"recName":"Chad, Lake","confidence":{"state":"pre-added","who":["ml:dpeker"],"prob":0.9163}}}},{"classId":"e_38","part":"s5v1","offsets":[{"start":2821,"text":"S. mollis"}],"coordinates":[],"confidence":{"state":"pre-added","who":["ml:dpeker"],"prob":0.9163},"fields":{},"normalizations":{"n_43":{"source":{"name":"MiteNames","id":"Stmoll","url":null},"recName":"Stereotydeus mollis","confidence":{"state":"pre-added","who":["ml:dpeker"],"prob":0.9163}}}},{"classId":"e_39","part":"s5v1","offsets":[{"start":2847,"text":"G. hodgsoni"}],"coordinates":[],"confidence":{"state":"pre-added","who":["ml:dpeker"],"prob":0.9349},"fields":{},"normalizations":{"n_44":{"source":{"name":"SpringtailNames","id":"Gohodg","url":null},"recName":"Gomphiocephalus hodgsoni","confidence":{"state":"pre-added","who":["ml:dpeker"],"prob":0.9349}}}},{"classId":"e_39","part":"s5v1","offsets":[{"start":2903,"text":"G. hodg- soni"}],"coordinates":[],"confidence":{"state":"pre-added","who":["ml:dpeker"],"prob":0.7443},"fields":{},"normalizations":{"n_44":{"source":{"name":"SpringtailNames","id":"Gohodg","url":null},"recName":"Gomphiocephalus hodgsoni","confidence":{"state":"pre-added","who":["ml:dpeker"],"prob":0.7443}}}},{"classId":"e_4","part":"s5v1","offsets":[{"start":3157,"text":"Lake Bonney"}],"coordinates":[],"confidence":{"state":"pre-added","who":["ml:dpeker"],"prob":0.9349},"fields":{},"normalizations":{"n_34":{"source":{"name":"GeoNamesSCAR","id":"122715","url":null},"recName":"Bonney, Lake","confidence":{"state":"pre-added","who":["ml:dpeker"],"prob":0.9349}}}},{"classId":"e_4","part":"s5v1","offsets":[{"start":3271,"text":"Taylor Valley"}],"coordinates":[],"confidence":{"state":"pre-added","who":["ml:dpeker"],"prob":0.9472},"fields":{},"normalizations":{"n_34":{"source":{"name":"GeoNamesSCAR","id":"132512","url":null},"recName":"Taylor Valley","confidence":{"state":"pre-added","who":["ml:dpeker"],"prob":0.9472}}}},{"classId":"e_4","part":"s6v1","offsets":[{"start":75,"text":"Taylor Valley"}],"coordinates":[],"confidence":{"state":"pre-added","who":["ml:dpeker"],"prob":0.9472},"fields":{},"normalizations":{"n_34":{"source":{"name":"GeoNamesSCAR","id":"132512","url":null},"recName":"Taylor Valley","confidence":{"state":"pre-added","who":["ml:dpeker"],"prob":0.9472}}}},{"classId":"e_4","part":"s7v1","offsets":[{"start":188,"text":"Taylor Valley"}],"coordinates":[],"confidence":{"state":"pre-added","who":["ml:dpeker"],"prob":0.9472},"fields":{},"normalizations":{"n_34":{"source":{"name":"GeoNamesSCAR","id":"132512","url":null},"recName":"Taylor Valley","confidence":{"state":"pre-added","who":["ml:dpeker"],"prob":0.9472}}}},{"classId":"e_39","part":"s7v1","offsets":[{"start":465,"text":"N. nivicolus"}],"coordinates":[],"confidence":{"state":"pre-added","who":["ml:dpeker"],"prob":0.9416},"fields":{},"normalizations":{"n_44":{"source":{"name":"SpringtailNames","id":"Nenivi","url":null},"recName":"Neocryptus nivicolus","confidence":{"state":"pre-added","who":["ml:dpeker"],"prob":0.9416}}}},{"classId":"e_4","part":"s7v1","offsets":[{"start":481,"text":"Cape Geol- ogy"}],"coordinates":[],"confidence":{"state":"pre-added","who":["ml:dpeker"],"prob":0.7634},"fields":{},"normalizations":{"n_34":{"source":{"name":"GeoNamesSCAR","id":"125618","url":null},"recName":"Geology, Cape","confidence":{"state":"pre-added","who":["ml:dpeker"],"prob":0.7634}}}},{"classId":"e_39","part":"s7v1","offsets":[{"start":526,"text":"G. hodgsoni"}],"coordinates":[],"confidence":{"state":"pre-added","who":["ml:dpeker"],"prob":0.9349},"fields":{},"normalizations":{"n_44":{"source":{"name":"SpringtailNames","id":"Gohodg","url":null},"recName":"Gomphiocephalus hodgsoni","confidence":{"state":"pre-added","who":["ml:dpeker"],"prob":0.9349}}}},{"classId":"e_39","part":"s7v1","offsets":[{"start":676,"text":"N. nivicolus"}],"coordinates":[],"confidence":{"state":"pre-added","who":["ml:dpeker"],"prob":0.9416},"fields":{},"normalizations":{"n_44":{"source":{"name":"SpringtailNames","id":"Nenivi","url":null},"recName":"Neocryptus nivicolus","confidence":{"state":"pre-added","who":["ml:dpeker"],"prob":0.9416}}}},{"classId":"e_39","part":"s7v1","offsets":[{"start":693,"text":"G. hodgsoni"}],"coordinates":[],"confidence":{"state":"pre-added","who":["ml:dpeker"],"prob":0.9349},"fields":{},"normalizations":{"n_44":{"source":{"name":"SpringtailNames","id":"Gohodg","url":null},"recName":"Gomphiocephalus hodgsoni","confidence":{"state":"pre-added","who":["ml:dpeker"],"prob":0.9349}}}},{"classId":"e_4","part":"s7v1","offsets":[{"start":751,"text":"Mt. Seuss"}],"coordinates":[{"x":"109.76","y":"185.67"},{"x":"150.71","y":"191.53"}],"confidence":{"state":"pre-added","who":["user:ICTAR"],"prob":1},"fields":{},"normalizations":{"n_52":{"source":{"name":"GeoNamesCustom","id":"CKL004","url":null},"recName":"","confidence":{"state":"pre-added","who":["user:charlesklee"],"prob":1}}}},{"classId":"e_4","part":"s7v1","offsets":[{"start":765,"text":"Convoy Range"}],"coordinates":[],"confidence":{"state":"pre-added","who":["ml:dpeker"],"prob":0.9416},"fields":{},"normalizations":{"n_34":{"source":{"name":"GeoNamesSCAR","id":"123771","url":null},"recName":"Convoy Range","confidence":{"state":"pre-added","who":["ml:dpeker"],"prob":0.9416}}}},{"classId":"e_4","part":"s7v1","offsets":[{"start":849,"text":"Cape Geology"}],"coordinates":[],"confidence":{"state":"pre-added","who":["ml:dpeker"],"prob":0.9416},"fields":{},"normalizations":{"n_34":{"source":{"name":"GeoNamesSCAR","id":"125618","url":null},"recName":"Geology, Cape","confidence":{"state":"pre-added","who":["ml:dpeker"],"prob":0.9416}}}},{"classId":"e_39","part":"s7v1","offsets":[{"start":879,"text":"N. nivicolus"}],"coordinates":[],"confidence":{"state":"pre-added","who":["ml:dpeker"],"prob":0.9416},"fields":{},"normalizations":{"n_44":{"source":{"name":"SpringtailNames","id":"Nenivi","url":null},"recName":"Neocryptus nivicolus","confidence":{"state":"pre-added","who":["ml:dpeker"],"prob":0.9416}}}},{"classId":"e_4","part":"s7v1","offsets":[{"start":900,"text":"Mt. England"}],"coordinates":[{"x":"49.08","y":"211.21"},{"x":"102.08","y":"217.07"}],"confidence":{"state":"pre-added","who":["user:ICTAR"],"prob":1},"fields":{},"normalizations":{"n_34":{"source":{"name":"GeoNamesSCAR","id":"113242","url":null},"recName":"","confidence":{"state":"pre-added","who":["user:ICTAR"],"prob":1}}}},{"classId":"e_39","part":"s7v1","offsets":[{"start":929,"text":"G. hodgsoni"}],"coordinates":[],"confidence":{"state":"pre-added","who":["ml:dpeker"],"prob":0.9349},"fields":{},"normalizations":{"n_44":{"source":{"name":"SpringtailNames","id":"Gohodg","url":null},"recName":"Gomphiocephalus hodgsoni","confidence":{"state":"pre-added","who":["ml:dpeker"],"prob":0.9349}}}},{"classId":"e_39","part":"s7v1","offsets":[{"start":942,"text":"N. nivicolus"}],"coordinates":[],"confidence":{"state":"pre-added","who":["ml:dpeker"],"prob":0.9416},"fields":{},"normalizations":{"n_44":{"source":{"name":"SpringtailNames","id":"Nenivi","url":null},"recName":"Neocryptus nivicolus","confidence":{"state":"pre-added","who":["ml:dpeker"],"prob":0.9416}}}},{"classId":"e_4","part":"s7v1","offsets":[{"start":994,"text":"Cape Crozier"}],"coordinates":[],"confidence":{"state":"pre-added","who":["ml:dpeker"],"prob":0.9416},"fields":{},"normalizations":{"n_34":{"source":{"name":"GeoNamesSCAR","id":"123976","url":null},"recName":"Crozier, Cape","confidence":{"state":"pre-added","who":["ml:dpeker"],"prob":0.9416}}}},{"classId":"e_39","part":"s7v1","offsets":[{"start":1047,"text":"N. nivicolus"}],"coordinates":[],"confidence":{"state":"pre-added","who":["ml:dpeker"],"prob":0.9416},"fields":{},"normalizations":{"n_44":{"source":{"name":"SpringtailNames","id":"Nenivi","url":null},"recName":"Neocryptus nivicolus","confidence":{"state":"pre-added","who":["ml:dpeker"],"prob":0.9416}}}},{"classId":"e_4","part":"s7v1","offsets":[{"start":1277,"text":"McMurdo Station"}],"coordinates":[],"confidence":{"state":"pre-added","who":["ml:dpeker"],"prob":0.9558},"fields":{},"normalizations":{"n_34":{"source":{"name":"GeoNamesSCAR","id":"128725","url":null},"recName":"McMurdo Station","confidence":{"state":"pre-added","who":["ml:dpeker"],"prob":0.9558}}}},{"classId":"e_4","part":"s7v1","offsets":[{"start":1335,"text":"Marble Point"}],"coordinates":[],"confidence":{"state":"pre-added","who":["ml:dpeker"],"prob":0.9416},"fields":{},"normalizations":{"n_34":{"source":{"name":"GeoNamesSCAR","id":"113829","url":null},"recName":"Marble Point","confidence":{"state":"pre-added","who":["ml:dpeker"],"prob":0.9416}}}},{"classId":"e_38","part":"s7v1","offsets":[{"start":1627,"text":"S. mollis"}],"coordinates":[],"confidence":{"state":"pre-added","who":["ml:dpeker"],"prob":0.9163},"fields":{},"normalizations":{"n_43":{"source":{"name":"MiteNames","id":"Stmoll","url":null},"recName":"Stereotydeus mollis","confidence":{"state":"pre-added","who":["ml:dpeker"],"prob":0.9163}}}},{"classId":"e_4","part":"s7v1","offsets":[{"start":1644,"text":"McMurdo Station"}],"coordinates":[],"confidence":{"state":"pre-added","who":["ml:dpeker"],"prob":0.9558},"fields":{},"normalizations":{"n_34":{"source":{"name":"GeoNamesSCAR","id":"128725","url":null},"recName":"McMurdo Station","confidence":{"state":"pre-added","who":["ml:dpeker"],"prob":0.9558}}}},{"classId":"e_39","part":"s7v1","offsets":[{"start":1789,"text":"G. hodgsoni"}],"coordinates":[],"confidence":{"state":"pre-added","who":["ml:dpeker"],"prob":0.9349},"fields":{},"normalizations":{"n_44":{"source":{"name":"SpringtailNames","id":"Gohodg","url":null},"recName":"Gomphiocephalus hodgsoni","confidence":{"state":"pre-added","who":["ml:dpeker"],"prob":0.9349}}}},{"classId":"e_4","part":"s7v1","offsets":[{"start":1820,"text":"Marble Point"}],"coordinates":[],"confidence":{"state":"pre-added","who":["ml:dpeker"],"prob":0.9416},"fields":{},"normalizations":{"n_34":{"source":{"name":"GeoNamesSCAR","id":"113829","url":null},"recName":"Marble Point","confidence":{"state":"pre-added","who":["ml:dpeker"],"prob":0.9416}}}},{"classId":"e_4","part":"s7v1","offsets":[{"start":1836,"text":"Gneiss Point"}],"coordinates":[],"confidence":{"state":"pre-added","who":["ml:dpeker"],"prob":0.9416},"fields":{},"normalizations":{"n_34":{"source":{"name":"GeoNamesSCAR","id":"125754","url":null},"recName":"Gneiss Point","confidence":{"state":"pre-added","who":["ml:dpeker"],"prob":0.9416}}}},{"classId":"e_4","part":"s7v1","offsets":[{"start":1916,"text":"Wilson Piedmont Glacier"}],"coordinates":[],"confidence":{"state":"pre-added","who":["ml:dpeker"],"prob":0.9741},"fields":{},"normalizations":{"n_34":{"source":{"name":"GeoNamesSCAR","id":"133762","url":null},"recName":"Wilson Piedmont Glacier","confidence":{"state":"pre-added","who":["ml:dpeker"],"prob":0.9741}}}},{"classId":"e_4","part":"s7v1","offsets":[{"start":2269,"text":"Marble Point"}],"coordinates":[],"confidence":{"state":"pre-added","who":["ml:dpeker"],"prob":0.9416},"fields":{},"normalizations":{"n_34":{"source":{"name":"GeoNamesSCAR","id":"113829","url":null},"recName":"Marble Point","confidence":{"state":"pre-added","who":["ml:dpeker"],"prob":0.9416}}}},{"classId":"e_4","part":"s7v1","offsets":[{"start":2583,"text":"Lakes Chad"}],"coordinates":[],"confidence":{"state":"pre-added","who":["ml:dpeker"],"prob":0.8247},"fields":{},"normalizations":{"n_34":{"source":{"name":"GeoNamesSCAR","id":"123422","url":null},"recName":"Chad, Lake","confidence":{"state":"pre-added","who":["ml:dpeker"],"prob":0.8247}}}},{"classId":"e_4","part":"s7v1","offsets":[{"start":2608,"text":"Taylor Valley"}],"coordinates":[],"confidence":{"state":"pre-added","who":["ml:dpeker"],"prob":0.9472},"fields":{},"normalizations":{"n_34":{"source":{"name":"GeoNamesSCAR","id":"132512","url":null},"recName":"Taylor Valley","confidence":{"state":"pre-added","who":["ml:dpeker"],"prob":0.9472}}}},{"classId":"e_4","part":"s7v1","offsets":[{"start":2627,"text":"Cape Geology"}],"coordinates":[],"confidence":{"state":"pre-added","who":["ml:dpeker"],"prob":0.9416},"fields":{},"normalizations":{"n_34":{"source":{"name":"GeoNamesSCAR","id":"125618","url":null},"recName":"Geology, Cape","confidence":{"state":"pre-added","who":["ml:dpeker"],"prob":0.9416}}}},{"classId":"e_4","part":"s7v1","offsets":[{"start":2803,"text":"McMurdo Station"}],"coordinates":[],"confidence":{"state":"pre-added","who":["ml:dpeker"],"prob":0.9558},"fields":{},"normalizations":{"n_34":{"source":{"name":"GeoNamesSCAR","id":"128725","url":null},"recName":"McMurdo Station","confidence":{"state":"pre-added","who":["ml:dpeker"],"prob":0.9558}}}},{"classId":"e_4","part":"s8v1","offsets":[{"start":143,"text":"Beau- fort Island"}],"coordinates":[],"confidence":{"state":"pre-added","who":["ml:dpeker"],"prob":0.8068},"fields":{},"normalizations":{"n_34":{"source":{"name":"GeoNamesSCAR","id":"122323","url":null},"recName":"Beaufort Island","confidence":{"state":"pre-added","who":["ml:dpeker"],"prob":0.8068}}}},{"classId":"e_4","part":"s8v1","offsets":[{"start":1074,"text":"Marble Point"}],"coordinates":[],"confidence":{"state":"pre-added","who":["ml:dpeker"],"prob":0.9416},"fields":{},"normalizations":{"n_34":{"source":{"name":"GeoNamesSCAR","id":"113829","url":null},"recName":"Marble Point","confidence":{"state":"pre-added","who":["ml:dpeker"],"prob":0.9416}}}},{"classId":"e_4","part":"s8v1","offsets":[{"start":1420,"text":"McMurdo sound"}],"coordinates":[],"confidence":{"state":"pre-added","who":["ml:dpeker"],"prob":0.9107},"fields":{},"normalizations":{"n_34":{"source":{"name":"GeoNamesSCAR","id":"128724","url":null},"recName":"McMurdo Sound","confidence":{"state":"pre-added","who":["ml:dpeker"],"prob":0.9107}}}},{"classId":"e_4","part":"s8v1","offsets":[{"start":1794,"text":"McMurdo sound"}],"coordinates":[],"confidence":{"state":"pre-added","who":["ml:dpeker"],"prob":0.9107},"fields":{},"normalizations":{"n_34":{"source":{"name":"GeoNamesSCAR","id":"128724","url":null},"recName":"McMurdo Sound","confidence":{"state":"pre-added","who":["ml:dpeker"],"prob":0.9107}}}},{"classId":"e_4","part":"s8v1","offsets":[{"start":1990,"text":"Cape Geology"}],"coordinates":[],"confidence":{"state":"pre-added","who":["ml:dpeker"],"prob":0.9416},"fields":{},"normalizations":{"n_34":{"source":{"name":"GeoNamesSCAR","id":"125618","url":null},"recName":"Geology, Cape","confidence":{"state":"pre-added","who":["ml:dpeker"],"prob":0.9416}}}},{"classId":"e_4","part":"s9v1","offsets":[{"start":227,"text":"Taylor Valley"}],"coordinates":[],"confidence":{"state":"pre-added","who":["ml:dpeker"],"prob":0.9472},"fields":{},"normalizations":{"n_34":{"source":{"name":"GeoNamesSCAR","id":"132512","url":null},"recName":"Taylor Valley","confidence":{"state":"pre-added","who":["ml:dpeker"],"prob":0.9472}}}},{"classId":"e_4","part":"s9v1","offsets":[{"start":944,"text":"Canada Glacier"}],"coordinates":[],"confidence":{"state":"pre-added","who":["ml:dpeker"],"prob":0.9518},"fields":{},"normalizations":{"n_34":{"source":{"name":"GeoNamesSCAR","id":"123257","url":null},"recName":"Canada Glacier","confidence":{"state":"pre-added","who":["ml:dpeker"],"prob":0.9518}}}},{"classId":"e_4","part":"s9v1","offsets":[{"start":1265,"text":"Ross Dependency"}],"coordinates":[],"confidence":{"state":"pre-added","who":["ml:dpeker"],"prob":0.9558},"fields":{},"normalizations":{"n_34":{"source":{"name":"GeoNamesSCAR","id":"134188","url":null},"recName":"Ross Dependency","confidence":{"state":"pre-added","who":["ml:dpeker"],"prob":0.9558}}}},{"classId":"e_4","part":"s9v1","offsets":[{"start":2625,"text":"McMurdo Sound"}],"coordinates":[],"confidence":{"state":"pre-added","who":["ml:dpeker"],"prob":0.9472},"fields":{},"normalizations":{"n_34":{"source":{"name":"GeoNamesSCAR","id":"128724","url":null},"recName":"McMurdo Sound","confidence":{"state":"pre-added","who":["ml:dpeker"],"prob":0.9472}}}},{"classId":"e_39","part":"s10v1","offsets":[{"start":154,"text":"Gomphiocephalus hodgsoni"}],"coordinates":[],"confidence":{"state":"pre-added","who":["ml:dpeker"],"prob":0.9754},"fields":{},"normalizations":{"n_44":{"source":{"name":"SpringtailNames","id":"Gohodg","url":null},"recName":"Gomphiocephalus hodgsoni","confidence":{"state":"pre-added","who":["ml:dpeker"],"prob":0.9754}}}},{"classId":"e_39","part":"s10v1","offsets":[{"start":184,"text":"Neocryp- topygus nivicolus"}],"coordinates":[],"confidence":{"state":"pre-added","who":["ml:dpeker"],"prob":0.876},"fields":{},"normalizations":{"n_44":{"source":{"name":"SpringtailNames","id":"Nenivi","url":null},"recName":"Neocryptus nivicolus","confidence":{"state":"pre-added","who":["ml:dpeker"],"prob":0.876}}}},{"classId":"e_38","part":"s10v1","offsets":[{"start":220,"text":"Stereotydeus mollis"}],"coordinates":[],"confidence":{"state":"pre-added","who":["ml:dpeker"],"prob":0.9671},"fields":{},"normalizations":{"n_43":{"source":{"name":"MiteNames","id":"Stmoll","url":null},"recName":"Stereotydeus mollis","confidence":{"state":"pre-added","who":["ml:dpeker"],"prob":0.9671}}}},{"classId":"e_4","part":"s10v1","offsets":[{"start":285,"text":"Beaufort Island"}],"coordinates":[],"confidence":{"state":"pre-added","who":["ml:dpeker"],"prob":0.9558},"fields":{},"normalizations":{"n_34":{"source":{"name":"GeoNamesSCAR","id":"122323","url":null},"recName":"Beaufort Island","confidence":{"state":"pre-added","who":["ml:dpeker"],"prob":0.9558}}}},{"classId":"e_5","part":"s10v1","offsets":[{"start":309,"text":"7655.906 16654.808"}],"coordinates":[{"x":"289.14","y":"125.35"},{"x":"412.33","y":"131.21"}],"confidence":{"state":"pre-added","who":["user:ICTAR"],"prob":1},"fields":{},"normalizations":{}},{"classId":"e_4","part":"s10v1","offsets":[{"start":332,"text":"Cape Bird"}],"coordinates":[],"confidence":{"state":"pre-added","who":["ml:dpeker"],"prob":0.9163},"fields":{},"normalizations":{"n_34":{"source":{"name":"GeoNamesSCAR","id":"122545","url":null},"recName":"Bird, Cape","confidence":{"state":"pre-added","who":["ml:dpeker"],"prob":0.9163}}}},{"classId":"e_5","part":"s10v1","offsets":[{"start":350,"text":"7713.266 16626.810"}],"coordinates":[{"x":"289.13","y":"136.35"},{"x":"412.33","y":"142.21"}],"confidence":{"state":"pre-added","who":["user:ICTAR"],"prob":1},"fields":{},"normalizations":{}},{"classId":"e_4","part":"s10v1","offsets":[{"start":373,"text":"Cape Royds"}],"coordinates":[],"confidence":{"state":"pre-added","who":["ml:dpeker"],"prob":0.9266},"fields":{},"normalizations":{"n_34":{"source":{"name":"GeoNamesSCAR","id":"131005","url":null},"recName":"Royds, Cape","confidence":{"state":"pre-added","who":["ml:dpeker"],"prob":0.9266}}}},{"classId":"e_5","part":"s10v1","offsets":[{"start":390,"text":"7732.760 16609.779"}],"coordinates":[{"x":"289.13","y":"147.35"},{"x":"412.33","y":"153.21"}],"confidence":{"state":"pre-added","who":["user:ICTAR"],"prob":1},"fields":{},"normalizations":{}},{"classId":"e_5","part":"s10v1","offsets":[{"start":419,"text":"7732.712 16609.538"}],"coordinates":[{"x":"289.13","y":"158.35"},{"x":"412.33","y":"164.21"}],"confidence":{"state":"pre-added","who":["user:ICTAR"],"prob":1},"fields":{},"normalizations":{}},{"classId":"e_5","part":"s10v1","offsets":[{"start":448,"text":"7732.949 16609.429"}],"coordinates":[{"x":"289.13","y":"169.35"},{"x":"412.33","y":"175.21"}],"confidence":{"state":"pre-added","who":["user:ICTAR"],"prob":1},"fields":{},"normalizations":{}},{"classId":"e_5","part":"s10v1","offsets":[{"start":476,"text":"7732.783 16609.130"}],"coordinates":[{"x":"289.13","y":"180.35"},{"x":"412.33","y":"186.21"}],"confidence":{"state":"pre-added","who":["user:ICTAR"],"prob":1},"fields":{},"normalizations":{}},{"classId":"e_5","part":"s10v1","offsets":[{"start":504,"text":"7732.555 16609.312"}],"coordinates":[{"x":"289.13","y":"191.35"},{"x":"412.33","y":"197.21"}],"confidence":{"state":"pre-added","who":["user:ICTAR"],"prob":1},"fields":{},"normalizations":{}},{"classId":"e_5","part":"s10v1","offsets":[{"start":532,"text":"7732.421 16609.190"}],"coordinates":[{"x":"289.13","y":"202.35"},{"x":"412.33","y":"208.21"}],"confidence":{"state":"pre-added","who":["user:ICTAR"],"prob":1},"fields":{},"normalizations":{}},{"classId":"e_5","part":"s10v1","offsets":[{"start":560,"text":"7732.339 16609.400"}],"coordinates":[{"x":"289.13","y":"213.35"},{"x":"412.33","y":"219.21"}],"confidence":{"state":"pre-added","who":["user:ICTAR"],"prob":1},"fields":{},"normalizations":{}},{"classId":"e_5","part":"s10v1","offsets":[{"start":588,"text":"7733.074 16612.454"}],"coordinates":[{"x":"289.13","y":"224.35"},{"x":"411.94","y":"230.21"}],"confidence":{"state":"pre-added","who":["user:ICTAR"],"prob":1},"fields":{},"normalizations":{}},{"classId":"e_5","part":"s10v1","offsets":[{"start":617,"text":"7733.705 16614.325"}],"coordinates":[{"x":"289.13","y":"235.35"},{"x":"411.94","y":"241.21"}],"confidence":{"state":"pre-added","who":["user:ICTAR"],"prob":1},"fields":{},"normalizations":{}},{"classId":"e_5","part":"s10v1","offsets":[{"start":648,"text":"7733.905 16613.748"}],"coordinates":[{"x":"289.13","y":"246.35"},{"x":"411.94","y":"252.21"}],"confidence":{"state":"pre-added","who":["user:ICTAR"],"prob":1},"fields":{},"normalizations":{}},{"classId":"e_5","part":"s10v1","offsets":[{"start":679,"text":"7733.933 16613.822"}],"coordinates":[{"x":"289.13","y":"257.35"},{"x":"411.94","y":"263.21"}],"confidence":{"state":"pre-added","who":["user:ICTAR"],"prob":1},"fields":{},"normalizations":{}},{"classId":"e_5","part":"s10v1","offsets":[{"start":710,"text":"7734.009 16613.736"}],"coordinates":[{"x":"289.13","y":"268.35"},{"x":"411.94","y":"274.21"}],"confidence":{"state":"pre-added","who":["user:ICTAR"],"prob":1},"fields":{},"normalizations":{}},{"classId":"e_5","part":"s10v1","offsets":[{"start":739,"text":"7734.187 16614.204"}],"coordinates":[{"x":"289.13","y":"279.35"},{"x":"411.94","y":"285.21"}],"confidence":{"state":"pre-added","who":["user:ICTAR"],"prob":1},"fields":{},"normalizations":{}},{"classId":"e_4","part":"s10v1","offsets":[{"start":762,"text":"Cape Evans"}],"coordinates":[],"confidence":{"state":"pre-added","who":["ml:dpeker"],"prob":0.9266},"fields":{},"normalizations":{"n_34":{"source":{"name":"GeoNamesSCAR","id":"113260","url":null},"recName":"Evans, Cape","confidence":{"state":"pre-added","who":["ml:dpeker"],"prob":0.9266}}}},{"classId":"e_5","part":"s10v1","offsets":[{"start":780,"text":"7738.119 16626.315"}],"coordinates":[{"x":"289.14","y":"290.35"},{"x":"412.33","y":"296.21"}],"confidence":{"state":"pre-added","who":["user:ICTAR"],"prob":1},"fields":{},"normalizations":{}},{"classId":"e_5","part":"s10v1","offsets":[{"start":810,"text":"7738.033 16626.551"}],"coordinates":[{"x":"289.14","y":"301.35"},{"x":"412.33","y":"307.21"}],"confidence":{"state":"pre-added","who":["user:ICTAR"],"prob":1},"fields":{},"normalizations":{}},{"classId":"e_5","part":"s10v1","offsets":[{"start":840,"text":"7734.187 16614.204"}],"coordinates":[{"x":"289.14","y":"312.35"},{"x":"411.94","y":"318.21"}],"confidence":{"state":"pre-added","who":["user:ICTAR"],"prob":1},"fields":{},"normalizations":{}},{"classId":"e_4","part":"s10v1","offsets":[{"start":863,"text":"Observation Hill"}],"coordinates":[],"confidence":{"state":"pre-added","who":["ml:dpeker"],"prob":0.9592},"fields":{},"normalizations":{"n_34":{"source":{"name":"GeoNamesSCAR","id":"129597","url":null},"recName":"Observation Hill","confidence":{"state":"pre-added","who":["ml:dpeker"],"prob":0.9592}}}},{"classId":"e_5","part":"s10v1","offsets":[{"start":886,"text":"7751.174 16640.804"}],"coordinates":[{"x":"289.13","y":"323.35"},{"x":"412.33","y":"329.21"}],"confidence":{"state":"pre-added","who":["user:ICTAR"],"prob":1},"fields":{},"normalizations":{}},{"classId":"e_4","part":"s10v1","offsets":[{"start":909,"text":"Cape Crozier"}],"coordinates":[],"confidence":{"state":"pre-added","who":["ml:dpeker"],"prob":0.9416},"fields":{},"normalizations":{"n_34":{"source":{"name":"GeoNamesSCAR","id":"123976","url":null},"recName":"Crozier, Cape","confidence":{"state":"pre-added","who":["ml:dpeker"],"prob":0.9416}}}},{"classId":"e_5","part":"s10v1","offsets":[{"start":930,"text":"7727.795 16911.812"}],"coordinates":[{"x":"289.13","y":"334.35"},{"x":"411.55","y":"340.21"}],"confidence":{"state":"pre-added","who":["user:ICTAR"],"prob":1},"fields":{},"normalizations":{}},{"classId":"e_4","part":"s10v1","offsets":[{"start":953,"text":"Igloo Spur"}],"coordinates":[],"confidence":{"state":"pre-added","who":["ml:dpeker"],"prob":0.9266},"fields":{},"normalizations":{"n_34":{"source":{"name":"GeoNamesSCAR","id":"126910","url":null},"recName":"Igloo Spur","confidence":{"state":"pre-added","who":["ml:dpeker"],"prob":0.9266}}}},{"classId":"e_5","part":"s10v1","offsets":[{"start":972,"text":"7731.748 16917.208"}],"coordinates":[{"x":"289.14","y":"345.35"},{"x":"411.95","y":"351.21"}],"confidence":{"state":"pre-added","who":["user:ICTAR"],"prob":1},"fields":{},"normalizations":{}},{"classId":"e_4","part":"s10v1","offsets":[{"start":995,"text":"Granite Harbour"}],"coordinates":[{"x":"76.54","y":"356.15"},{"x":"153.81","y":"362.20"}],"confidence":{"state":"pre-added","who":["user:ICTAR"],"prob":1},"fields":{},"normalizations":{"n_34":{"source":{"name":"GeoNamesSCAR","id":"125876","url":null},"recName":"","confidence":{"state":"pre-added","who":["user:ICTAR"],"prob":1}}}},{"classId":"e_4","part":"s10v1","offsets":[{"start":1011,"text":"Cape Geology"}],"coordinates":[],"confidence":{"state":"pre-added","who":["ml:dpeker"],"prob":0.9416},"fields":{},"normalizations":{"n_34":{"source":{"name":"GeoNamesSCAR","id":"125618","url":null},"recName":"Geology, Cape","confidence":{"state":"pre-added","who":["ml:dpeker"],"prob":0.9416}}}},{"classId":"e_5","part":"s10v1","offsets":[{"start":1031,"text":"7700.863 16236.086"}],"coordinates":[{"x":"289.14","y":"367.35"},{"x":"412.34","y":"373.21"}],"confidence":{"state":"pre-added","who":["user:ICTAR"],"prob":1},"fields":{},"normalizations":{}},{"classId":"e_5","part":"s10v1","offsets":[{"start":1061,"text":"7700.882 16236.025"}],"coordinates":[{"x":"289.14","y":"378.35"},{"x":"412.33","y":"384.21"}],"confidence":{"state":"pre-added","who":["user:ICTAR"],"prob":1},"fields":{},"normalizations":{}},{"classId":"e_5","part":"s10v1","offsets":[{"start":1091,"text":"7700.920 16235.914"}],"coordinates":[{"x":"289.14","y":"389.35"},{"x":"412.33","y":"395.21"}],"confidence":{"state":"pre-added","who":["user:ICTAR"],"prob":1},"fields":{},"normalizations":{}},{"classId":"e_5","part":"s10v1","offsets":[{"start":1123,"text":"7700.957 16235.819"}],"coordinates":[{"x":"289.14","y":"400.35"},{"x":"412.33","y":"406.21"}],"confidence":{"state":"pre-added","who":["user:ICTAR"],"prob":1},"fields":{},"normalizations":{}},{"classId":"e_5","part":"s10v1","offsets":[{"start":1155,"text":"7700.942 16235.767"}],"coordinates":[{"x":"289.14","y":"411.35"},{"x":"412.33","y":"417.21"}],"confidence":{"state":"pre-added","who":["user:ICTAR"],"prob":1},"fields":{},"normalizations":{}},{"classId":"e_5","part":"s10v1","offsets":[{"start":1187,"text":"7700.834 16234.580"}],"coordinates":[{"x":"289.14","y":"422.35"},{"x":"412.33","y":"428.21"}],"confidence":{"state":"pre-added","who":["user:ICTAR"],"prob":1},"fields":{},"normalizations":{}},{"classId":"e_5","part":"s10v1","offsets":[{"start":1219,"text":"7700.738 16234.267"}],"coordinates":[{"x":"289.14","y":"433.35"},{"x":"412.33","y":"439.21"}],"confidence":{"state":"pre-added","who":["user:ICTAR"],"prob":1},"fields":{},"normalizations":{}},{"classId":"e_5","part":"s10v1","offsets":[{"start":1249,"text":"7700.635 16233.771"}],"coordinates":[{"x":"289.14","y":"444.35"},{"x":"412.33","y":"450.21"}],"confidence":{"state":"pre-added","who":["user:ICTAR"],"prob":1},"fields":{},"normalizations":{}},{"classId":"e_5","part":"s10v1","offsets":[{"start":1279,"text":"7700.534 16233.464"}],"coordinates":[{"x":"289.14","y":"455.35"},{"x":"412.33","y":"461.21"}],"confidence":{"state":"pre-added","who":["user:ICTAR"],"prob":1},"fields":{},"normalizations":{}},{"classId":"e_5","part":"s10v1","offsets":[{"start":1310,"text":"7700.470 16233.450"}],"coordinates":[{"x":"289.14","y":"466.35"},{"x":"412.33","y":"472.21"}],"confidence":{"state":"pre-added","who":["user:ICTAR"],"prob":1},"fields":{},"normalizations":{}},{"classId":"e_5","part":"s10v1","offsets":[{"start":1341,"text":"7700.500 16233.274"}],"coordinates":[{"x":"289.13","y":"477.35"},{"x":"412.33","y":"483.21"}],"confidence":{"state":"pre-added","who":["user:ICTAR"],"prob":1},"fields":{},"normalizations":{}},{"classId":"e_5","part":"s10v1","offsets":[{"start":1372,"text":"7700.511 16233.058"}],"coordinates":[{"x":"289.14","y":"488.35"},{"x":"412.33","y":"494.21"}],"confidence":{"state":"pre-added","who":["user:ICTAR"],"prob":1},"fields":{},"normalizations":{}},{"classId":"e_5","part":"s10v1","offsets":[{"start":1403,"text":"7700.534 16232.776"}],"coordinates":[{"x":"289.14","y":"499.35"},{"x":"412.33","y":"505.21"}],"confidence":{"state":"pre-added","who":["user:ICTAR"],"prob":1},"fields":{},"normalizations":{}},{"classId":"e_5","part":"s10v1","offsets":[{"start":1434,"text":"7700.548 16232.614"}],"coordinates":[{"x":"289.14","y":"510.35"},{"x":"412.33","y":"516.21"}],"confidence":{"state":"pre-added","who":["user:ICTAR"],"prob":1},"fields":{},"normalizations":{}},{"classId":"e_5","part":"s10v1","offsets":[{"start":1465,"text":"7700.562 16232.469"}],"coordinates":[{"x":"289.14","y":"521.35"},{"x":"412.33","y":"527.21"}],"confidence":{"state":"pre-added","who":["user:ICTAR"],"prob":1},"fields":{},"normalizations":{}},{"classId":"e_5","part":"s10v1","offsets":[{"start":1498,"text":"7700.591 16232.317"}],"coordinates":[{"x":"289.14","y":"532.35"},{"x":"412.33","y":"538.21"}],"confidence":{"state":"pre-added","who":["user:ICTAR"],"prob":1},"fields":{},"normalizations":{}},{"classId":"e_5","part":"s10v1","offsets":[{"start":1531,"text":"7700.579 16232.246"}],"coordinates":[{"x":"289.14","y":"543.35"},{"x":"412.33","y":"549.21"}],"confidence":{"state":"pre-added","who":["user:ICTAR"],"prob":1},"fields":{},"normalizations":{}},{"classId":"e_5","part":"s10v1","offsets":[{"start":1564,"text":"7700.562 16232.204"}],"coordinates":[{"x":"289.14","y":"554.35"},{"x":"412.33","y":"560.21"}],"confidence":{"state":"pre-added","who":["user:ICTAR"],"prob":1},"fields":{},"normalizations":{}},{"classId":"e_5","part":"s10v1","offsets":[{"start":1597,"text":"7700.552 16232.161"}],"coordinates":[{"x":"289.14","y":"565.34"},{"x":"412.33","y":"571.20"}],"confidence":{"state":"pre-added","who":["user:ICTAR"],"prob":1},"fields":{},"normalizations":{}},{"classId":"e_5","part":"s10v1","offsets":[{"start":1628,"text":"7700.525 16232.105"}],"coordinates":[{"x":"289.14","y":"576.34"},{"x":"412.33","y":"582.20"}],"confidence":{"state":"pre-added","who":["user:ICTAR"],"prob":1},"fields":{},"normalizations":{}},{"classId":"e_5","part":"s10v1","offsets":[{"start":1661,"text":"7700.742 16233.597"}],"coordinates":[{"x":"289.14","y":"587.34"},{"x":"412.33","y":"593.20"}],"confidence":{"state":"pre-added","who":["user:ICTAR"],"prob":1},"fields":{},"normalizations":{}},{"classId":"e_4","part":"s10v1","offsets":[{"start":1684,"text":"Botany Bay"}],"coordinates":[],"confidence":{"state":"pre-added","who":["ml:dpeker"],"prob":0.9266},"fields":{},"normalizations":{"n_34":{"source":{"name":"GeoNamesSCAR","id":"112844","url":null},"recName":"Botany Bay","confidence":{"state":"pre-added","who":["ml:dpeker"],"prob":0.9266}}}},{"classId":"e_5","part":"s10v1","offsets":[{"start":1703,"text":"7700.402 16239.310"}],"coordinates":[{"x":"289.14","y":"598.34"},{"x":"412.34","y":"604.20"}],"confidence":{"state":"pre-added","who":["user:ICTAR"],"prob":1},"fields":{},"normalizations":{}},{"classId":"e_4","part":"s10v1","offsets":[{"start":1726,"text":"Flatiron"}],"coordinates":[{"x":"90.71","y":"609.34"},{"x":"123.96","y":"615.20"}],"confidence":{"state":"pre-added","who":["user:ICTAR"],"prob":1},"fields":{},"normalizations":{"n_34":{"source":{"name":"GeoNamesSCAR","id":"125175","url":null},"recName":"","confidence":{"state":"pre-added","who":["user:ICTAR"],"prob":1}}}},{"classId":"e_5","part":"s10v1","offsets":[{"start":1744,"text":"7700.938 16222.069"}],"coordinates":[{"x":"289.15","y":"609.34"},{"x":"412.34","y":"615.20"}],"confidence":{"state":"pre-added","who":["user:ICTAR"],"prob":1},"fields":{},"normalizations":{}},{"classId":"e_4","part":"s11v1","offsets":[{"start":96,"text":"New Glacier"}],"coordinates":[],"confidence":{"state":"pre-added","who":["ml:dpeker"],"prob":0.9349},"fields":{},"normalizations":{"n_34":{"source":{"name":"GeoNamesSCAR","id":"129360","url":null},"recName":"New Glacier","confidence":{"state":"pre-added","who":["ml:dpeker"],"prob":0.9349}}}},{"classId":"e_5","part":"s11v1","offsets":[{"start":116,"text":"7701.339 16227.000"}],"coordinates":[{"x":"261.68","y":"93.01"},{"x":"384.85","y":"98.87"}],"confidence":{"state":"pre-added","who":["user:ICTAR"],"prob":1},"fields":{},"normalizations":{}},{"classId":"e_4","part":"s11v1","offsets":[{"start":139,"text":"Mt. England"}],"coordinates":[{"x":"63.25","y":"104.01"},{"x":"115.75","y":"109.87"}],"confidence":{"state":"pre-added","who":["user:ICTAR"],"prob":1},"fields":{},"normalizations":{"n_34":{"source":{"name":"GeoNamesSCAR","id":"113242","url":null},"recName":"","confidence":{"state":"pre-added","who":["user:ICTAR"],"prob":1}}}},{"classId":"e_5","part":"s11v1","offsets":[{"start":161,"text":"7702.298 16228.180"}],"coordinates":[{"x":"261.69","y":"104.01"},{"x":"384.88","y":"109.87"}],"confidence":{"state":"pre-added","who":["user:ICTAR"],"prob":1},"fields":{},"normalizations":{}},{"classId":"e_5","part":"s11v1","offsets":[{"start":192,"text":"7701.942 16226.400"}],"coordinates":[{"x":"261.68","y":"115.01"},{"x":"384.87","y":"120.87"}],"confidence":{"state":"pre-added","who":["user:ICTAR"],"prob":1},"fields":{},"normalizations":{}},{"classId":"e_5","part":"s11v1","offsets":[{"start":223,"text":"7702.251 16226.100"}],"coordinates":[{"x":"261.68","y":"126.01"},{"x":"384.87","y":"131.87"}],"confidence":{"state":"pre-added","who":["user:ICTAR"],"prob":1},"fields":{},"normalizations":{}},{"classId":"e_5","part":"s11v1","offsets":[{"start":256,"text":"7702.277 16225.800"}],"coordinates":[{"x":"261.68","y":"137.01"},{"x":"384.87","y":"142.87"}],"confidence":{"state":"pre-added","who":["user:ICTAR"],"prob":1},"fields":{},"normalizations":{}},{"classId":"e_4","part":"s11v1","offsets":[{"start":279,"text":"Springtail Point"}],"coordinates":[],"confidence":{"state":"pre-added","who":["ml:dpeker"],"prob":0.9592},"fields":{},"normalizations":{"n_34":{"source":{"name":"GeoNamesSCAR","id":"132046","url":null},"recName":"Springtail Point","confidence":{"state":"pre-added","who":["ml:dpeker"],"prob":0.9592}}}},{"classId":"e_5","part":"s11v1","offsets":[{"start":301,"text":"7710.117 16043.433"}],"coordinates":[{"x":"261.68","y":"148.01"},{"x":"384.87","y":"153.87"}],"confidence":{"state":"pre-added","who":["user:ICTAR"],"prob":1},"fields":{},"normalizations":{}},{"classId":"e_4","part":"s11v1","offsets":[{"start":324,"text":"Marble Point"}],"coordinates":[],"confidence":{"state":"pre-added","who":["ml:dpeker"],"prob":0.9416},"fields":{},"normalizations":{"n_34":{"source":{"name":"GeoNamesSCAR","id":"113829","url":null},"recName":"Marble Point","confidence":{"state":"pre-added","who":["ml:dpeker"],"prob":0.9416}}}},{"classId":"e_5","part":"s11v1","offsets":[{"start":345,"text":"7726.122 16349.569"}],"coordinates":[{"x":"261.68","y":"159.01"},{"x":"384.87","y":"164.87"}],"confidence":{"state":"pre-added","who":["user:ICTAR"],"prob":1},"fields":{},"normalizations":{}},{"classId":"e_5","part":"s11v1","offsets":[{"start":374,"text":"7725.328 16341.572"}],"coordinates":[{"x":"261.68","y":"170.01"},{"x":"384.87","y":"175.87"}],"confidence":{"state":"pre-added","who":["user:ICTAR"],"prob":1},"fields":{},"normalizations":{}},{"classId":"e_5","part":"s11v1","offsets":[{"start":404,"text":"7725.297 16340.467"}],"coordinates":[{"x":"261.68","y":"181.01"},{"x":"384.87","y":"186.87"}],"confidence":{"state":"pre-added","who":["user:ICTAR"],"prob":1},"fields":{},"normalizations":{}},{"classId":"e_5","part":"s11v1","offsets":[{"start":434,"text":"7725.020 16343.466"}],"coordinates":[{"x":"261.68","y":"192.01"},{"x":"384.87","y":"197.87"}],"confidence":{"state":"pre-added","who":["user:ICTAR"],"prob":1},"fields":{},"normalizations":{}},{"classId":"e_5","part":"s11v1","offsets":[{"start":464,"text":"7725.328 16341.572"}],"coordinates":[{"x":"261.68","y":"203.01"},{"x":"384.87","y":"208.87"}],"confidence":{"state":"pre-added","who":["user:ICTAR"],"prob":1},"fields":{},"normalizations":{}},{"classId":"e_4","part":"s11v1","offsets":[{"start":487,"text":"Gneiss Point"}],"coordinates":[],"confidence":{"state":"pre-added","who":["ml:dpeker"],"prob":0.9416},"fields":{},"normalizations":{"n_34":{"source":{"name":"GeoNamesSCAR","id":"125754","url":null},"recName":"Gneiss Point","confidence":{"state":"pre-added","who":["ml:dpeker"],"prob":0.9416}}}},{"classId":"e_5","part":"s11v1","offsets":[{"start":508,"text":"7724.527 16344.249"}],"coordinates":[{"x":"261.67","y":"214.01"},{"x":"384.85","y":"219.87"}],"confidence":{"state":"pre-added","who":["user:ICTAR"],"prob":1},"fields":{},"normalizations":{}},{"classId":"e_4","part":"s11v1","offsets":[{"start":531,"text":"Taylor Valley"}],"coordinates":[],"confidence":{"state":"pre-added","who":["ml:dpeker"],"prob":0.9472},"fields":{},"normalizations":{"n_34":{"source":{"name":"GeoNamesSCAR","id":"132512","url":null},"recName":"Taylor Valley","confidence":{"state":"pre-added","who":["ml:dpeker"],"prob":0.9472}}}},{"classId":"e_4","part":"s11v1","offsets":[{"start":545,"text":"Canada Glacier"}],"coordinates":[],"confidence":{"state":"pre-added","who":["ml:dpeker"],"prob":0.9518},"fields":{},"normalizations":{"n_34":{"source":{"name":"GeoNamesSCAR","id":"123257","url":null},"recName":"Canada Glacier","confidence":{"state":"pre-added","who":["ml:dpeker"],"prob":0.9518}}}},{"classId":"e_5","part":"s11v1","offsets":[{"start":566,"text":"7736.924 16302.505"}],"coordinates":[{"x":"261.69","y":"236.01"},{"x":"384.89","y":"241.87"}],"confidence":{"state":"pre-added","who":["user:ICTAR"],"prob":1},"fields":{},"normalizations":{}},{"classId":"e_4","part":"s11v1","offsets":[{"start":589,"text":"Huey Creek"}],"coordinates":[],"confidence":{"state":"pre-added","who":["ml:dpeker"],"prob":0.9266},"fields":{},"normalizations":{"n_34":{"source":{"name":"GeoNamesSCAR","id":"126795","url":null},"recName":"Huey Creek","confidence":{"state":"pre-added","who":["ml:dpeker"],"prob":0.9266}}}},{"classId":"e_5","part":"s11v1","offsets":[{"start":607,"text":"7736.429 16307.539"}],"coordinates":[{"x":"261.69","y":"247.01"},{"x":"384.88","y":"252.87"}],"confidence":{"state":"pre-added","who":["user:ICTAR"],"prob":1},"fields":{},"normalizations":{}},{"classId":"e_4","part":"s11v1","offsets":[{"start":630,"text":"Lake Fryxell"}],"coordinates":[],"confidence":{"state":"pre-added","who":["ml:dpeker"],"prob":0.9416},"fields":{},"normalizations":{"n_34":{"source":{"name":"GeoNamesSCAR","id":"125440","url":null},"recName":"Fryxell, Lake","confidence":{"state":"pre-added","who":["ml:dpeker"],"prob":0.9416}}}},{"classId":"e_5","part":"s11v1","offsets":[{"start":650,"text":"7736.161 16315.701"}],"coordinates":[{"x":"261.69","y":"258.01"},{"x":"384.50","y":"263.87"}],"confidence":{"state":"pre-added","who":["user:ICTAR"],"prob":1},"fields":{},"normalizations":{}},{"classId":"e_4","part":"s11v1","offsets":[{"start":673,"text":"Von Guerard Stream"}],"coordinates":[],"confidence":{"state":"pre-added","who":["ml:dpeker"],"prob":0.9648},"fields":{},"normalizations":{"n_34":{"source":{"name":"GeoNamesSCAR","id":"133312","url":null},"recName":"Von Guerard Stream","confidence":{"state":"pre-added","who":["ml:dpeker"],"prob":0.9648}}}},{"classId":"e_5","part":"s11v1","offsets":[{"start":699,"text":"7736.570 16314.052"}],"coordinates":[{"x":"261.68","y":"269.01"},{"x":"384.47","y":"274.87"}],"confidence":{"state":"pre-added","who":["user:ICTAR"],"prob":1},"fields":{},"normalizations":{}},{"classId":"e_4","part":"s11v1","offsets":[{"start":722,"text":"Delta Stream"}],"coordinates":[],"confidence":{"state":"pre-added","who":["ml:dpeker"],"prob":0.9416},"fields":{},"normalizations":{"n_34":{"source":{"name":"GeoNamesSCAR","id":"124244","url":null},"recName":"Delta Stream","confidence":{"state":"pre-added","who":["ml:dpeker"],"prob":0.9416}}}},{"classId":"e_5","part":"s11v1","offsets":[{"start":742,"text":"7737.428 16306.560"}],"coordinates":[{"x":"261.68","y":"280.01"},{"x":"384.86","y":"285.87"}],"confidence":{"state":"pre-added","who":["user:ICTAR"],"prob":1},"fields":{},"normalizations":{}},{"classId":"e_4","part":"s11v1","offsets":[{"start":765,"text":"Green Stream"}],"coordinates":[{"x":"63.25","y":"291.01"},{"x":"121.27","y":"296.87"}],"confidence":{"state":"pre-added","who":["user:ICTAR"],"prob":1},"fields":{},"normalizations":{"n_34":{"source":{"name":"GeoNamesSCAR","id":"125908","url":null},"recName":"","confidence":{"state":"pre-added","who":["user:charlesklee"],"prob":1}}}},{"classId":"e_5","part":"s11v1","offsets":[{"start":784,"text":"7737.217 16305.102"}],"coordinates":[{"x":"261.69","y":"291.01"},{"x":"384.89","y":"296.87"}],"confidence":{"state":"pre-added","who":["user:ICTAR"],"prob":1},"fields":{},"normalizations":{}},{"classId":"e_4","part":"s11v1","offsets":[{"start":807,"text":"Howard Glacier"}],"coordinates":[],"confidence":{"state":"pre-added","who":["ml:dpeker"],"prob":0.9518},"fields":{},"normalizations":{"n_34":{"source":{"name":"GeoNamesSCAR","id":"126761","url":null},"recName":"Howard Glacier","confidence":{"state":"pre-added","who":["ml:dpeker"],"prob":0.9518}}}},{"classId":"e_5","part":"s11v1","offsets":[{"start":829,"text":"7739.735 16305.835"}],"coordinates":[{"x":"261.68","y":"302.01"},{"x":"384.85","y":"307.87"}],"confidence":{"state":"pre-added","who":["user:ICTAR"],"prob":1},"fields":{},"normalizations":{}},{"classId":"e_5","part":"s11v1","offsets":[{"start":859,"text":"7739.985 16254.627"}],"coordinates":[{"x":"261.68","y":"313.01"},{"x":"384.87","y":"318.87"}],"confidence":{"state":"pre-added","who":["user:ICTAR"],"prob":1},"fields":{},"normalizations":{}},{"classId":"e_4","part":"s11v1","offsets":[{"start":882,"text":"Goldman Glacier"}],"coordinates":[],"confidence":{"state":"pre-added","who":["ml:dpeker"],"prob":0.9558},"fields":{},"normalizations":{"n_34":{"source":{"name":"GeoNamesSCAR","id":"125774","url":null},"recName":"Goldman Glacier","confidence":{"state":"pre-added","who":["ml:dpeker"],"prob":0.9558}}}},{"classId":"e_5","part":"s11v1","offsets":[{"start":905,"text":"7741.083 16252.600"}],"coordinates":[{"x":"261.68","y":"324.01"},{"x":"384.85","y":"329.87"}],"confidence":{"state":"pre-added","who":["user:ICTAR"],"prob":1},"fields":{},"normalizations":{}},{"classId":"e_4","part":"s11v1","offsets":[{"start":928,"text":"Marr Glacier"}],"coordinates":[],"confidence":{"state":"pre-added","who":["ml:dpeker"],"prob":0.9416},"fields":{},"normalizations":{"n_34":{"source":{"name":"GeoNamesSCAR","id":"128453","url":null},"recName":"Marr Glacier","confidence":{"state":"pre-added","who":["ml:dpeker"],"prob":0.9416}}}},{"classId":"e_5","part":"s11v1","offsets":[{"start":959,"text":"7741.757 16246.737"}],"coordinates":[{"x":"261.68","y":"335.01"},{"x":"384.86","y":"340.87"}],"confidence":{"state":"pre-added","who":["user:ICTAR"],"prob":1},"fields":{},"normalizations":{}},{"classId":"e_4","part":"s11v1","offsets":[{"start":982,"text":"Marr Gl."}],"coordinates":[{"x":"63.25","y":"346.01"},{"x":"99.99","y":"351.87"}],"confidence":{"state":"pre-added","who":["user:ICTAR"],"prob":1},"fields":{},"normalizations":{"n_34":{"source":{"name":"GeoNamesSCAR","id":"128453","url":null},"recName":"","confidence":{"state":"pre-added","who":["user:ICTAR"],"prob":1}}}},{"classId":"e_5","part":"s11v1","offsets":[{"start":1012,"text":"7742.140 16243.315"}],"coordinates":[{"x":"261.68","y":"346.01"},{"x":"384.85","y":"351.87"}],"confidence":{"state":"pre-added","who":["user:ICTAR"],"prob":1},"fields":{},"normalizations":{}},{"classId":"e_4","part":"s11v1","offsets":[{"start":1035,"text":"Marr Gl."}],"coordinates":[{"x":"63.25","y":"357.01"},{"x":"99.99","y":"362.87"}],"confidence":{"state":"pre-added","who":["user:ICTAR"],"prob":1},"fields":{},"normalizations":{"n_34":{"source":{"name":"GeoNamesSCAR","id":"128453","url":null},"recName":"","confidence":{"state":"pre-added","who":["user:ICTAR"],"prob":1}}}},{"classId":"e_5","part":"s11v1","offsets":[{"start":1062,"text":"7742.780 16239.365"}],"coordinates":[{"x":"261.68","y":"357.01"},{"x":"384.85","y":"362.87"}],"confidence":{"state":"pre-added","who":["user:ICTAR"],"prob":1},"fields":{},"normalizations":{}},{"classId":"e_5","part":"s11v1","offsets":[{"start":1093,"text":"7743.022 16238.082"}],"coordinates":[{"x":"261.68","y":"368.01"},{"x":"384.87","y":"373.87"}],"confidence":{"state":"pre-added","who":["user:ICTAR"],"prob":1},"fields":{},"normalizations":{}},{"classId":"e_4","part":"s11v1","offsets":[{"start":1116,"text":"Sollas Glacier"}],"coordinates":[],"confidence":{"state":"pre-added","who":["ml:dpeker"],"prob":0.9518},"fields":{},"normalizations":{"n_34":{"source":{"name":"GeoNamesSCAR","id":"131870","url":null},"recName":"Sollas Glacier","confidence":{"state":"pre-added","who":["ml:dpeker"],"prob":0.9518}}}},{"classId":"e_5","part":"s11v1","offsets":[{"start":1139,"text":"7742.742 16235.580"}],"coordinates":[{"x":"261.68","y":"379.01"},{"x":"384.86","y":"384.87"}],"confidence":{"state":"pre-added","who":["user:ICTAR"],"prob":1},"fields":{},"normalizations":{}},{"classId":"e_4","part":"s11v1","offsets":[{"start":1162,"text":"Hughes Glacier"}],"coordinates":[],"confidence":{"state":"pre-added","who":["ml:dpeker"],"prob":0.9518},"fields":{},"normalizations":{"n_34":{"source":{"name":"GeoNamesSCAR","id":"126803","url":null},"recName":"Hughes Glacier","confidence":{"state":"pre-added","who":["ml:dpeker"],"prob":0.9518}}}},{"classId":"e_5","part":"s11v1","offsets":[{"start":1185,"text":"7743.745 16230.327"}],"coordinates":[{"x":"261.68","y":"390.01"},{"x":"384.85","y":"395.87"}],"confidence":{"state":"pre-added","who":["user:ICTAR"],"prob":1},"fields":{},"normalizations":{}},{"classId":"e_5","part":"s11v1","offsets":[{"start":1216,"text":"7743.311 16226.349"}],"coordinates":[{"x":"261.68","y":"401.01"},{"x":"384.87","y":"406.87"}],"confidence":{"state":"pre-added","who":["user:ICTAR"],"prob":1},"fields":{},"normalizations":{}},{"classId":"e_5","part":"s11v1","offsets":[{"start":1247,"text":"7744.167 16220.712"}],"coordinates":[{"x":"261.68","y":"412.01"},{"x":"384.87","y":"417.87"}],"confidence":{"state":"pre-added","who":["user:ICTAR"],"prob":1},"fields":{},"normalizations":{}},{"classId":"e_4","part":"s11v1","offsets":[{"start":1270,"text":"Calkin Glacier"}],"coordinates":[],"confidence":{"state":"pre-added","who":["ml:dpeker"],"prob":0.9518},"fields":{},"normalizations":{"n_34":{"source":{"name":"GeoNamesSCAR","id":"123216","url":null},"recName":"Calkin Glacier","confidence":{"state":"pre-added","who":["ml:dpeker"],"prob":0.9518}}}},{"classId":"e_5","part":"s11v1","offsets":[{"start":1293,"text":"7744.195 16216.728"}],"coordinates":[{"x":"261.68","y":"423.01"},{"x":"384.47","y":"428.87"}],"confidence":{"state":"pre-added","who":["user:ICTAR"],"prob":1},"fields":{},"normalizations":{}},{"classId":"e_4","part":"s11v1","offsets":[{"start":1316,"text":"Borns Glacier"}],"coordinates":[],"confidence":{"state":"pre-added","who":["ml:dpeker"],"prob":0.9472},"fields":{},"normalizations":{"n_34":{"source":{"name":"GeoNamesSCAR","id":"122754","url":null},"recName":"Borns Glacier","confidence":{"state":"pre-added","who":["ml:dpeker"],"prob":0.9472}}}},{"classId":"e_5","part":"s11v1","offsets":[{"start":1338,"text":"7745.833 16202.240"}],"coordinates":[{"x":"261.68","y":"434.01"},{"x":"384.85","y":"439.87"}],"confidence":{"state":"pre-added","who":["user:ICTAR"],"prob":1},"fields":{},"normalizations":{}},{"classId":"e_5","part":"s11v1","offsets":[{"start":1367,"text":"7745.536 16201.277"}],"coordinates":[{"x":"261.68","y":"445.01"},{"x":"384.87","y":"450.87"}],"confidence":{"state":"pre-added","who":["user:ICTAR"],"prob":1},"fields":{},"normalizations":{}},{"classId":"e_4","part":"s11v1","offsets":[{"start":1390,"text":"Lake Chad"}],"coordinates":[],"confidence":{"state":"pre-added","who":["ml:dpeker"],"prob":0.9163},"fields":{},"normalizations":{"n_34":{"source":{"name":"GeoNamesSCAR","id":"123422","url":null},"recName":"Chad, Lake","confidence":{"state":"pre-added","who":["ml:dpeker"],"prob":0.9163}}}},{"classId":"e_5","part":"s11v1","offsets":[{"start":1409,"text":"7738.571 16246.492"}],"coordinates":[{"x":"261.68","y":"456.01"},{"x":"384.88","y":"461.87"}],"confidence":{"state":"pre-added","who":["user:ICTAR"],"prob":1},"fields":{},"normalizations":{}},{"classId":"e_4","part":"s11v1","offsets":[{"start":1432,"text":"Garwood Valley"}],"coordinates":[],"confidence":{"state":"pre-added","who":["ml:dpeker"],"prob":0.9518},"fields":{},"normalizations":{"n_34":{"source":{"name":"GeoNamesSCAR","id":"125553","url":null},"recName":"Garwood Valley","confidence":{"state":"pre-added","who":["ml:dpeker"],"prob":0.9518}}}},{"classId":"e_5","part":"s11v1","offsets":[{"start":1454,"text":"7801.179 16403.404"}],"coordinates":[{"x":"261.68","y":"467.01"},{"x":"384.87","y":"472.87"}],"confidence":{"state":"pre-added","who":["user:ICTAR"],"prob":1},"fields":{},"normalizations":{}},{"classId":"e_4","part":"s11v1","offsets":[{"start":1477,"text":"Miers Valley"}],"coordinates":[],"confidence":{"state":"pre-added","who":["ml:dpeker"],"prob":0.9416},"fields":{},"normalizations":{"n_34":{"source":{"name":"GeoNamesSCAR","id":"128868","url":null},"recName":"Miers Valley","confidence":{"state":"pre-added","who":["ml:dpeker"],"prob":0.9416}}}},{"classId":"e_5","part":"s11v1","offsets":[{"start":1497,"text":"7805.762 16345.540"}],"coordinates":[{"x":"261.68","y":"478.01"},{"x":"384.87","y":"483.87"}],"confidence":{"state":"pre-added","who":["user:ICTAR"],"prob":1},"fields":{},"normalizations":{}},{"classId":"e_5","part":"s11v1","offsets":[{"start":1526,"text":"7805.889 16347.828"}],"coordinates":[{"x":"261.68","y":"489.01"},{"x":"384.87","y":"494.87"}],"confidence":{"state":"pre-added","who":["user:ICTAR"],"prob":1},"fields":{},"normalizations":{}},{"classId":"e_5","part":"s11v1","offsets":[{"start":1554,"text":"7805.853 16346.810"}],"coordinates":[{"x":"261.68","y":"500.01"},{"x":"384.87","y":"505.87"}],"confidence":{"state":"pre-added","who":["user:ICTAR"],"prob":1},"fields":{},"normalizations":{}},{"classId":"e_5","part":"s11v1","offsets":[{"start":1582,"text":"7806.086 16349.436"}],"coordinates":[{"x":"261.68","y":"511.01"},{"x":"384.87","y":"516.87"}],"confidence":{"state":"pre-added","who":["user:ICTAR"],"prob":1},"fields":{},"normalizations":{}},{"classId":"e_5","part":"s11v1","offsets":[{"start":1611,"text":"7805.950 16353.354"}],"coordinates":[{"x":"261.68","y":"522.01"},{"x":"384.87","y":"527.87"}],"confidence":{"state":"pre-added","who":["user:ICTAR"],"prob":1},"fields":{},"normalizations":{}},{"classId":"e_5","part":"s11v1","offsets":[{"start":1641,"text":"7804.408 16347.791"}],"coordinates":[{"x":"261.68","y":"533.01"},{"x":"384.87","y":"538.87"}],"confidence":{"state":"pre-added","who":["user:ICTAR"],"prob":1},"fields":{},"normalizations":{}},{"classId":"e_5","part":"s11v1","offsets":[{"start":1670,"text":"7804.635 16346.736"}],"coordinates":[{"x":"261.68","y":"544.01"},{"x":"384.87","y":"549.87"}],"confidence":{"state":"pre-added","who":["user:ICTAR"],"prob":1},"fields":{},"normalizations":{}},{"classId":"e_5","part":"s11v1","offsets":[{"start":1698,"text":"7806.953 16341.645"}],"coordinates":[{"x":"261.68","y":"555.01"},{"x":"384.87","y":"560.87"}],"confidence":{"state":"pre-added","who":["user:ICTAR"],"prob":1},"fields":{},"normalizations":{}},{"classId":"e_5","part":"s11v1","offsets":[{"start":1726,"text":"7803.990 16352.049"}],"coordinates":[{"x":"261.68","y":"566.01"},{"x":"384.87","y":"571.87"}],"confidence":{"state":"pre-added","who":["user:ICTAR"],"prob":1},"fields":{},"normalizations":{}},{"classId":"e_5","part":"s11v1","offsets":[{"start":1757,"text":"7807.187 16341.373"}],"coordinates":[{"x":"261.68","y":"577.00"},{"x":"384.87","y":"582.86"}],"confidence":{"state":"pre-added","who":["user:ICTAR"],"prob":1},"fields":{},"normalizations":{}},{"classId":"e_5","part":"s11v1","offsets":[{"start":1788,"text":"7807.600 16340.777"}],"coordinates":[{"x":"261.68","y":"588.00"},{"x":"384.87","y":"593.86"}],"confidence":{"state":"pre-added","who":["user:ICTAR"],"prob":1},"fields":{},"normalizations":{}},{"classId":"e_5","part":"s11v1","offsets":[{"start":1817,"text":"7807.465 16342.341"}],"coordinates":[{"x":"261.68","y":"599.00"},{"x":"384.87","y":"604.86"}],"confidence":{"state":"pre-added","who":["user:ICTAR"],"prob":1},"fields":{},"normalizations":{}},{"classId":"e_4","part":"s11v1","offsets":[{"start":1840,"text":"Marshall Valley"}],"coordinates":[],"confidence":{"state":"pre-added","who":["ml:dpeker"],"prob":0.9558},"fields":{},"normalizations":{"n_34":{"source":{"name":"GeoNamesSCAR","id":"128472","url":null},"recName":"Marshall Valley","confidence":{"state":"pre-added","who":["ml:dpeker"],"prob":0.9558}}}},{"classId":"e_5","part":"s11v1","offsets":[{"start":1864,"text":"7803.944 16352.662"}],"coordinates":[{"x":"261.69","y":"610.01"},{"x":"384.89","y":"615.87"}],"confidence":{"state":"pre-added","who":["user:ICTAR"],"prob":1},"fields":{},"normalizations":{}}],"relations":[{"classId":"r_45","type":"linked","directed":false,"entities":["s1v1|e_38|1211,1219","s1v1|e_4|1161,1172"],"confidence":{"state":"pre-added","who":["user:ICTAR"],"prob":1}},{"classId":"r_45","type":"linked","directed":false,"entities":["s1v1|e_38|1211,1219","s1v1|e_4|1113,1127"],"confidence":{"state":"pre-added","who":["user:ICTAR"],"prob":1}},{"classId":"r_45","type":"linked","directed":false,"entities":["s3v1|e_38|1159,1177","s3v1|e_4|1233,1247"],"confidence":{"state":"pre-added","who":["user:ICTAR"],"prob":1}},{"classId":"r_45","type":"linked","directed":false,"entities":["s4v1|e_38|326,334","s4v1|e_4|355,363"],"confidence":{"state":"pre-added","who":["user:ICTAR"],"prob":1}},{"classId":"r_45","type":"linked","directed":false,"entities":["s4v1|e_38|326,334","s4v1|e_4|394,405"],"confidence":{"state":"pre-added","who":["user:ICTAR"],"prob":1}},{"classId":"r_45","type":"linked","directed":false,"entities":["s4v1|e_38|326,334","s4v1|e_4|424,433"],"confidence":{"state":"pre-added","who":["user:ICTAR"],"prob":1}},{"classId":"r_45","type":"linked","directed":false,"entities":["s4v1|e_38|326,334","s4v1|e_4|471,480"],"confidence":{"state":"pre-added","who":["user:ICTAR"],"prob":1}},{"classId":"r_45","type":"linked","directed":false,"entities":["s4v1|e_38|326,334","s4v1|e_4|490,499"],"confidence":{"state":"pre-added","who":["user:ICTAR"],"prob":1}},{"classId":"r_45","type":"linked","directed":false,"entities":["s4v1|e_4|519,528","s4v1|e_38|530,538"],"confidence":{"state":"pre-added","who":["user:ICTAR"],"prob":1}},{"classId":"r_45","type":"linked","directed":false,"entities":["s4v1|e_38|866,874","s4v1|e_4|917,929"],"confidence":{"state":"pre-added","who":["user:ICTAR"],"prob":1}},{"classId":"r_45","type":"linked","directed":false,"entities":["s4v1|e_4|1291,1302","s4v1|e_38|1417,1425"],"confidence":{"state":"pre-added","who":["user:ICTAR"],"prob":1}},{"classId":"r_45","type":"linked","directed":false,"entities":["s4v1|e_4|1305,1319","s4v1|e_38|1417,1425"],"confidence":{"state":"pre-added","who":["user:ICTAR"],"prob":1}},{"classId":"r_45","type":"linked","directed":false,"entities":["s4v1|e_4|1575,1585","s4v1|e_38|1634,1642"],"confidence":{"state":"pre-added","who":["user:ICTAR"],"prob":1}},{"classId":"r_45","type":"linked","directed":false,"entities":["s4v1|e_38|1810,1818","s4v1|e_4|1828,1838"],"confidence":{"state":"pre-added","who":["user:ICTAR"],"prob":1}},{"classId":"r_45","type":"linked","directed":false,"entities":["s4v1|e_38|1810,1818","s4v1|e_4|1844,1856"],"confidence":{"state":"pre-added","who":["user:ICTAR"],"prob":1}},{"classId":"r_45","type":"linked","directed":false,"entities":["s4v1|e_4|1908,1919","s4v1|e_38|2003,2011"],"confidence":{"state":"pre-added","who":["user:ICTAR"],"prob":1}},{"classId":"r_45","type":"linked","directed":false,"entities":["s5v1|e_38|55,63","s5v1|e_4|110,121"],"confidence":{"state":"pre-added","who":["user:ICTAR"],"prob":1}},{"classId":"r_45","type":"linked","directed":false,"entities":["s5v1|e_38|55,63","s5v1|e_4|130,142"],"confidence":{"state":"pre-added","who":["user:ICTAR"],"prob":1}},{"classId":"r_45","type":"linked","directed":false,"entities":["s5v1|e_4|336,349","s5v1|e_38|419,427"],"confidence":{"state":"pre-added","who":["user:ICTAR"],"prob":1}},{"classId":"r_45","type":"linked","directed":false,"entities":["s5v1|e_4|364,376","s5v1|e_38|419,427"],"confidence":{"state":"pre-added","who":["user:ICTAR"],"prob":1}},{"classId":"r_45","type":"linked","directed":false,"entities":["s5v1|e_38|419,427","s5v1|e_4|485,493"],"confidence":{"state":"pre-added","who":["user:ICTAR"],"prob":1}},{"classId":"r_45","type":"linked","directed":false,"entities":["s5v1|e_38|570,578","s5v1|e_4|614,625"],"confidence":{"state":"pre-added","who":["user:ICTAR"],"prob":1}},{"classId":"r_45","type":"linked","directed":false,"entities":["s5v1|e_38|570,578","s5v1|e_4|632,647"],"confidence":{"state":"pre-added","who":["user:ICTAR"],"prob":1}},{"classId":"r_45","type":"linked","directed":false,"entities":["s5v1|e_38|570,578","s5v1|e_4|662,672"],"confidence":{"state":"pre-added","who":["user:ICTAR"],"prob":1}},{"classId":"r_45","type":"linked","directed":false,"entities":["s5v1|e_38|959,967","s5v1|e_4|1009,1022"],"confidence":{"state":"pre-added","who":["user:ICTAR"],"prob":1}},{"classId":"r_45","type":"linked","directed":false,"entities":["s5v1|e_38|959,967","s5v1|e_4|1058,1069"],"confidence":{"state":"pre-added","who":["user:ICTAR"],"prob":1}},{"classId":"r_45","type":"linked","directed":false,"entities":["s5v1|e_38|959,967","s5v1|e_4|1089,1102"],"confidence":{"state":"pre-added","who":["user:ICTAR"],"prob":1}},{"classId":"r_45","type":"linked","directed":false,"entities":["s5v1|e_38|1952,1960","s5v1|e_4|2036,2049"],"confidence":{"state":"pre-added","who":["user:ICTAR"],"prob":1}},{"classId":"r_45","type":"linked","directed":false,"entities":["s5v1|e_38|1952,1960","s5v1|e_4|2072,2086"],"confidence":{"state":"pre-added","who":["user:ICTAR"],"prob":1}},{"classId":"r_45","type":"linked","directed":false,"entities":["s5v1|e_38|1952,1960","s5v1|e_4|2157,2167"],"confidence":{"state":"pre-added","who":["user:ICTAR"],"prob":1}},{"classId":"r_45","type":"linked","directed":false,"entities":["s5v1|e_38|1952,1960","s5v1|e_4|2170,2182"],"confidence":{"state":"pre-added","who":["user:ICTAR"],"prob":1}},{"classId":"r_45","type":"linked","directed":false,"entities":["s5v1|e_38|1952,1960","s5v1|e_4|2185,2196"],"confidence":{"state":"pre-added","who":["user:ICTAR"],"prob":1}},{"classId":"r_45","type":"linked","directed":false,"entities":["s5v1|e_38|1952,1960","s5v1|e_4|2199,2210"],"confidence":{"state":"pre-added","who":["user:ICTAR"],"prob":1}},{"classId":"r_45","type":"linked","directed":false,"entities":["s5v1|e_4|2223,2238","s5v1|e_38|1952,1960"],"confidence":{"state":"pre-added","who":["user:ICTAR"],"prob":1}},{"classId":"r_45","type":"linked","directed":false,"entities":["s5v1|e_38|2566,2576","s5v1|e_4|2612,2624"],"confidence":{"state":"pre-added","who":["user:ICTAR"],"prob":1}},{"classId":"r_45","type":"linked","directed":false,"entities":["s5v1|e_38|2566,2576","s5v1|e_4|2627,2640"],"confidence":{"state":"pre-added","who":["user:ICTAR"],"prob":1}},{"classId":"r_45","type":"linked","directed":false,"entities":["s5v1|e_38|2566,2576","s5v1|e_4|2646,2654"],"confidence":{"state":"pre-added","who":["user:ICTAR"],"prob":1}},{"classId":"r_45","type":"linked","directed":false,"entities":["s5v1|e_4|2802,2810","s5v1|e_38|2821,2829"],"confidence":{"state":"pre-added","who":["user:ICTAR"],"prob":1}},{"classId":"r_45","type":"linked","directed":false,"entities":["s7v1|e_38|1627,1635","s7v1|e_4|1644,1658"],"confidence":{"state":"pre-added","who":["user:ICTAR"],"prob":1}},{"classId":"r_45","type":"linked","directed":false,"entities":["s10v1|e_38|220,238","s11v1|e_4|1840,1854"],"confidence":{"state":"pre-added","who":["user:ICTAR"],"prob":1}},{"classId":"r_45","type":"linked","directed":false,"entities":["s10v1|e_38|220,238","s11v1|e_4|1477,1488"],"confidence":{"state":"pre-added","who":["user:ICTAR"],"prob":1}},{"classId":"r_45","type":"linked","directed":false,"entities":["s10v1|e_38|220,238","s11v1|e_4|1432,1445"],"confidence":{"state":"pre-added","who":["user:ICTAR"],"prob":1}},{"classId":"r_45","type":"linked","directed":false,"entities":["s10v1|e_38|220,238","s11v1|e_4|1390,1398"],"confidence":{"state":"pre-added","who":["user:ICTAR"],"prob":1}},{"classId":"r_45","type":"linked","directed":false,"entities":["s10v1|e_38|220,238","s11v1|e_4|1316,1328"],"confidence":{"state":"pre-added","who":["user:ICTAR"],"prob":1}},{"classId":"r_45","type":"linked","directed":false,"entities":["s10v1|e_38|220,238","s11v1|e_4|1270,1283"],"confidence":{"state":"pre-added","who":["user:ICTAR"],"prob":1}},{"classId":"r_45","type":"linked","directed":false,"entities":["s10v1|e_38|220,238","s11v1|e_4|324,335"],"confidence":{"state":"pre-added","who":["user:ICTAR"],"prob":1}},{"classId":"r_45","type":"linked","directed":false,"entities":["s10v1|e_38|220,238","s11v1|e_4|487,498"],"confidence":{"state":"pre-added","who":["user:ICTAR"],"prob":1}},{"classId":"r_45","type":"linked","directed":false,"entities":["s10v1|e_38|220,238","s11v1|e_4|1162,1175"],"confidence":{"state":"pre-added","who":["user:ICTAR"],"prob":1}},{"classId":"r_45","type":"linked","directed":false,"entities":["s10v1|e_38|220,238","s11v1|e_4|1116,1129"],"confidence":{"state":"pre-added","who":["user:ICTAR"],"prob":1}},{"classId":"r_45","type":"linked","directed":false,"entities":["s10v1|e_38|220,238","s11v1|e_4|1035,1042"],"confidence":{"state":"pre-added","who":["user:ICTAR"],"prob":1}},{"classId":"r_45","type":"linked","directed":false,"entities":["s10v1|e_38|220,238","s11v1|e_4|982,989"],"confidence":{"state":"pre-added","who":["user:ICTAR"],"prob":1}},{"classId":"r_45","type":"linked","directed":false,"entities":["s10v1|e_38|220,238","s11v1|e_4|928,939"],"confidence":{"state":"pre-added","who":["user:ICTAR"],"prob":1}},{"classId":"r_45","type":"linked","directed":false,"entities":["s10v1|e_38|220,238","s11v1|e_4|882,896"],"confidence":{"state":"pre-added","who":["user:ICTAR"],"prob":1}},{"classId":"r_45","type":"linked","directed":false,"entities":["s10v1|e_38|220,238","s11v1|e_4|807,820"],"confidence":{"state":"pre-added","who":["user:ICTAR"],"prob":1}},{"classId":"r_45","type":"linked","directed":false,"entities":["s10v1|e_38|220,238","s11v1|e_4|722,733"],"confidence":{"state":"pre-added","who":["user:ICTAR"],"prob":1}},{"classId":"r_45","type":"linked","directed":false,"entities":["s10v1|e_38|220,238","s11v1|e_4|673,690"],"confidence":{"state":"pre-added","who":["user:ICTAR"],"prob":1}},{"classId":"r_45","type":"linked","directed":false,"entities":["s10v1|e_4|285,299","s10v1|e_38|220,238"],"confidence":{"state":"pre-added","who":["user:ICTAR"],"prob":1}},{"classId":"r_45","type":"linked","directed":false,"entities":["s10v1|e_4|332,340","s10v1|e_38|220,238"],"confidence":{"state":"pre-added","who":["user:ICTAR"],"prob":1}},{"classId":"r_45","type":"linked","directed":false,"entities":["s10v1|e_4|373,382","s10v1|e_38|220,238"],"confidence":{"state":"pre-added","who":["user:ICTAR"],"prob":1}},{"classId":"r_45","type":"linked","directed":false,"entities":["s10v1|e_4|762,771","s10v1|e_38|220,238"],"confidence":{"state":"pre-added","who":["user:ICTAR"],"prob":1}},{"classId":"r_45","type":"linked","directed":false,"entities":["s10v1|e_4|863,878","s10v1|e_38|220,238"],"confidence":{"state":"pre-added","who":["user:ICTAR"],"prob":1}},{"classId":"r_45","type":"linked","directed":false,"entities":["s10v1|e_4|909,920","s10v1|e_38|220,238"],"confidence":{"state":"pre-added","who":["user:ICTAR"],"prob":1}},{"classId":"r_45","type":"linked","directed":false,"entities":["s10v1|e_4|953,962","s10v1|e_38|220,238"],"confidence":{"state":"pre-added","who":["user:ICTAR"],"prob":1}},{"classId":"r_45","type":"linked","directed":false,"entities":["s10v1|e_4|995,1009","s10v1|e_38|220,238"],"confidence":{"state":"pre-added","who":["user:ICTAR"],"prob":1}},{"classId":"r_45","type":"linked","directed":false,"entities":["s10v1|e_4|1011,1022","s10v1|e_38|220,238"],"confidence":{"state":"pre-added","who":["user:ICTAR"],"prob":1}},{"classId":"r_45","type":"linked","directed":false,"entities":["s10v1|e_4|1684,1693","s10v1|e_38|220,238"],"confidence":{"state":"pre-added","who":["user:ICTAR"],"prob":1}},{"classId":"r_45","type":"linked","directed":false,"entities":["s10v1|e_4|1726,1733","s10v1|e_38|220,238"],"confidence":{"state":"pre-added","who":["user:ICTAR"],"prob":1}},{"classId":"r_45","type":"linked","directed":false,"entities":["s11v1|e_4|96,106","s10v1|e_38|220,238"],"confidence":{"state":"pre-added","who":["user:ICTAR"],"prob":1}},{"classId":"r_45","type":"linked","directed":false,"entities":["s11v1|e_4|139,149","s10v1|e_38|220,238"],"confidence":{"state":"pre-added","who":["user:ICTAR"],"prob":1}},{"classId":"r_45","type":"linked","directed":false,"entities":["s11v1|e_4|531,543","s10v1|e_38|220,238"],"confidence":{"state":"pre-added","who":["user:ICTAR"],"prob":1}},{"classId":"r_45","type":"linked","directed":false,"entities":["s11v1|e_4|545,558","s10v1|e_38|220,238"],"confidence":{"state":"pre-added","who":["user:ICTAR"],"prob":1}},{"classId":"r_45","type":"linked","directed":false,"entities":["s11v1|e_4|589,598","s10v1|e_38|220,238"],"confidence":{"state":"pre-added","who":["user:ICTAR"],"prob":1}},{"classId":"r_45","type":"linked","directed":false,"entities":["s11v1|e_4|630,641","s10v1|e_38|220,238"],"confidence":{"state":"pre-added","who":["user:ICTAR"],"prob":1}},{"classId":"r_45","type":"linked","directed":false,"entities":["s11v1|e_4|765,776","s10v1|e_38|220,238"],"confidence":{"state":"pre-added","who":["user:ICTAR"],"prob":1}},{"classId":"r_46","type":"linked","directed":false,"entities":["s1v1|e_39|1195,1205","s1v1|e_4|1161,1172"],"confidence":{"state":"pre-added","who":["user:ICTAR"],"prob":1}},{"classId":"r_46","type":"linked","directed":false,"entities":["s1v1|e_39|1195,1205","s1v1|e_4|1113,1127"],"confidence":{"state":"pre-added","who":["user:ICTAR"],"prob":1}},{"classId":"r_46","type":"linked","directed":false,"entities":["s3v1|e_39|1117,1140","s3v1|e_4|1233,1247"],"confidence":{"state":"pre-added","who":["user:ICTAR"],"prob":1}},{"classId":"r_46","type":"linked","directed":false,"entities":["s4v1|e_39|310,320","s4v1|e_4|355,363"],"confidence":{"state":"pre-added","who":["user:ICTAR"],"prob":1}},{"classId":"r_46","type":"linked","directed":false,"entities":["s4v1|e_39|310,320","s4v1|e_4|394,405"],"confidence":{"state":"pre-added","who":["user:ICTAR"],"prob":1}},{"classId":"r_46","type":"linked","directed":false,"entities":["s4v1|e_39|310,320","s4v1|e_4|424,433"],"confidence":{"state":"pre-added","who":["user:ICTAR"],"prob":1}},{"classId":"r_46","type":"linked","directed":false,"entities":["s4v1|e_39|310,320","s4v1|e_4|471,480"],"confidence":{"state":"pre-added","who":["user:ICTAR"],"prob":1}},{"classId":"r_46","type":"linked","directed":false,"entities":["s4v1|e_39|310,320","s4v1|e_4|490,499"],"confidence":{"state":"pre-added","who":["user:ICTAR"],"prob":1}},{"classId":"r_46","type":"linked","directed":false,"entities":["s4v1|e_4|519,528","s4v1|e_39|614,624"],"confidence":{"state":"pre-added","who":["user:ICTAR"],"prob":1}},{"classId":"r_46","type":"linked","directed":false,"entities":["s4v1|e_39|1071,1081","s4v1|e_4|1117,1125"],"confidence":{"state":"pre-added","who":["user:ICTAR"],"prob":1}},{"classId":"r_46","type":"linked","directed":false,"entities":["s4v1|e_39|1071,1081","s4v1|e_4|1137,1151"],"confidence":{"state":"pre-added","who":["user:ICTAR"],"prob":1}},{"classId":"r_46","type":"linked","directed":false,"entities":["s4v1|e_4|1291,1302","s4v1|e_39|1365,1375"],"confidence":{"state":"pre-added","who":["user:ICTAR"],"prob":1}},{"classId":"r_46","type":"linked","directed":false,"entities":["s4v1|e_4|1291,1302","s4v1|e_39|1381,1404"],"confidence":{"state":"pre-added","who":["user:ICTAR"],"prob":1}},{"classId":"r_46","type":"linked","directed":false,"entities":["s4v1|e_4|1305,1319","s4v1|e_39|1365,1375"],"confidence":{"state":"pre-added","who":["user:ICTAR"],"prob":1}},{"classId":"r_46","type":"linked","directed":false,"entities":["s4v1|e_4|1305,1319","s4v1|e_39|1381,1404"],"confidence":{"state":"pre-added","who":["user:ICTAR"],"prob":1}},{"classId":"r_46","type":"linked","directed":false,"entities":["s4v1|e_4|1575,1585","s4v1|e_39|1604,1614"],"confidence":{"state":"pre-added","who":["user:ICTAR"],"prob":1}},{"classId":"r_46","type":"linked","directed":false,"entities":["s4v1|e_4|1575,1585","s4v1|e_39|1617,1628"],"confidence":{"state":"pre-added","who":["user:ICTAR"],"prob":1}},{"classId":"r_46","type":"linked","directed":false,"entities":["s4v1|e_39|1778,1788","s4v1|e_4|1828,1838"],"confidence":{"state":"pre-added","who":["user:ICTAR"],"prob":1}},{"classId":"r_46","type":"linked","directed":false,"entities":["s4v1|e_39|1778,1788","s4v1|e_4|1844,1856"],"confidence":{"state":"pre-added","who":["user:ICTAR"],"prob":1}},{"classId":"r_46","type":"linked","directed":false,"entities":["s4v1|e_4|2188,2199","s4v1|e_39|2286,2296"],"confidence":{"state":"pre-added","who":["user:ICTAR"],"prob":1}},{"classId":"r_46","type":"linked","directed":false,"entities":["s4v1|e_4|2205,2216","s4v1|e_39|2286,2296"],"confidence":{"state":"pre-added","who":["user:ICTAR"],"prob":1}},{"classId":"r_46","type":"linked","directed":false,"entities":["s4v1|e_4|2248,2270","s4v1|e_39|2286,2296"],"confidence":{"state":"pre-added","who":["user:ICTAR"],"prob":1}},{"classId":"r_46","type":"linked","directed":false,"entities":["s5v1|e_4|336,349","s5v1|e_39|403,413"],"confidence":{"state":"pre-added","who":["user:ICTAR"],"prob":1}},{"classId":"r_46","type":"linked","directed":false,"entities":["s5v1|e_4|364,376","s5v1|e_39|403,413"],"confidence":{"state":"pre-added","who":["user:ICTAR"],"prob":1}},{"classId":"r_46","type":"linked","directed":false,"entities":["s5v1|e_39|403,413","s5v1|e_4|485,493"],"confidence":{"state":"pre-added","who":["user:ICTAR"],"prob":1}},{"classId":"r_46","type":"linked","directed":false,"entities":["s5v1|e_39|552,564","s5v1|e_4|614,625"],"confidence":{"state":"pre-added","who":["user:ICTAR"],"prob":1}},{"classId":"r_46","type":"linked","directed":false,"entities":["s5v1|e_39|552,564","s5v1|e_4|632,647"],"confidence":{"state":"pre-added","who":["user:ICTAR"],"prob":1}},{"classId":"r_46","type":"linked","directed":false,"entities":["s5v1|e_39|552,564","s5v1|e_4|662,672"],"confidence":{"state":"pre-added","who":["user:ICTAR"],"prob":1}},{"classId":"r_46","type":"linked","directed":false,"entities":["s5v1|e_39|943,953","s5v1|e_4|1009,1022"],"confidence":{"state":"pre-added","who":["user:ICTAR"],"prob":1}},{"classId":"r_46","type":"linked","directed":false,"entities":["s5v1|e_39|943,953","s5v1|e_4|1058,1069"],"confidence":{"state":"pre-added","who":["user:ICTAR"],"prob":1}},{"classId":"r_46","type":"linked","directed":false,"entities":["s5v1|e_39|943,953","s5v1|e_4|1089,1102"],"confidence":{"state":"pre-added","who":["user:ICTAR"],"prob":1}},{"classId":"r_46","type":"linked","directed":false,"entities":["s5v1|e_39|1425,1435","s5v1|e_4|1473,1483"],"confidence":{"state":"pre-added","who":["user:ICTAR"],"prob":1}},{"classId":"r_46","type":"linked","directed":false,"entities":["s5v1|e_39|1425,1435","s5v1|e_4|1522,1537"],"confidence":{"state":"pre-added","who":["user:ICTAR"],"prob":1}},{"classId":"r_46","type":"linked","directed":false,"entities":["s5v1|e_39|1425,1435","s5v1|e_4|1499,1503"],"confidence":{"state":"pre-added","who":["user:ICTAR"],"prob":1}},{"classId":"r_46","type":"linked","directed":false,"entities":["s5v1|e_39|1425,1435","s5v1|e_4|1506,1511"],"confidence":{"state":"pre-added","who":["user:ICTAR"],"prob":1}},{"classId":"r_46","type":"linked","directed":false,"entities":["s5v1|e_39|1425,1435","s5v1|e_4|1513,1516"],"confidence":{"state":"pre-added","who":["user:ICTAR"],"prob":1}},{"classId":"r_46","type":"linked","directed":false,"entities":["s5v1|e_39|1425,1435","s5v1|e_4|1624,1636"],"confidence":{"state":"pre-added","who":["user:ICTAR"],"prob":1}},{"classId":"r_46","type":"linked","directed":false,"entities":["s5v1|e_4|1611,1621","s5v1|e_39|1425,1435"],"confidence":{"state":"pre-added","who":["user:ICTAR"],"prob":1}},{"classId":"r_46","type":"linked","directed":false,"entities":["s5v1|e_4|1639,1650","s5v1|e_39|1425,1435"],"confidence":{"state":"pre-added","who":["user:ICTAR"],"prob":1}},{"classId":"r_46","type":"linked","directed":false,"entities":["s5v1|e_4|1653,1664","s5v1|e_39|1425,1435"],"confidence":{"state":"pre-added","who":["user:ICTAR"],"prob":1}},{"classId":"r_46","type":"linked","directed":false,"entities":["s5v1|e_4|1670,1684","s5v1|e_39|1425,1435"],"confidence":{"state":"pre-added","who":["user:ICTAR"],"prob":1}},{"classId":"r_46","type":"linked","directed":false,"entities":["s5v1|e_39|1695,1706","s5v1|e_4|1747,1761"],"confidence":{"state":"pre-added","who":["user:ICTAR"],"prob":1}},{"classId":"r_46","type":"linked","directed":false,"entities":["s5v1|e_39|1695,1706","s5v1|e_4|1764,1773"],"confidence":{"state":"pre-added","who":["user:ICTAR"],"prob":1}},{"classId":"r_46","type":"linked","directed":false,"entities":["s5v1|e_39|1695,1706","s5v1|e_4|1782,1792"],"confidence":{"state":"pre-added","who":["user:ICTAR"],"prob":1}},{"classId":"r_46","type":"linked","directed":false,"entities":["s5v1|e_39|1695,1706","s5v1|e_4|1885,1896"],"confidence":{"state":"pre-added","who":["user:ICTAR"],"prob":1}},{"classId":"r_46","type":"linked","directed":false,"entities":["s5v1|e_39|1695,1706","s5v1|e_4|1902,1913"],"confidence":{"state":"pre-added","who":["user:ICTAR"],"prob":1}},{"classId":"r_46","type":"linked","directed":false,"entities":["s5v1|e_39|1695,1706","s5v1|e_4|1915,1930"],"confidence":{"state":"pre-added","who":["user:ICTAR"],"prob":1}},{"classId":"r_46","type":"linked","directed":false,"entities":["s5v1|e_4|1738,1745","s5v1|e_39|1695,1706"],"confidence":{"state":"pre-added","who":["user:ICTAR"],"prob":1}},{"classId":"r_46","type":"linked","directed":false,"entities":["s5v1|e_39|2271,2281","s5v1|e_4|2286,2298"],"confidence":{"state":"pre-added","who":["user:ICTAR"],"prob":1}},{"classId":"r_46","type":"linked","directed":false,"entities":["s5v1|e_39|2847,2857","s5v1|e_4|2802,2810"],"confidence":{"state":"pre-added","who":["user:ICTAR"],"prob":1}},{"classId":"r_46","type":"linked","directed":false,"entities":["s7v1|e_39|676,687","s7v1|e_4|751,759"],"confidence":{"state":"pre-added","who":["user:ICTAR"],"prob":1}},{"classId":"r_46","type":"linked","directed":false,"entities":["s7v1|e_39|676,687","s7v1|e_4|765,776"],"confidence":{"state":"pre-added","who":["user:ICTAR"],"prob":1}},{"classId":"r_46","type":"linked","directed":false,"entities":["s7v1|e_39|693,703","s7v1|e_4|751,759"],"confidence":{"state":"pre-added","who":["user:ICTAR"],"prob":1}},{"classId":"r_46","type":"linked","directed":false,"entities":["s7v1|e_39|693,703","s7v1|e_4|765,776"],"confidence":{"state":"pre-added","who":["user:ICTAR"],"prob":1}},{"classId":"r_46","type":"linked","directed":false,"entities":["s7v1|e_4|849,860","s7v1|e_39|879,890"],"confidence":{"state":"pre-added","who":["user:ICTAR"],"prob":1}},{"classId":"r_46","type":"linked","directed":false,"entities":["s7v1|e_4|900,910","s7v1|e_39|929,939"],"confidence":{"state":"pre-added","who":["user:ICTAR"],"prob":1}},{"classId":"r_46","type":"linked","directed":false,"entities":["s7v1|e_39|942,953","s7v1|e_4|994,1005"],"confidence":{"state":"pre-added","who":["user:ICTAR"],"prob":1}},{"classId":"r_46","type":"linked","directed":false,"entities":["s7v1|e_39|1789,1799","s7v1|e_4|1820,1831"],"confidence":{"state":"pre-added","who":["user:ICTAR"],"prob":1}},{"classId":"r_46","type":"linked","directed":false,"entities":["s7v1|e_39|1789,1799","s7v1|e_4|1836,1847"],"confidence":{"state":"pre-added","who":["user:ICTAR"],"prob":1}},{"classId":"r_46","type":"linked","directed":false,"entities":["s7v1|e_39|1789,1799","s7v1|e_4|1916,1938"],"confidence":{"state":"pre-added","who":["user:ICTAR"],"prob":1}},{"classId":"r_46","type":"linked","directed":false,"entities":["s10v1|e_39|184,209","s11v1|e_4|139,149"],"confidence":{"state":"pre-added","who":["user:ICTAR"],"prob":1}},{"classId":"r_46","type":"linked","directed":false,"entities":["s10v1|e_4|285,299","s10v1|e_39|154,177"],"confidence":{"state":"pre-added","who":["user:ICTAR"],"prob":1}},{"classId":"r_46","type":"linked","directed":false,"entities":["s10v1|e_4|332,340","s10v1|e_39|154,177"],"confidence":{"state":"pre-added","who":["user:ICTAR"],"prob":1}},{"classId":"r_46","type":"linked","directed":false,"entities":["s10v1|e_4|373,382","s10v1|e_39|154,177"],"confidence":{"state":"pre-added","who":["user:ICTAR"],"prob":1}},{"classId":"r_46","type":"linked","directed":false,"entities":["s10v1|e_4|762,771","s10v1|e_39|154,177"],"confidence":{"state":"pre-added","who":["user:ICTAR"],"prob":1}},{"classId":"r_46","type":"linked","directed":false,"entities":["s10v1|e_4|909,920","s10v1|e_39|154,177"],"confidence":{"state":"pre-added","who":["user:ICTAR"],"prob":1}},{"classId":"r_46","type":"linked","directed":false,"entities":["s10v1|e_4|953,962","s10v1|e_39|154,177"],"confidence":{"state":"pre-added","who":["user:ICTAR"],"prob":1}},{"classId":"r_46","type":"linked","directed":false,"entities":["s10v1|e_4|995,1009","s10v1|e_39|154,177"],"confidence":{"state":"pre-added","who":["user:ICTAR"],"prob":1}},{"classId":"r_46","type":"linked","directed":false,"entities":["s10v1|e_4|995,1009","s10v1|e_39|184,209"],"confidence":{"state":"pre-added","who":["user:ICTAR"],"prob":1}},{"classId":"r_46","type":"linked","directed":false,"entities":["s10v1|e_4|1011,1022","s10v1|e_39|154,177"],"confidence":{"state":"pre-added","who":["user:ICTAR"],"prob":1}},{"classId":"r_46","type":"linked","directed":false,"entities":["s10v1|e_4|1011,1022","s10v1|e_39|184,209"],"confidence":{"state":"pre-added","who":["user:ICTAR"],"prob":1}},{"classId":"r_46","type":"linked","directed":false,"entities":["s10v1|e_4|1684,1693","s10v1|e_39|154,177"],"confidence":{"state":"pre-added","who":["user:ICTAR"],"prob":1}},{"classId":"r_46","type":"linked","directed":false,"entities":["s10v1|e_4|1726,1733","s10v1|e_39|154,177"],"confidence":{"state":"pre-added","who":["user:ICTAR"],"prob":1}},{"classId":"r_46","type":"linked","directed":false,"entities":["s11v1|e_4|96,106","s10v1|e_39|154,177"],"confidence":{"state":"pre-added","who":["user:ICTAR"],"prob":1}},{"classId":"r_46","type":"linked","directed":false,"entities":["s11v1|e_4|139,149","s10v1|e_39|154,177"],"confidence":{"state":"pre-added","who":["user:ICTAR"],"prob":1}},{"classId":"r_46","type":"linked","directed":false,"entities":["s11v1|e_4|279,294","s10v1|e_39|184,209"],"confidence":{"state":"pre-added","who":["user:ICTAR"],"prob":1}},{"classId":"r_46","type":"linked","directed":false,"entities":["s11v1|e_4|324,335","s10v1|e_39|154,177"],"confidence":{"state":"pre-added","who":["user:ICTAR"],"prob":1}},{"classId":"r_46","type":"linked","directed":false,"entities":["s11v1|e_4|487,498","s10v1|e_39|154,177"],"confidence":{"state":"pre-added","who":["user:ICTAR"],"prob":1}},{"classId":"r_46","type":"linked","directed":false,"entities":["s11v1|e_4|531,543","s10v1|e_39|154,177"],"confidence":{"state":"pre-added","who":["user:ICTAR"],"prob":1}},{"classId":"r_46","type":"linked","directed":false,"entities":["s11v1|e_4|673,690","s10v1|e_39|154,177"],"confidence":{"state":"pre-added","who":["user:ICTAR"],"prob":1}},{"classId":"r_46","type":"linked","directed":false,"entities":["s11v1|e_4|722,733","s10v1|e_39|154,177"],"confidence":{"state":"pre-added","who":["user:ICTAR"],"prob":1}},{"classId":"r_46","type":"linked","directed":false,"entities":["s11v1|e_4|807,820","s10v1|e_39|154,177"],"confidence":{"state":"pre-added","who":["user:ICTAR"],"prob":1}},{"classId":"r_46","type":"linked","directed":false,"entities":["s11v1|e_4|882,896","s10v1|e_39|154,177"],"confidence":{"state":"pre-added","who":["user:ICTAR"],"prob":1}},{"classId":"r_46","type":"linked","directed":false,"entities":["s11v1|e_4|928,939","s10v1|e_39|154,177"],"confidence":{"state":"pre-added","who":["user:ICTAR"],"prob":1}},{"classId":"r_46","type":"linked","directed":false,"entities":["s11v1|e_4|982,989","s10v1|e_39|154,177"],"confidence":{"state":"pre-added","who":["user:ICTAR"],"prob":1}},{"classId":"r_46","type":"linked","directed":false,"entities":["s11v1|e_4|1035,1042","s10v1|e_39|154,177"],"confidence":{"state":"pre-added","who":["user:ICTAR"],"prob":1}},{"classId":"r_46","type":"linked","directed":false,"entities":["s11v1|e_4|1116,1129","s10v1|e_39|154,177"],"confidence":{"state":"pre-added","who":["user:ICTAR"],"prob":1}},{"classId":"r_46","type":"linked","directed":false,"entities":["s11v1|e_4|1162,1175","s10v1|e_39|154,177"],"confidence":{"state":"pre-added","who":["user:ICTAR"],"prob":1}},{"classId":"r_46","type":"linked","directed":false,"entities":["s11v1|e_4|1270,1283","s10v1|e_39|154,177"],"confidence":{"state":"pre-added","who":["user:ICTAR"],"prob":1}},{"classId":"r_46","type":"linked","directed":false,"entities":["s11v1|e_4|1316,1328","s10v1|e_39|154,177"],"confidence":{"state":"pre-added","who":["user:ICTAR"],"prob":1}},{"classId":"r_46","type":"linked","directed":false,"entities":["s11v1|e_4|1390,1398","s10v1|e_39|154,177"],"confidence":{"state":"pre-added","who":["user:ICTAR"],"prob":1}},{"classId":"r_46","type":"linked","directed":false,"entities":["s11v1|e_4|1432,1445","s10v1|e_39|154,177"],"confidence":{"state":"pre-added","who":["user:ICTAR"],"prob":1}},{"classId":"r_46","type":"linked","directed":false,"entities":["s11v1|e_4|1477,1488","s10v1|e_39|154,177"],"confidence":{"state":"pre-added","who":["user:ICTAR"],"prob":1}},{"classId":"r_46","type":"linked","directed":false,"entities":["s11v1|e_4|1840,1854","s10v1|e_39|154,177"],"confidence":{"state":"pre-added","who":["user:ICTAR"],"prob":1}},{"classId":"r_60","type":"linked","directed":false,"entities":["s10v1|e_38|220,238","s10v1|e_5|1628,1649"],"confidence":{"state":"pre-added","who":["user:ICTAR"],"prob":1}},{"classId":"r_60","type":"linked","directed":false,"entities":["s10v1|e_38|220,238","s10v1|e_5|1703,1724"],"confidence":{"state":"pre-added","who":["user:ICTAR"],"prob":1}},{"classId":"r_60","type":"linked","directed":false,"entities":["s10v1|e_38|220,238","s10v1|e_5|1744,1765"],"confidence":{"state":"pre-added","who":["user:ICTAR"],"prob":1}},{"classId":"r_60","type":"linked","directed":false,"entities":["s10v1|e_38|220,238","s11v1|e_5|1864,1885"],"confidence":{"state":"pre-added","who":["user:ICTAR"],"prob":1}},{"classId":"r_60","type":"linked","directed":false,"entities":["s10v1|e_38|220,238","s11v1|e_5|1788,1809"],"confidence":{"state":"pre-added","who":["user:ICTAR"],"prob":1}},{"classId":"r_60","type":"linked","directed":false,"entities":["s10v1|e_38|220,238","s11v1|e_5|1757,1778"],"confidence":{"state":"pre-added","who":["user:ICTAR"],"prob":1}},{"classId":"r_60","type":"linked","directed":false,"entities":["s10v1|e_38|220,238","s11v1|e_5|1641,1662"],"confidence":{"state":"pre-added","who":["user:ICTAR"],"prob":1}},{"classId":"r_60","type":"linked","directed":false,"entities":["s10v1|e_38|220,238","s11v1|e_5|1497,1518"],"confidence":{"state":"pre-added","who":["user:ICTAR"],"prob":1}},{"classId":"r_60","type":"linked","directed":false,"entities":["s10v1|e_38|220,238","s11v1|e_5|1409,1430"],"confidence":{"state":"pre-added","who":["user:ICTAR"],"prob":1}},{"classId":"r_60","type":"linked","directed":false,"entities":["s10v1|e_38|220,238","s11v1|e_5|1338,1359"],"confidence":{"state":"pre-added","who":["user:ICTAR"],"prob":1}},{"classId":"r_60","type":"linked","directed":false,"entities":["s10v1|e_38|220,238","s11v1|e_5|1293,1314"],"confidence":{"state":"pre-added","who":["user:ICTAR"],"prob":1}},{"classId":"r_60","type":"linked","directed":false,"entities":["s10v1|e_38|220,238","s11v1|e_5|1247,1268"],"confidence":{"state":"pre-added","who":["user:ICTAR"],"prob":1}},{"classId":"r_60","type":"linked","directed":false,"entities":["s10v1|e_38|220,238","s11v1|e_5|1216,1237"],"confidence":{"state":"pre-added","who":["user:ICTAR"],"prob":1}},{"classId":"r_60","type":"linked","directed":false,"entities":["s10v1|e_38|220,238","s11v1|e_5|1185,1206"],"confidence":{"state":"pre-added","who":["user:ICTAR"],"prob":1}},{"classId":"r_60","type":"linked","directed":false,"entities":["s10v1|e_38|220,238","s11v1|e_5|1139,1160"],"confidence":{"state":"pre-added","who":["user:ICTAR"],"prob":1}},{"classId":"r_60","type":"linked","directed":false,"entities":["s10v1|e_38|220,238","s11v1|e_5|1093,1114"],"confidence":{"state":"pre-added","who":["user:ICTAR"],"prob":1}},{"classId":"r_60","type":"linked","directed":false,"entities":["s10v1|e_38|220,238","s11v1|e_5|1062,1083"],"confidence":{"state":"pre-added","who":["user:ICTAR"],"prob":1}},{"classId":"r_60","type":"linked","directed":false,"entities":["s10v1|e_38|220,238","s11v1|e_5|1012,1033"],"confidence":{"state":"pre-added","who":["user:ICTAR"],"prob":1}},{"classId":"r_60","type":"linked","directed":false,"entities":["s10v1|e_38|220,238","s11v1|e_5|959,980"],"confidence":{"state":"pre-added","who":["user:ICTAR"],"prob":1}},{"classId":"r_60","type":"linked","directed":false,"entities":["s10v1|e_38|220,238","s11v1|e_5|905,926"],"confidence":{"state":"pre-added","who":["user:ICTAR"],"prob":1}},{"classId":"r_60","type":"linked","directed":false,"entities":["s10v1|e_38|220,238","s11v1|e_5|859,880"],"confidence":{"state":"pre-added","who":["user:ICTAR"],"prob":1}},{"classId":"r_60","type":"linked","directed":false,"entities":["s10v1|e_38|220,238","s11v1|e_5|829,850"],"confidence":{"state":"pre-added","who":["user:ICTAR"],"prob":1}},{"classId":"r_60","type":"linked","directed":false,"entities":["s10v1|e_38|220,238","s11v1|e_5|742,763"],"confidence":{"state":"pre-added","who":["user:ICTAR"],"prob":1}},{"classId":"r_60","type":"linked","directed":false,"entities":["s10v1|e_38|220,238","s11v1|e_5|699,720"],"confidence":{"state":"pre-added","who":["user:ICTAR"],"prob":1}},{"classId":"r_60","type":"linked","directed":false,"entities":["s10v1|e_38|220,238","s11v1|e_5|464,485"],"confidence":{"state":"pre-added","who":["user:ICTAR"],"prob":1}},{"classId":"r_60","type":"linked","directed":false,"entities":["s10v1|e_38|220,238","s11v1|e_5|434,455"],"confidence":{"state":"pre-added","who":["user:ICTAR"],"prob":1}},{"classId":"r_60","type":"linked","directed":false,"entities":["s10v1|e_38|220,238","s11v1|e_5|404,425"],"confidence":{"state":"pre-added","who":["user:ICTAR"],"prob":1}},{"classId":"r_60","type":"linked","directed":false,"entities":["s10v1|e_38|220,238","s11v1|e_5|345,366"],"confidence":{"state":"pre-added","who":["user:ICTAR"],"prob":1}},{"classId":"r_60","type":"linked","directed":false,"entities":["s10v1|e_38|220,238","s11v1|e_5|223,244"],"confidence":{"state":"pre-added","who":["user:ICTAR"],"prob":1}},{"classId":"r_60","type":"linked","directed":false,"entities":["s10v1|e_38|220,238","s11v1|e_5|192,213"],"confidence":{"state":"pre-added","who":["user:ICTAR"],"prob":1}},{"classId":"r_60","type":"linked","directed":false,"entities":["s10v1|e_38|220,238","s11v1|e_5|161,182"],"confidence":{"state":"pre-added","who":["user:ICTAR"],"prob":1}},{"classId":"r_60","type":"linked","directed":false,"entities":["s10v1|e_38|220,238","s11v1|e_5|116,137"],"confidence":{"state":"pre-added","who":["user:ICTAR"],"prob":1}},{"classId":"r_60","type":"linked","directed":false,"entities":["s10v1|e_5|309,330","s10v1|e_38|220,238"],"confidence":{"state":"pre-added","who":["user:ICTAR"],"prob":1}},{"classId":"r_60","type":"linked","directed":false,"entities":["s10v1|e_5|350,371","s10v1|e_38|220,238"],"confidence":{"state":"pre-added","who":["user:ICTAR"],"prob":1}},{"classId":"r_60","type":"linked","directed":false,"entities":["s10v1|e_5|419,440","s10v1|e_38|220,238"],"confidence":{"state":"pre-added","who":["user:ICTAR"],"prob":1}},{"classId":"r_60","type":"linked","directed":false,"entities":["s10v1|e_5|448,469","s10v1|e_38|220,238"],"confidence":{"state":"pre-added","who":["user:ICTAR"],"prob":1}},{"classId":"r_60","type":"linked","directed":false,"entities":["s10v1|e_5|617,638","s10v1|e_38|220,238"],"confidence":{"state":"pre-added","who":["user:ICTAR"],"prob":1}},{"classId":"r_60","type":"linked","directed":false,"entities":["s10v1|e_5|648,669","s10v1|e_38|220,238"],"confidence":{"state":"pre-added","who":["user:ICTAR"],"prob":1}},{"classId":"r_60","type":"linked","directed":false,"entities":["s10v1|e_5|679,700","s10v1|e_38|220,238"],"confidence":{"state":"pre-added","who":["user:ICTAR"],"prob":1}},{"classId":"r_60","type":"linked","directed":false,"entities":["s10v1|e_5|710,731","s10v1|e_38|220,238"],"confidence":{"state":"pre-added","who":["user:ICTAR"],"prob":1}},{"classId":"r_60","type":"linked","directed":false,"entities":["s10v1|e_5|780,801","s10v1|e_38|220,238"],"confidence":{"state":"pre-added","who":["user:ICTAR"],"prob":1}},{"classId":"r_60","type":"linked","directed":false,"entities":["s10v1|e_5|810,831","s10v1|e_38|220,238"],"confidence":{"state":"pre-added","who":["user:ICTAR"],"prob":1}},{"classId":"r_60","type":"linked","directed":false,"entities":["s10v1|e_5|840,861","s10v1|e_38|220,238"],"confidence":{"state":"pre-added","who":["user:ICTAR"],"prob":1}},{"classId":"r_60","type":"linked","directed":false,"entities":["s10v1|e_5|886,907","s10v1|e_38|220,238"],"confidence":{"state":"pre-added","who":["user:ICTAR"],"prob":1}},{"classId":"r_60","type":"linked","directed":false,"entities":["s10v1|e_5|930,951","s10v1|e_38|220,238"],"confidence":{"state":"pre-added","who":["user:ICTAR"],"prob":1}},{"classId":"r_60","type":"linked","directed":false,"entities":["s10v1|e_5|972,993","s10v1|e_38|220,238"],"confidence":{"state":"pre-added","who":["user:ICTAR"],"prob":1}},{"classId":"r_60","type":"linked","directed":false,"entities":["s10v1|e_5|1031,1052","s10v1|e_38|220,238"],"confidence":{"state":"pre-added","who":["user:ICTAR"],"prob":1}},{"classId":"r_60","type":"linked","directed":false,"entities":["s10v1|e_5|1061,1082","s10v1|e_38|220,238"],"confidence":{"state":"pre-added","who":["user:ICTAR"],"prob":1}},{"classId":"r_60","type":"linked","directed":false,"entities":["s10v1|e_5|1091,1112","s10v1|e_38|220,238"],"confidence":{"state":"pre-added","who":["user:ICTAR"],"prob":1}},{"classId":"r_60","type":"linked","directed":false,"entities":["s10v1|e_5|1123,1144","s10v1|e_38|220,238"],"confidence":{"state":"pre-added","who":["user:ICTAR"],"prob":1}},{"classId":"r_60","type":"linked","directed":false,"entities":["s10v1|e_5|1155,1176","s10v1|e_38|220,238"],"confidence":{"state":"pre-added","who":["user:ICTAR"],"prob":1}},{"classId":"r_60","type":"linked","directed":false,"entities":["s10v1|e_5|1187,1208","s10v1|e_38|220,238"],"confidence":{"state":"pre-added","who":["user:ICTAR"],"prob":1}},{"classId":"r_60","type":"linked","directed":false,"entities":["s10v1|e_5|1219,1240","s10v1|e_38|220,238"],"confidence":{"state":"pre-added","who":["user:ICTAR"],"prob":1}},{"classId":"r_60","type":"linked","directed":false,"entities":["s10v1|e_5|1249,1270","s10v1|e_38|220,238"],"confidence":{"state":"pre-added","who":["user:ICTAR"],"prob":1}},{"classId":"r_60","type":"linked","directed":false,"entities":["s10v1|e_5|1279,1300","s10v1|e_38|220,238"],"confidence":{"state":"pre-added","who":["user:ICTAR"],"prob":1}},{"classId":"r_60","type":"linked","directed":false,"entities":["s10v1|e_5|1310,1331","s10v1|e_38|220,238"],"confidence":{"state":"pre-added","who":["user:ICTAR"],"prob":1}},{"classId":"r_60","type":"linked","directed":false,"entities":["s10v1|e_5|1341,1362","s10v1|e_38|220,238"],"confidence":{"state":"pre-added","who":["user:ICTAR"],"prob":1}},{"classId":"r_60","type":"linked","directed":false,"entities":["s10v1|e_5|1372,1393","s10v1|e_38|220,238"],"confidence":{"state":"pre-added","who":["user:ICTAR"],"prob":1}},{"classId":"r_60","type":"linked","directed":false,"entities":["s10v1|e_5|1403,1424","s10v1|e_38|220,238"],"confidence":{"state":"pre-added","who":["user:ICTAR"],"prob":1}},{"classId":"r_60","type":"linked","directed":false,"entities":["s10v1|e_5|1434,1455","s10v1|e_38|220,238"],"confidence":{"state":"pre-added","who":["user:ICTAR"],"prob":1}},{"classId":"r_60","type":"linked","directed":false,"entities":["s10v1|e_5|1465,1486","s10v1|e_38|220,238"],"confidence":{"state":"pre-added","who":["user:ICTAR"],"prob":1}},{"classId":"r_60","type":"linked","directed":false,"entities":["s10v1|e_5|1498,1519","s10v1|e_38|220,238"],"confidence":{"state":"pre-added","who":["user:ICTAR"],"prob":1}},{"classId":"r_60","type":"linked","directed":false,"entities":["s10v1|e_5|1531,1552","s10v1|e_38|220,238"],"confidence":{"state":"pre-added","who":["user:ICTAR"],"prob":1}},{"classId":"r_60","type":"linked","directed":false,"entities":["s10v1|e_5|1564,1585","s10v1|e_38|220,238"],"confidence":{"state":"pre-added","who":["user:ICTAR"],"prob":1}},{"classId":"r_60","type":"linked","directed":false,"entities":["s10v1|e_5|1597,1618","s10v1|e_38|220,238"],"confidence":{"state":"pre-added","who":["user:ICTAR"],"prob":1}},{"classId":"r_60","type":"linked","directed":false,"entities":["s10v1|e_5|1661,1682","s10v1|e_38|220,238"],"confidence":{"state":"pre-added","who":["user:ICTAR"],"prob":1}},{"classId":"r_60","type":"linked","directed":false,"entities":["s11v1|e_5|256,277","s10v1|e_38|220,238"],"confidence":{"state":"pre-added","who":["user:ICTAR"],"prob":1}},{"classId":"r_60","type":"linked","directed":false,"entities":["s11v1|e_5|374,395","s10v1|e_38|220,238"],"confidence":{"state":"pre-added","who":["user:ICTAR"],"prob":1}},{"classId":"r_60","type":"linked","directed":false,"entities":["s11v1|e_5|508,529","s10v1|e_38|220,238"],"confidence":{"state":"pre-added","who":["user:ICTAR"],"prob":1}},{"classId":"r_60","type":"linked","directed":false,"entities":["s11v1|e_5|566,587","s10v1|e_38|220,238"],"confidence":{"state":"pre-added","who":["user:ICTAR"],"prob":1}},{"classId":"r_60","type":"linked","directed":false,"entities":["s11v1|e_5|607,628","s10v1|e_38|220,238"],"confidence":{"state":"pre-added","who":["user:ICTAR"],"prob":1}},{"classId":"r_60","type":"linked","directed":false,"entities":["s11v1|e_5|650,671","s10v1|e_38|220,238"],"confidence":{"state":"pre-added","who":["user:ICTAR"],"prob":1}},{"classId":"r_60","type":"linked","directed":false,"entities":["s11v1|e_5|784,805","s10v1|e_38|220,238"],"confidence":{"state":"pre-added","who":["user:ICTAR"],"prob":1}},{"classId":"r_60","type":"linked","directed":false,"entities":["s11v1|e_5|1454,1475","s10v1|e_38|220,238"],"confidence":{"state":"pre-added","who":["user:ICTAR"],"prob":1}},{"classId":"r_60","type":"linked","directed":false,"entities":["s11v1|e_5|1526,1547","s10v1|e_38|220,238"],"confidence":{"state":"pre-added","who":["user:ICTAR"],"prob":1}},{"classId":"r_60","type":"linked","directed":false,"entities":["s11v1|e_5|1611,1632","s10v1|e_38|220,238"],"confidence":{"state":"pre-added","who":["user:ICTAR"],"prob":1}},{"classId":"r_60","type":"linked","directed":false,"entities":["s11v1|e_5|1670,1691","s10v1|e_38|220,238"],"confidence":{"state":"pre-added","who":["user:ICTAR"],"prob":1}},{"classId":"r_61","type":"linked","directed":false,"entities":["s10v1|e_39|184,209","s10v1|e_5|1597,1618"],"confidence":{"state":"pre-added","who":["user:ICTAR"],"prob":1}},{"classId":"r_61","type":"linked","directed":false,"entities":["s10v1|e_39|184,209","s10v1|e_5|1661,1682"],"confidence":{"state":"pre-added","who":["user:ICTAR"],"prob":1}},{"classId":"r_61","type":"linked","directed":false,"entities":["s10v1|e_39|184,209","s11v1|e_5|256,277"],"confidence":{"state":"pre-added","who":["user:ICTAR"],"prob":1}},{"classId":"r_61","type":"linked","directed":false,"entities":["s10v1|e_5|309,330","s10v1|e_39|154,177"],"confidence":{"state":"pre-added","who":["user:ICTAR"],"prob":1}},{"classId":"r_61","type":"linked","directed":false,"entities":["s10v1|e_5|350,371","s10v1|e_39|154,177"],"confidence":{"state":"pre-added","who":["user:ICTAR"],"prob":1}},{"classId":"r_61","type":"linked","directed":false,"entities":["s10v1|e_5|390,411","s10v1|e_39|154,177"],"confidence":{"state":"pre-added","who":["user:ICTAR"],"prob":1}},{"classId":"r_61","type":"linked","directed":false,"entities":["s10v1|e_5|476,497","s10v1|e_39|154,177"],"confidence":{"state":"pre-added","who":["user:ICTAR"],"prob":1}},{"classId":"r_61","type":"linked","directed":false,"entities":["s10v1|e_5|504,525","s10v1|e_39|154,177"],"confidence":{"state":"pre-added","who":["user:ICTAR"],"prob":1}},{"classId":"r_61","type":"linked","directed":false,"entities":["s10v1|e_5|532,553","s10v1|e_39|154,177"],"confidence":{"state":"pre-added","who":["user:ICTAR"],"prob":1}},{"classId":"r_61","type":"linked","directed":false,"entities":["s10v1|e_5|560,581","s10v1|e_39|154,177"],"confidence":{"state":"pre-added","who":["user:ICTAR"],"prob":1}},{"classId":"r_61","type":"linked","directed":false,"entities":["s10v1|e_5|588,609","s10v1|e_39|154,177"],"confidence":{"state":"pre-added","who":["user:ICTAR"],"prob":1}},{"classId":"r_61","type":"linked","directed":false,"entities":["s10v1|e_5|648,669","s10v1|e_39|154,177"],"confidence":{"state":"pre-added","who":["user:ICTAR"],"prob":1}},{"classId":"r_61","type":"linked","directed":false,"entities":["s10v1|e_5|679,700","s10v1|e_39|154,177"],"confidence":{"state":"pre-added","who":["user:ICTAR"],"prob":1}},{"classId":"r_61","type":"linked","directed":false,"entities":["s10v1|e_5|710,731","s10v1|e_39|154,177"],"confidence":{"state":"pre-added","who":["user:ICTAR"],"prob":1}},{"classId":"r_61","type":"linked","directed":false,"entities":["s10v1|e_5|739,760","s10v1|e_39|154,177"],"confidence":{"state":"pre-added","who":["user:ICTAR"],"prob":1}},{"classId":"r_61","type":"linked","directed":false,"entities":["s10v1|e_5|810,831","s10v1|e_39|154,177"],"confidence":{"state":"pre-added","who":["user:ICTAR"],"prob":1}},{"classId":"r_61","type":"linked","directed":false,"entities":["s10v1|e_5|840,861","s10v1|e_39|154,177"],"confidence":{"state":"pre-added","who":["user:ICTAR"],"prob":1}},{"classId":"r_61","type":"linked","directed":false,"entities":["s10v1|e_5|930,951","s10v1|e_39|154,177"],"confidence":{"state":"pre-added","who":["user:ICTAR"],"prob":1}},{"classId":"r_61","type":"linked","directed":false,"entities":["s10v1|e_5|972,993","s10v1|e_39|154,177"],"confidence":{"state":"pre-added","who":["user:ICTAR"],"prob":1}},{"classId":"r_61","type":"linked","directed":false,"entities":["s10v1|e_5|1031,1052","s10v1|e_39|154,177"],"confidence":{"state":"pre-added","who":["user:ICTAR"],"prob":1}},{"classId":"r_61","type":"linked","directed":false,"entities":["s10v1|e_5|1061,1082","s10v1|e_39|154,177"],"confidence":{"state":"pre-added","who":["user:ICTAR"],"prob":1}},{"classId":"r_61","type":"linked","directed":false,"entities":["s10v1|e_5|1091,1112","s10v1|e_39|154,177"],"confidence":{"state":"pre-added","who":["user:ICTAR"],"prob":1}},{"classId":"r_61","type":"linked","directed":false,"entities":["s10v1|e_5|1123,1144","s10v1|e_39|154,177"],"confidence":{"state":"pre-added","who":["user:ICTAR"],"prob":1}},{"classId":"r_61","type":"linked","directed":false,"entities":["s10v1|e_5|1123,1144","s10v1|e_39|184,209"],"confidence":{"state":"pre-added","who":["user:ICTAR"],"prob":1}},{"classId":"r_61","type":"linked","directed":false,"entities":["s10v1|e_5|1155,1176","s10v1|e_39|154,177"],"confidence":{"state":"pre-added","who":["user:ICTAR"],"prob":1}},{"classId":"r_61","type":"linked","directed":false,"entities":["s10v1|e_5|1155,1176","s10v1|e_39|184,209"],"confidence":{"state":"pre-added","who":["user:ICTAR"],"prob":1}},{"classId":"r_61","type":"linked","directed":false,"entities":["s10v1|e_5|1187,1208","s10v1|e_39|154,177"],"confidence":{"state":"pre-added","who":["user:ICTAR"],"prob":1}},{"classId":"r_61","type":"linked","directed":false,"entities":["s10v1|e_5|1187,1208","s10v1|e_39|184,209"],"confidence":{"state":"pre-added","who":["user:ICTAR"],"prob":1}},{"classId":"r_61","type":"linked","directed":false,"entities":["s10v1|e_5|1219,1240","s10v1|e_39|154,177"],"confidence":{"state":"pre-added","who":["user:ICTAR"],"prob":1}},{"classId":"r_61","type":"linked","directed":false,"entities":["s10v1|e_5|1219,1240","s10v1|e_39|184,209"],"confidence":{"state":"pre-added","who":["user:ICTAR"],"prob":1}},{"classId":"r_61","type":"linked","directed":false,"entities":["s10v1|e_5|1249,1270","s10v1|e_39|154,177"],"confidence":{"state":"pre-added","who":["user:ICTAR"],"prob":1}},{"classId":"r_61","type":"linked","directed":false,"entities":["s10v1|e_5|1279,1300","s10v1|e_39|154,177"],"confidence":{"state":"pre-added","who":["user:ICTAR"],"prob":1}},{"classId":"r_61","type":"linked","directed":false,"entities":["s10v1|e_5|1310,1331","s10v1|e_39|154,177"],"confidence":{"state":"pre-added","who":["user:ICTAR"],"prob":1}},{"classId":"r_61","type":"linked","directed":false,"entities":["s10v1|e_5|1341,1362","s10v1|e_39|154,177"],"confidence":{"state":"pre-added","who":["user:ICTAR"],"prob":1}},{"classId":"r_61","type":"linked","directed":false,"entities":["s10v1|e_5|1372,1393","s10v1|e_39|154,177"],"confidence":{"state":"pre-added","who":["user:ICTAR"],"prob":1}},{"classId":"r_61","type":"linked","directed":false,"entities":["s10v1|e_5|1403,1424","s10v1|e_39|154,177"],"confidence":{"state":"pre-added","who":["user:ICTAR"],"prob":1}},{"classId":"r_61","type":"linked","directed":false,"entities":["s10v1|e_5|1434,1455","s10v1|e_39|154,177"],"confidence":{"state":"pre-added","who":["user:ICTAR"],"prob":1}},{"classId":"r_61","type":"linked","directed":false,"entities":["s10v1|e_5|1465,1486","s10v1|e_39|154,177"],"confidence":{"state":"pre-added","who":["user:ICTAR"],"prob":1}},{"classId":"r_61","type":"linked","directed":false,"entities":["s10v1|e_5|1498,1519","s10v1|e_39|154,177"],"confidence":{"state":"pre-added","who":["user:ICTAR"],"prob":1}},{"classId":"r_61","type":"linked","directed":false,"entities":["s10v1|e_5|1498,1519","s10v1|e_39|184,209"],"confidence":{"state":"pre-added","who":["user:ICTAR"],"prob":1}},{"classId":"r_61","type":"linked","directed":false,"entities":["s10v1|e_5|1531,1552","s10v1|e_39|154,177"],"confidence":{"state":"pre-added","who":["user:ICTAR"],"prob":1}},{"classId":"r_61","type":"linked","directed":false,"entities":["s10v1|e_5|1531,1552","s10v1|e_39|184,209"],"confidence":{"state":"pre-added","who":["user:ICTAR"],"prob":1}},{"classId":"r_61","type":"linked","directed":false,"entities":["s10v1|e_5|1564,1585","s10v1|e_39|154,177"],"confidence":{"state":"pre-added","who":["user:ICTAR"],"prob":1}},{"classId":"r_61","type":"linked","directed":false,"entities":["s10v1|e_5|1564,1585","s10v1|e_39|184,209"],"confidence":{"state":"pre-added","who":["user:ICTAR"],"prob":1}},{"classId":"r_61","type":"linked","directed":false,"entities":["s10v1|e_5|1597,1618","s10v1|e_39|154,177"],"confidence":{"state":"pre-added","who":["user:ICTAR"],"prob":1}},{"classId":"r_61","type":"linked","directed":false,"entities":["s10v1|e_5|1628,1649","s10v1|e_39|154,177"],"confidence":{"state":"pre-added","who":["user:ICTAR"],"prob":1}},{"classId":"r_61","type":"linked","directed":false,"entities":["s10v1|e_5|1661,1682","s10v1|e_39|154,177"],"confidence":{"state":"pre-added","who":["user:ICTAR"],"prob":1}},{"classId":"r_61","type":"linked","directed":false,"entities":["s10v1|e_5|1703,1724","s10v1|e_39|154,177"],"confidence":{"state":"pre-added","who":["user:ICTAR"],"prob":1}},{"classId":"r_61","type":"linked","directed":false,"entities":["s10v1|e_5|1744,1765","s10v1|e_39|154,177"],"confidence":{"state":"pre-added","who":["user:ICTAR"],"prob":1}},{"classId":"r_61","type":"linked","directed":false,"entities":["s11v1|e_5|116,137","s10v1|e_39|154,177"],"confidence":{"state":"pre-added","who":["user:ICTAR"],"prob":1}},{"classId":"r_61","type":"linked","directed":false,"entities":["s11v1|e_5|161,182","s10v1|e_39|154,177"],"confidence":{"state":"pre-added","who":["user:ICTAR"],"prob":1}},{"classId":"r_61","type":"linked","directed":false,"entities":["s11v1|e_5|161,182","s10v1|e_39|184,209"],"confidence":{"state":"pre-added","who":["user:ICTAR"],"prob":1}},{"classId":"r_61","type":"linked","directed":false,"entities":["s11v1|e_5|192,213","s10v1|e_39|154,177"],"confidence":{"state":"pre-added","who":["user:ICTAR"],"prob":1}},{"classId":"r_61","type":"linked","directed":false,"entities":["s11v1|e_5|223,244","s10v1|e_39|154,177"],"confidence":{"state":"pre-added","who":["user:ICTAR"],"prob":1}},{"classId":"r_61","type":"linked","directed":false,"entities":["s11v1|e_5|256,277","s10v1|e_39|154,177"],"confidence":{"state":"pre-added","who":["user:ICTAR"],"prob":1}},{"classId":"r_61","type":"linked","directed":false,"entities":["s11v1|e_5|301,322","s10v1|e_39|184,209"],"confidence":{"state":"pre-added","who":["user:ICTAR"],"prob":1}},{"classId":"r_61","type":"linked","directed":false,"entities":["s11v1|e_5|345,366","s10v1|e_39|154,177"],"confidence":{"state":"pre-added","who":["user:ICTAR"],"prob":1}},{"classId":"r_61","type":"linked","directed":false,"entities":["s11v1|e_5|404,425","s10v1|e_39|154,177"],"confidence":{"state":"pre-added","who":["user:ICTAR"],"prob":1}},{"classId":"r_61","type":"linked","directed":false,"entities":["s11v1|e_5|434,455","s10v1|e_39|154,177"],"confidence":{"state":"pre-added","who":["user:ICTAR"],"prob":1}},{"classId":"r_61","type":"linked","directed":false,"entities":["s11v1|e_5|464,485","s10v1|e_39|154,177"],"confidence":{"state":"pre-added","who":["user:ICTAR"],"prob":1}},{"classId":"r_61","type":"linked","directed":false,"entities":["s11v1|e_5|508,529","s10v1|e_39|154,177"],"confidence":{"state":"pre-added","who":["user:ICTAR"],"prob":1}},{"classId":"r_61","type":"linked","directed":false,"entities":["s11v1|e_5|699,720","s10v1|e_39|154,177"],"confidence":{"state":"pre-added","who":["user:ICTAR"],"prob":1}},{"classId":"r_61","type":"linked","directed":false,"entities":["s11v1|e_5|742,763","s10v1|e_39|154,177"],"confidence":{"state":"pre-added","who":["user:ICTAR"],"prob":1}},{"classId":"r_61","type":"linked","directed":false,"entities":["s11v1|e_5|829,850","s10v1|e_39|154,177"],"confidence":{"state":"pre-added","who":["user:ICTAR"],"prob":1}},{"classId":"r_61","type":"linked","directed":false,"entities":["s11v1|e_5|859,880","s10v1|e_39|154,177"],"confidence":{"state":"pre-added","who":["user:ICTAR"],"prob":1}},{"classId":"r_61","type":"linked","directed":false,"entities":["s11v1|e_5|905,926","s10v1|e_39|154,177"],"confidence":{"state":"pre-added","who":["user:ICTAR"],"prob":1}},{"classId":"r_61","type":"linked","directed":false,"entities":["s11v1|e_5|959,980","s10v1|e_39|154,177"],"confidence":{"state":"pre-added","who":["user:ICTAR"],"prob":1}},{"classId":"r_61","type":"linked","directed":false,"entities":["s11v1|e_5|1012,1033","s10v1|e_39|154,177"],"confidence":{"state":"pre-added","who":["user:ICTAR"],"prob":1}},{"classId":"r_61","type":"linked","directed":false,"entities":["s11v1|e_5|1062,1083","s10v1|e_39|154,177"],"confidence":{"state":"pre-added","who":["user:ICTAR"],"prob":1}},{"classId":"r_61","type":"linked","directed":false,"entities":["s11v1|e_5|1093,1114","s10v1|e_39|154,177"],"confidence":{"state":"pre-added","who":["user:ICTAR"],"prob":1}},{"classId":"r_61","type":"linked","directed":false,"entities":["s11v1|e_5|1139,1160","s10v1|e_39|154,177"],"confidence":{"state":"pre-added","who":["user:ICTAR"],"prob":1}},{"classId":"r_61","type":"linked","directed":false,"entities":["s11v1|e_5|1185,1206","s10v1|e_39|154,177"],"confidence":{"state":"pre-added","who":["user:ICTAR"],"prob":1}},{"classId":"r_61","type":"linked","directed":false,"entities":["s11v1|e_5|1216,1237","s10v1|e_39|154,177"],"confidence":{"state":"pre-added","who":["user:ICTAR"],"prob":1}},{"classId":"r_61","type":"linked","directed":false,"entities":["s11v1|e_5|1247,1268","s10v1|e_39|154,177"],"confidence":{"state":"pre-added","who":["user:ICTAR"],"prob":1}},{"classId":"r_61","type":"linked","directed":false,"entities":["s11v1|e_5|1293,1314","s10v1|e_39|154,177"],"confidence":{"state":"pre-added","who":["user:ICTAR"],"prob":1}},{"classId":"r_61","type":"linked","directed":false,"entities":["s11v1|e_5|1338,1359","s10v1|e_39|154,177"],"confidence":{"state":"pre-added","who":["user:ICTAR"],"prob":1}},{"classId":"r_61","type":"linked","directed":false,"entities":["s11v1|e_5|1367,1388","s10v1|e_39|154,177"],"confidence":{"state":"pre-added","who":["user:ICTAR"],"prob":1}},{"classId":"r_61","type":"linked","directed":false,"entities":["s11v1|e_5|1409,1430","s10v1|e_39|154,177"],"confidence":{"state":"pre-added","who":["user:ICTAR"],"prob":1}},{"classId":"r_61","type":"linked","directed":false,"entities":["s11v1|e_5|1454,1475","s10v1|e_39|154,177"],"confidence":{"state":"pre-added","who":["user:ICTAR"],"prob":1}},{"classId":"r_61","type":"linked","directed":false,"entities":["s11v1|e_5|1497,1518","s10v1|e_39|154,177"],"confidence":{"state":"pre-added","who":["user:ICTAR"],"prob":1}},{"classId":"r_61","type":"linked","directed":false,"entities":["s11v1|e_5|1554,1575","s10v1|e_39|154,177"],"confidence":{"state":"pre-added","who":["user:ICTAR"],"prob":1}},{"classId":"r_61","type":"linked","directed":false,"entities":["s11v1|e_5|1582,1603","s10v1|e_39|154,177"],"confidence":{"state":"pre-added","who":["user:ICTAR"],"prob":1}},{"classId":"r_61","type":"linked","directed":false,"entities":["s11v1|e_5|1641,1662","s10v1|e_39|154,177"],"confidence":{"state":"pre-added","who":["user:ICTAR"],"prob":1}},{"classId":"r_61","type":"linked","directed":false,"entities":["s11v1|e_5|1698,1719","s10v1|e_39|154,177"],"confidence":{"state":"pre-added","who":["user:ICTAR"],"prob":1}},{"classId":"r_61","type":"linked","directed":false,"entities":["s11v1|e_5|1726,1747","s10v1|e_39|154,177"],"confidence":{"state":"pre-added","who":["user:ICTAR"],"prob":1}},{"classId":"r_61","type":"linked","directed":false,"entities":["s11v1|e_5|1757,1778","s10v1|e_39|154,177"],"confidence":{"state":"pre-added","who":["user:ICTAR"],"prob":1}},{"classId":"r_61","type":"linked","directed":false,"entities":["s11v1|e_5|1788,1809","s10v1|e_39|154,177"],"confidence":{"state":"pre-added","who":["user:ICTAR"],"prob":1}},{"classId":"r_61","type":"linked","directed":false,"entities":["s11v1|e_5|1817,1838","s10v1|e_39|154,177"],"confidence":{"state":"pre-added","who":["user:ICTAR"],"prob":1}},{"classId":"r_61","type":"linked","directed":false,"entities":["s11v1|e_5|1864,1885","s10v1|e_39|154,177"],"confidence":{"state":"pre-added","who":["user:ICTAR"],"prob":1}}]}