{"annotatable":{"parts":["s1v1","s2v1","s3v1","s4v1","s5v1","s6v1","s7v1","s8v1","s9v1","s10v1","s11v1","s12v1","s13v1","s14v1","s15v1","s16v1","s17v1","s18v1","s19v1","s20v1","s21v1","s22v1","s23v1","s24v1","s25v1","s26v1","s27v1","s28v1","s29v1","s30v1","s31v1","s32v1","s33v1","s34v1","s35v1","s36v1","s37v1","s38v1","s39v1","s40v1","s41v1","s42v1","s43v1","s44v1","s45v1","s46v1","s47v1","s48v1","s49v1","s50v1","s51v1","s52v1","s53v1","s54v1","s55v1","s56v1","s57v1","s58v1","s59v1","s60v1","s61v1","s62v1","s63v1","s64v1","s65v1","s66v1","s67v1","s68v1","s69v1","s70v1","s71v1","s72v1","s73v1","s74v1","s75v1","s76v1","s77v1","s78v1","s79v1","s80v1","s81v1","s82v1","s83v1","s84v1","s85v1","s86v1","s87v1","s88v1","s89v1","s90v1","s91v1","s92v1","s93v1","s94v1","s95v1","s96v1","s97v1","s98v1","s99v1","s100v1","s101v1","s102v1","s103v1","s104v1","s105v1","s106v1","s107v1","s108v1","s109v1","s110v1","s111v1","s112v1","s113v1","s114v1","s115v1","s116v1","s117v1"]},"anncomplete":true,"sources":[],"metas":{"m_16":{"value":"Ross Sea Region","confidence":{"state":"pre-added","who":["user:ICTAR"],"prob":1}},"m_76":{"value":true,"confidence":{"state":"pre-added","who":["user:ICTAR"],"prob":1}},"m_14":{"value":false,"confidence":{"state":"pre-added","who":["user:ICTAR"],"prob":1}}},"entities":[{"classId":"e_4","part":"s3v1","offsets":[{"start":516,"text":"Mackay Glacier"}],"coordinates":[],"confidence":{"state":"pre-added","who":["ml:dpeker"],"prob":0.9518},"fields":{},"normalizations":{"n_34":{"source":{"name":"GeoNamesSCAR","id":"128291","url":null},"recName":"Mackay Glacier","confidence":{"state":"pre-added","who":["ml:dpeker"],"prob":0.9518}}}},{"classId":"e_4","part":"s3v1","offsets":[{"start":1328,"text":"Mackay Glacier"}],"coordinates":[],"confidence":{"state":"pre-added","who":["ml:dpeker"],"prob":0.9518},"fields":{},"normalizations":{"n_34":{"source":{"name":"GeoNamesSCAR","id":"128291","url":null},"recName":"Mackay Glacier","confidence":{"state":"pre-added","who":["ml:dpeker"],"prob":0.9518}}}},{"classId":"e_4","part":"s4v1","offsets":[{"start":891,"text":"Scott Base"}],"coordinates":[],"confidence":{"state":"pre-added","who":["ml:dpeker"],"prob":0.9266},"fields":{},"normalizations":{"n_34":{"source":{"name":"GeoNamesSCAR","id":"114326","url":null},"recName":"Scott Base","confidence":{"state":"pre-added","who":["ml:dpeker"],"prob":0.9266}}}},{"classId":"e_4","part":"s4v1","offsets":[{"start":1064,"text":"Tiger Island"}],"coordinates":[],"confidence":{"state":"pre-added","who":["ml:dpeker"],"prob":0.9416},"fields":{},"normalizations":{"n_34":{"source":{"name":"GeoNamesSCAR","id":"132702","url":null},"recName":"Tiger Island","confidence":{"state":"pre-added","who":["ml:dpeker"],"prob":0.9416}}}},{"classId":"e_4","part":"s9v1","offsets":[{"start":127,"text":"Ross Dependency"}],"coordinates":[],"confidence":{"state":"pre-added","who":["ml:dpeker"],"prob":0.9558},"fields":{},"normalizations":{"n_34":{"source":{"name":"GeoNamesSCAR","id":"134188","url":null},"recName":"Ross Dependency","confidence":{"state":"pre-added","who":["ml:dpeker"],"prob":0.9558}}}},{"classId":"e_4","part":"s9v1","offsets":[{"start":286,"text":"Transantarctic Mountains"}],"coordinates":[],"confidence":{"state":"pre-added","who":["ml:dpeker"],"prob":0.9754},"fields":{},"normalizations":{"n_34":{"source":{"name":"GeoNamesSCAR","id":"132843","url":null},"recName":"Transantarctic Mountains","confidence":{"state":"pre-added","who":["ml:dpeker"],"prob":0.9754}}}},{"classId":"e_4","part":"s9v1","offsets":[{"start":488,"text":"Mackay Glacier"}],"coordinates":[],"confidence":{"state":"pre-added","who":["ml:dpeker"],"prob":0.9518},"fields":{},"normalizations":{"n_34":{"source":{"name":"GeoNamesSCAR","id":"128291","url":null},"recName":"Mackay Glacier","confidence":{"state":"pre-added","who":["ml:dpeker"],"prob":0.9518}}}},{"classId":"e_4","part":"s9v1","offsets":[{"start":518,"text":"Ross Island"}],"coordinates":[],"confidence":{"state":"pre-added","who":["ml:dpeker"],"prob":0.9349},"fields":{},"normalizations":{"n_34":{"source":{"name":"GeoNamesSCAR","id":"130958","url":null},"recName":"Ross Island","confidence":{"state":"pre-added","who":["ml:dpeker"],"prob":0.9349}}}},{"classId":"e_4","part":"s9v1","offsets":[{"start":648,"text":"Towle Glacier"}],"coordinates":[],"confidence":{"state":"pre-added","who":["ml:dpeker"],"prob":0.9472},"fields":{},"normalizations":{"n_34":{"source":{"name":"GeoNamesSCAR","id":"132820","url":null},"recName":"Towle Glacier","confidence":{"state":"pre-added","who":["ml:dpeker"],"prob":0.9472}}}},{"classId":"e_4","part":"s9v1","offsets":[{"start":665,"text":"Benson Glacier"}],"coordinates":[],"confidence":{"state":"pre-added","who":["ml:dpeker"],"prob":0.9518},"fields":{},"normalizations":{"n_34":{"source":{"name":"GeoNamesSCAR","id":"122420","url":null},"recName":"Benson Glacier","confidence":{"state":"pre-added","who":["ml:dpeker"],"prob":0.9518}}}},{"classId":"e_4","part":"s9v1","offsets":[{"start":684,"text":"Tiger Island"}],"coordinates":[],"confidence":{"state":"pre-added","who":["ml:dpeker"],"prob":0.9416},"fields":{},"normalizations":{"n_34":{"source":{"name":"GeoNamesSCAR","id":"132702","url":null},"recName":"Tiger Island","confidence":{"state":"pre-added","who":["ml:dpeker"],"prob":0.9416}}}},{"classId":"e_4","part":"s9v1","offsets":[{"start":741,"text":"The Flatiron"}],"coordinates":[],"confidence":{"state":"pre-added","who":["ml:dpeker"],"prob":0.9416},"fields":{},"normalizations":{"n_34":{"source":{"name":"GeoNamesSCAR","id":"125175","url":null},"recName":"Flatiron, The","confidence":{"state":"pre-added","who":["ml:dpeker"],"prob":0.9416}}}},{"classId":"e_4","part":"s9v1","offsets":[{"start":758,"text":"Sperm Bluff"}],"coordinates":[],"confidence":{"state":"pre-added","who":["ml:dpeker"],"prob":0.9349},"fields":{},"normalizations":{"n_34":{"source":{"name":"GeoNamesSCAR","id":"131987","url":null},"recName":"Sperm Bluff","confidence":{"state":"pre-added","who":["ml:dpeker"],"prob":0.9349}}}},{"classId":"e_39","part":"s10v1","offsets":[{"start":17,"text":"Gomphiocephalus hodgsoni"}],"coordinates":[],"confidence":{"state":"pre-added","who":["ml:dpeker"],"prob":0.9754},"fields":{},"normalizations":{"n_44":{"source":{"name":"SpringtailNames","id":"gohodg","url":null},"recName":"Gomphiocephalus hodgsoni","confidence":{"state":"pre-added","who":["ml:dpeker"],"prob":0.9754}}}},{"classId":"e_39","part":"s10v1","offsets":[{"start":222,"text":"Antarcticinella monoculata"}],"coordinates":[],"confidence":{"state":"pre-added","who":["ml:dpeker"],"prob":0.9778},"fields":{},"normalizations":{"n_44":{"source":{"name":"SpringtailNames","id":"anmono","url":null},"recName":"Antarcticinella monoculata","confidence":{"state":"pre-added","who":["ml:dpeker"],"prob":0.9778}}}},{"classId":"e_4","part":"s16v1","offsets":[{"start":1527,"text":"Mackay Glacier"}],"coordinates":[],"confidence":{"state":"pre-added","who":["ml:dpeker"],"prob":0.9518},"fields":{},"normalizations":{"n_34":{"source":{"name":"GeoNamesSCAR","id":"128291","url":null},"recName":"Mackay Glacier","confidence":{"state":"pre-added","who":["ml:dpeker"],"prob":0.9518}}}},{"classId":"e_4","part":"s17v1","offsets":[{"start":491,"text":"Queen Maud\n\nMountains ("}],"coordinates":[],"confidence":{"state":"pre-added","who":["ml:dpeker"],"prob":0.7732},"fields":{},"normalizations":{"n_34":{"source":{"name":"GeoNamesSCAR","id":"130480","url":null},"recName":"Queen Maud Mountains","confidence":{"state":"pre-added","who":["ml:dpeker"],"prob":0.7732}}}},{"classId":"e_4","part":"s17v1","offsets":[{"start":683,"text":"Mackay Glacier"}],"coordinates":[],"confidence":{"state":"pre-added","who":["ml:dpeker"],"prob":0.9518},"fields":{},"normalizations":{"n_34":{"source":{"name":"GeoNamesSCAR","id":"128291","url":null},"recName":"Mackay Glacier","confidence":{"state":"pre-added","who":["ml:dpeker"],"prob":0.9518}}}},{"classId":"e_4","part":"s17v1","offsets":[{"start":730,"text":"McMurdo Dry Valleys"}],"coordinates":[],"confidence":{"state":"pre-added","who":["ml:dpeker"],"prob":0.9671},"fields":{},"normalizations":{"n_34":{"source":{"name":"GeoNamesSCAR","id":"113892","url":null},"recName":"McMurdo Dry Valleys","confidence":{"state":"pre-added","who":["ml:dpeker"],"prob":0.9671}}}},{"classId":"e_4","part":"s17v1","offsets":[{"start":835,"text":"McMurdo Dry Valleys"}],"coordinates":[],"confidence":{"state":"pre-added","who":["ml:dpeker"],"prob":0.9671},"fields":{},"normalizations":{"n_34":{"source":{"name":"GeoNamesSCAR","id":"113892","url":null},"recName":"McMurdo Dry Valleys","confidence":{"state":"pre-added","who":["ml:dpeker"],"prob":0.9671}}}},{"classId":"e_39","part":"s17v1","offsets":[{"start":901,"text":"Gomphiocephalus hodgsoni"}],"coordinates":[],"confidence":{"state":"pre-added","who":["ml:dpeker"],"prob":0.9754},"fields":{},"normalizations":{"n_44":{"source":{"name":"SpringtailNames","id":"gohodg","url":null},"recName":"Gomphiocephalus hodgsoni","confidence":{"state":"pre-added","who":["ml:dpeker"],"prob":0.9754}}}},{"classId":"e_39","part":"s17v1","offsets":[{"start":969,"text":"Antarcticinella monoculata"}],"coordinates":[],"confidence":{"state":"pre-added","who":["ml:dpeker"],"prob":0.9778},"fields":{},"normalizations":{"n_44":{"source":{"name":"SpringtailNames","id":"anmono","url":null},"recName":"Antarcticinella monoculata","confidence":{"state":"pre-added","who":["ml:dpeker"],"prob":0.9778}}}},{"classId":"e_39","part":"s17v1","offsets":[{"start":1001,"text":"Cryptopygus nivicolis"}],"coordinates":[{"x":"113.42","y":"447.13"},{"x":"218.39","y":"452.59"}],"confidence":{"state":"pre-added","who":["user:ICTAR"],"prob":1},"fields":{},"normalizations":{"n_44":{"source":{"name":"SpringtailNames","id":"nenivi","url":null},"recName":"","confidence":{"state":"pre-added","who":["user:ICTAR"],"prob":1}}}},{"classId":"e_4","part":"s17v1","offsets":[{"start":1066,"text":"Mackay Glacier\n\n("}],"coordinates":[],"confidence":{"state":"pre-added","who":["ml:dpeker"],"prob":0.8035},"fields":{},"normalizations":{"n_34":{"source":{"name":"GeoNamesSCAR","id":"128291","url":null},"recName":"Mackay Glacier","confidence":{"state":"pre-added","who":["ml:dpeker"],"prob":0.8035}}}},{"classId":"e_4","part":"s18v1","offsets":[{"start":53,"text":"Mackay Glacier"}],"coordinates":[],"confidence":{"state":"pre-added","who":["ml:dpeker"],"prob":0.9518},"fields":{},"normalizations":{"n_34":{"source":{"name":"GeoNamesSCAR","id":"128291","url":null},"recName":"Mackay Glacier","confidence":{"state":"pre-added","who":["ml:dpeker"],"prob":0.9518}}}},{"classId":"e_39","part":"s19v1","offsets":[{"start":734,"text":"Gomphiocephalus  hodgsoni"}],"coordinates":[],"confidence":{"state":"pre-added","who":["ml:dpeker"],"prob":0.8974},"fields":{},"normalizations":{"n_44":{"source":{"name":"SpringtailNames","id":"gohodg","url":null},"recName":"Gomphiocephalus hodgsoni","confidence":{"state":"pre-added","who":["ml:dpeker"],"prob":0.8974}}}},{"classId":"e_4","part":"s19v1","offsets":[{"start":811,"text":"Taylor\n\nValley,"}],"coordinates":[],"confidence":{"state":"pre-added","who":["ml:dpeker"],"prob":0.7798},"fields":{},"normalizations":{"n_34":{"source":{"name":"GeoNamesSCAR","id":"132512","url":null},"recName":"Taylor Valley","confidence":{"state":"pre-added","who":["ml:dpeker"],"prob":0.7798}}}},{"classId":"e_39","part":"s23v1","offsets":[{"start":1073,"text":"Gomphiocephalus hodgsoni"}],"coordinates":[],"confidence":{"state":"pre-added","who":["ml:dpeker"],"prob":0.9754},"fields":{},"normalizations":{"n_44":{"source":{"name":"SpringtailNames","id":"gohodg","url":null},"recName":"Gomphiocephalus hodgsoni","confidence":{"state":"pre-added","who":["ml:dpeker"],"prob":0.9754}}}},{"classId":"e_4","part":"s72v1","offsets":[{"start":94,"text":"Mackay Glacier"}],"coordinates":[],"confidence":{"state":"pre-added","who":["ml:dpeker"],"prob":0.9518},"fields":{},"normalizations":{"n_34":{"source":{"name":"GeoNamesSCAR","id":"128291","url":null},"recName":"Mackay Glacier","confidence":{"state":"pre-added","who":["ml:dpeker"],"prob":0.9518}}}},{"classId":"e_4","part":"s73v1","offsets":[{"start":404,"text":"Mackay Glacier"}],"coordinates":[],"confidence":{"state":"pre-added","who":["ml:dpeker"],"prob":0.9518},"fields":{},"normalizations":{"n_34":{"source":{"name":"GeoNamesSCAR","id":"128291","url":null},"recName":"Mackay Glacier","confidence":{"state":"pre-added","who":["ml:dpeker"],"prob":0.9518}}}},{"classId":"e_4","part":"s73v1","offsets":[{"start":1497,"text":"Mackay Glacier"}],"coordinates":[],"confidence":{"state":"pre-added","who":["ml:dpeker"],"prob":0.9518},"fields":{},"normalizations":{"n_34":{"source":{"name":"GeoNamesSCAR","id":"128291","url":null},"recName":"Mackay Glacier","confidence":{"state":"pre-added","who":["ml:dpeker"],"prob":0.9518}}}},{"classId":"e_4","part":"s74v1","offsets":[{"start":1377,"text":"Mackay Glacier"}],"coordinates":[],"confidence":{"state":"pre-added","who":["ml:dpeker"],"prob":0.9518},"fields":{},"normalizations":{"n_34":{"source":{"name":"GeoNamesSCAR","id":"128291","url":null},"recName":"Mackay Glacier","confidence":{"state":"pre-added","who":["ml:dpeker"],"prob":0.9518}}}},{"classId":"e_4","part":"s74v1","offsets":[{"start":1459,"text":"McMurdo Dry Valleys"}],"coordinates":[],"confidence":{"state":"pre-added","who":["ml:dpeker"],"prob":0.9671},"fields":{},"normalizations":{"n_34":{"source":{"name":"GeoNamesSCAR","id":"113892","url":null},"recName":"McMurdo Dry Valleys","confidence":{"state":"pre-added","who":["ml:dpeker"],"prob":0.9671}}}},{"classId":"e_39","part":"s75v1","offsets":[{"start":102,"text":"Gomphiocephalus hodgsoni"}],"coordinates":[],"confidence":{"state":"pre-added","who":["ml:dpeker"],"prob":0.9754},"fields":{},"normalizations":{"n_44":{"source":{"name":"SpringtailNames","id":"gohodg","url":null},"recName":"Gomphiocephalus hodgsoni","confidence":{"state":"pre-added","who":["ml:dpeker"],"prob":0.9754}}}},{"classId":"e_4","part":"s75v1","offsets":[{"start":146,"text":"McMurdo Dry Valleys"}],"coordinates":[],"confidence":{"state":"pre-added","who":["ml:dpeker"],"prob":0.9671},"fields":{},"normalizations":{"n_34":{"source":{"name":"GeoNamesSCAR","id":"113892","url":null},"recName":"McMurdo Dry Valleys","confidence":{"state":"pre-added","who":["ml:dpeker"],"prob":0.9671}}}},{"classId":"e_39","part":"s75v1","offsets":[{"start":202,"text":"Antarcticinella monoculata"}],"coordinates":[],"confidence":{"state":"pre-added","who":["ml:dpeker"],"prob":0.9778},"fields":{},"normalizations":{"n_44":{"source":{"name":"SpringtailNames","id":"anmono","url":null},"recName":"Antarcticinella monoculata","confidence":{"state":"pre-added","who":["ml:dpeker"],"prob":0.9778}}}},{"classId":"e_4","part":"s75v1","offsets":[{"start":348,"text":"Mackay Glacier"}],"coordinates":[],"confidence":{"state":"pre-added","who":["ml:dpeker"],"prob":0.9518},"fields":{},"normalizations":{"n_34":{"source":{"name":"GeoNamesSCAR","id":"128291","url":null},"recName":"Mackay Glacier","confidence":{"state":"pre-added","who":["ml:dpeker"],"prob":0.9518}}}},{"classId":"e_4","part":"s75v1","offsets":[{"start":572,"text":"Transantarctic mountains"}],"coordinates":[],"confidence":{"state":"pre-added","who":["ml:dpeker"],"prob":0.9551},"fields":{},"normalizations":{"n_34":{"source":{"name":"GeoNamesSCAR","id":"132843","url":null},"recName":"Transantarctic Mountains","confidence":{"state":"pre-added","who":["ml:dpeker"],"prob":0.9551}}}},{"classId":"e_4","part":"s75v1","offsets":[{"start":1331,"text":"Mackay Glacier"}],"coordinates":[],"confidence":{"state":"pre-added","who":["ml:dpeker"],"prob":0.9518},"fields":{},"normalizations":{"n_34":{"source":{"name":"GeoNamesSCAR","id":"128291","url":null},"recName":"Mackay Glacier","confidence":{"state":"pre-added","who":["ml:dpeker"],"prob":0.9518}}}},{"classId":"e_39","part":"s75v1","offsets":[{"start":1413,"text":"Gomphiocephalus hodgsoni\n\n("}],"coordinates":[],"confidence":{"state":"pre-added","who":["ml:dpeker"],"prob":0.8862},"fields":{},"normalizations":{"n_44":{"source":{"name":"SpringtailNames","id":"gohodg","url":null},"recName":"Gomphiocephalus hodgsoni","confidence":{"state":"pre-added","who":["ml:dpeker"],"prob":0.8862}}}},{"classId":"e_39","part":"s75v1","offsets":[{"start":1457,"text":"Antarcticinella monoculata"}],"coordinates":[],"confidence":{"state":"pre-added","who":["ml:dpeker"],"prob":0.9778},"fields":{},"normalizations":{"n_44":{"source":{"name":"SpringtailNames","id":"anmono","url":null},"recName":"Antarcticinella monoculata","confidence":{"state":"pre-added","who":["ml:dpeker"],"prob":0.9778}}}},{"classId":"e_39","part":"s75v1","offsets":[{"start":1528,"text":"Cryptopygus nivicolus"}],"coordinates":[{"x":"170.90","y":"614.44"},{"x":"278.61","y":"619.90"}],"confidence":{"state":"pre-added","who":["user:ICTAR"],"prob":1},"fields":{},"normalizations":{"n_44":{"source":{"name":"SpringtailNames","id":"nenivi","url":null},"recName":"","confidence":{"state":"pre-added","who":["user:ICTAR"],"prob":1}}}},{"classId":"e_39","part":"s75v1","offsets":[{"start":1619,"text":"G. hodgsoni"}],"coordinates":[],"confidence":{"state":"pre-added","who":["ml:dpeker"],"prob":0.9349},"fields":{},"normalizations":{"n_44":{"source":{"name":"SpringtailNames","id":"gohodg","url":null},"recName":"Gomphiocephalus hodgsoni","confidence":{"state":"pre-added","who":["ml:dpeker"],"prob":0.9349}}}},{"classId":"e_39","part":"s75v1","offsets":[{"start":1696,"text":"A. monoculata"}],"coordinates":[],"confidence":{"state":"pre-added","who":["ml:dpeker"],"prob":0.9472},"fields":{},"normalizations":{"n_44":{"source":{"name":"SpringtailNames","id":"anmono","url":null},"recName":"Antarcticinella monoculata","confidence":{"state":"pre-added","who":["ml:dpeker"],"prob":0.9472}}}},{"classId":"e_39","part":"s76v1","offsets":[{"start":64,"text":"A. monoculata"}],"coordinates":[],"confidence":{"state":"pre-added","who":["ml:dpeker"],"prob":0.9472},"fields":{},"normalizations":{"n_44":{"source":{"name":"SpringtailNames","id":"anmono","url":null},"recName":"Antarcticinella monoculata","confidence":{"state":"pre-added","who":["ml:dpeker"],"prob":0.9472}}}},{"classId":"e_4","part":"s76v1","offsets":[{"start":306,"text":"Mackay Glacier"}],"coordinates":[],"confidence":{"state":"pre-added","who":["ml:dpeker"],"prob":0.9518},"fields":{},"normalizations":{"n_34":{"source":{"name":"GeoNamesSCAR","id":"128291","url":null},"recName":"Mackay Glacier","confidence":{"state":"pre-added","who":["ml:dpeker"],"prob":0.9518}}}},{"classId":"e_4","part":"s77v1","offsets":[{"start":130,"text":"Mackay Glacier"}],"coordinates":[],"confidence":{"state":"pre-added","who":["ml:dpeker"],"prob":0.9518},"fields":{},"normalizations":{"n_34":{"source":{"name":"GeoNamesSCAR","id":"128291","url":null},"recName":"Mackay Glacier","confidence":{"state":"pre-added","who":["ml:dpeker"],"prob":0.9518}}}},{"classId":"e_4","part":"s77v1","offsets":[{"start":359,"text":"McMurdo Station"}],"coordinates":[],"confidence":{"state":"pre-added","who":["ml:dpeker"],"prob":0.9558},"fields":{},"normalizations":{"n_34":{"source":{"name":"GeoNamesSCAR","id":"128725","url":null},"recName":"McMurdo Station","confidence":{"state":"pre-added","who":["ml:dpeker"],"prob":0.9558}}}},{"classId":"e_4","part":"s81v1","offsets":[{"start":115,"text":"Ross Dependency"}],"coordinates":[],"confidence":{"state":"pre-added","who":["ml:dpeker"],"prob":0.9558},"fields":{},"normalizations":{"n_34":{"source":{"name":"GeoNamesSCAR","id":"134188","url":null},"recName":"Ross Dependency","confidence":{"state":"pre-added","who":["ml:dpeker"],"prob":0.9558}}}},{"classId":"e_4","part":"s81v1","offsets":[{"start":273,"text":"Transantarctic Mountains"}],"coordinates":[],"confidence":{"state":"pre-added","who":["ml:dpeker"],"prob":0.9754},"fields":{},"normalizations":{"n_34":{"source":{"name":"GeoNamesSCAR","id":"132843","url":null},"recName":"Transantarctic Mountains","confidence":{"state":"pre-added","who":["ml:dpeker"],"prob":0.9754}}}},{"classId":"e_4","part":"s81v1","offsets":[{"start":475,"text":"Mackay Glacier"}],"coordinates":[],"confidence":{"state":"pre-added","who":["ml:dpeker"],"prob":0.9518},"fields":{},"normalizations":{"n_34":{"source":{"name":"GeoNamesSCAR","id":"128291","url":null},"recName":"Mackay Glacier","confidence":{"state":"pre-added","who":["ml:dpeker"],"prob":0.9518}}}},{"classId":"e_4","part":"s81v1","offsets":[{"start":505,"text":"Ross Island"}],"coordinates":[],"confidence":{"state":"pre-added","who":["ml:dpeker"],"prob":0.9349},"fields":{},"normalizations":{"n_34":{"source":{"name":"GeoNamesSCAR","id":"130958","url":null},"recName":"Ross Island","confidence":{"state":"pre-added","who":["ml:dpeker"],"prob":0.9349}}}},{"classId":"e_4","part":"s81v1","offsets":[{"start":605,"text":"Mt Murray"}],"coordinates":[{"x":"428.94","y":"269.52"},{"x":"482.06","y":"274.97"}],"confidence":{"state":"pre-added","who":["user:ICTAR"],"prob":1},"fields":{},"normalizations":{"n_34":{"source":{"name":"GeoNamesSCAR","id":"129232","url":null},"recName":"","confidence":{"state":"pre-added","who":["user:ICTAR"],"prob":1}}}},{"classId":"e_4","part":"s81v1","offsets":[{"start":616,"text":"Cliff\n\nNunatak"}],"coordinates":[{"x":"488.29","y":"269.52"},{"x":"154.00","y":"302.57"}],"confidence":{"state":"pre-added","who":["user:ICTAR"],"prob":1},"fields":{},"normalizations":{"n_52":{"source":{"name":"GeoNamesCustom","id":"nun","url":null},"recName":"","confidence":{"state":"pre-added","who":["user:ICTAR"],"prob":1}}}},{"classId":"e_4","part":"s81v1","offsets":[{"start":635,"text":"Towle Glacier"}],"coordinates":[],"confidence":{"state":"pre-added","who":["ml:dpeker"],"prob":0.9472},"fields":{},"normalizations":{"n_34":{"source":{"name":"GeoNamesSCAR","id":"132820","url":null},"recName":"Towle Glacier","confidence":{"state":"pre-added","who":["ml:dpeker"],"prob":0.9472}}}},{"classId":"e_4","part":"s81v1","offsets":[{"start":652,"text":"Benson Glacier"}],"coordinates":[],"confidence":{"state":"pre-added","who":["ml:dpeker"],"prob":0.9518},"fields":{},"normalizations":{"n_34":{"source":{"name":"GeoNamesSCAR","id":"122420","url":null},"recName":"Benson Glacier","confidence":{"state":"pre-added","who":["ml:dpeker"],"prob":0.9518}}}},{"classId":"e_4","part":"s81v1","offsets":[{"start":671,"text":"Tiger Island"}],"coordinates":[],"confidence":{"state":"pre-added","who":["ml:dpeker"],"prob":0.9416},"fields":{},"normalizations":{"n_34":{"source":{"name":"GeoNamesSCAR","id":"132702","url":null},"recName":"Tiger Island","confidence":{"state":"pre-added","who":["ml:dpeker"],"prob":0.9416}}}},{"classId":"e_4","part":"s81v1","offsets":[{"start":688,"text":"Mt Gran"}],"coordinates":[{"x":"439.50","y":"297.12"},{"x":"480.63","y":"302.57"}],"confidence":{"state":"pre-added","who":["user:ICTAR"],"prob":1},"fields":{},"normalizations":{"n_34":{"source":{"name":"GeoNamesSCAR","id":"113422","url":null},"recName":"","confidence":{"state":"pre-added","who":["user:ICTAR"],"prob":1}}}},{"classId":"e_4","part":"s81v1","offsets":[{"start":701,"text":"Pegtop Mt"}],"coordinates":[{"x":"113.42","y":"324.72"},{"x":"163.78","y":"330.17"}],"confidence":{"state":"pre-added","who":["user:ICTAR"],"prob":1},"fields":{},"normalizations":{"n_34":{"source":{"name":"GeoNamesSCAR","id":"129967","url":null},"recName":"","confidence":{"state":"pre-added","who":["user:ICTAR"],"prob":1}}}},{"classId":"e_4","part":"s81v1","offsets":[{"start":715,"text":"Mt Seuss"}],"coordinates":[{"x":"185.54","y":"324.72"},{"x":"229.88","y":"330.17"}],"confidence":{"state":"pre-added","who":["user:ICTAR"],"prob":1},"fields":{},"normalizations":{"n_52":{"source":{"name":"GeoNamesCustom","id":"AV011","url":null},"recName":"","confidence":{"state":"pre-added","who":["user:ICTAR"],"prob":1}}}},{"classId":"e_4","part":"s81v1","offsets":[{"start":728,"text":"The Flatiron"}],"coordinates":[],"confidence":{"state":"pre-added","who":["ml:dpeker"],"prob":0.9416},"fields":{},"normalizations":{"n_34":{"source":{"name":"GeoNamesSCAR","id":"125175","url":null},"recName":"Flatiron, The","confidence":{"state":"pre-added","who":["ml:dpeker"],"prob":0.9416}}}},{"classId":"e_4","part":"s81v1","offsets":[{"start":745,"text":"Sperm Bluff"}],"coordinates":[],"confidence":{"state":"pre-added","who":["ml:dpeker"],"prob":0.9349},"fields":{},"normalizations":{"n_34":{"source":{"name":"GeoNamesSCAR","id":"131987","url":null},"recName":"Sperm Bluff","confidence":{"state":"pre-added","who":["ml:dpeker"],"prob":0.9349}}}},{"classId":"e_4","part":"s81v1","offsets":[{"start":762,"text":"Springtail Pt"}],"coordinates":[{"x":"420.36","y":"324.72"},{"x":"480.69","y":"330.17"}],"confidence":{"state":"pre-added","who":["user:ICTAR"],"prob":1},"fields":{},"normalizations":{"n_34":{"source":{"name":"GeoNamesSCAR","id":"132046","url":null},"recName":"","confidence":{"state":"pre-added","who":["user:ICTAR"],"prob":1}}}},{"classId":"e_4","part":"s81v1","offsets":[{"start":781,"text":"St\n\nJohns Range"}],"coordinates":[{"x":"508.45","y":"324.72"},{"x":"174.53","y":"357.89"}],"confidence":{"state":"pre-added","who":["user:ICTAR"],"prob":1},"fields":{},"normalizations":{"n_34":{"source":{"name":"GeoNamesSCAR","id":"131124","url":null},"recName":"","confidence":{"state":"pre-added","who":["user:ICTAR"],"prob":1}}}},{"classId":"e_39","part":"s82v1","offsets":[{"start":1352,"text":"G. hodgsoni"}],"coordinates":[],"confidence":{"state":"pre-added","who":["ml:dpeker"],"prob":0.9349},"fields":{},"normalizations":{"n_44":{"source":{"name":"SpringtailNames","id":"gohodg","url":null},"recName":"Gomphiocephalus hodgsoni","confidence":{"state":"pre-added","who":["ml:dpeker"],"prob":0.9349}}}},{"classId":"e_39","part":"s82v1","offsets":[{"start":1368,"text":"C. nivicolus"}],"coordinates":[{"x":"391.51","y":"563.89"},{"x":"448.82","y":"569.35"}],"confidence":{"state":"pre-added","who":["user:ICTAR"],"prob":1},"fields":{},"normalizations":{"n_44":{"source":{"name":"SpringtailNames","id":"nenivi","url":null},"recName":"","confidence":{"state":"pre-added","who":["user:ICTAR"],"prob":1}}}},{"classId":"e_4","part":"s82v1","offsets":[{"start":1413,"text":"Towle Glacier"}],"coordinates":[],"confidence":{"state":"pre-added","who":["ml:dpeker"],"prob":0.9472},"fields":{},"normalizations":{"n_34":{"source":{"name":"GeoNamesSCAR","id":"132820","url":null},"recName":"Towle Glacier","confidence":{"state":"pre-added","who":["ml:dpeker"],"prob":0.9472}}}},{"classId":"e_39","part":"s82v1","offsets":[{"start":1493,"text":"A. monoculata"}],"coordinates":[],"confidence":{"state":"pre-added","who":["ml:dpeker"],"prob":0.9472},"fields":{},"normalizations":{"n_44":{"source":{"name":"SpringtailNames","id":"anmono","url":null},"recName":"Antarcticinella monoculata","confidence":{"state":"pre-added","who":["ml:dpeker"],"prob":0.9472}}}},{"classId":"e_4","part":"s82v1","offsets":[{"start":1540,"text":"Benson Glacier"}],"coordinates":[],"confidence":{"state":"pre-added","who":["ml:dpeker"],"prob":0.9518},"fields":{},"normalizations":{"n_34":{"source":{"name":"GeoNamesSCAR","id":"122420","url":null},"recName":"Benson Glacier","confidence":{"state":"pre-added","who":["ml:dpeker"],"prob":0.9518}}}},{"classId":"e_4","part":"s82v1","offsets":[{"start":1556,"text":"Pegtop\n\nMt"}],"coordinates":[{"x":"476.63","y":"619.13"},{"x":"127.43","y":"652.18"}],"confidence":{"state":"pre-added","who":["user:ICTAR"],"prob":1},"fields":{},"normalizations":{"n_34":{"source":{"name":"GeoNamesSCAR","id":"129967","url":null},"recName":"","confidence":{"state":"pre-added","who":["user:ICTAR"],"prob":1}}}},{"classId":"e_39","part":"s82v1","offsets":[{"start":1572,"text":"C. nivicolus"}],"coordinates":[{"x":"154.70","y":"646.72"},{"x":"212.01","y":"652.18"}],"confidence":{"state":"pre-added","who":["user:ICTAR"],"prob":1},"fields":{},"normalizations":{"n_44":{"source":{"name":"SpringtailNames","id":"nenivi","url":null},"recName":"","confidence":{"state":"pre-added","who":["user:ICTAR"],"prob":1}}}},{"classId":"e_4","part":"s82v1","offsets":[{"start":1617,"text":"Tiger Island"}],"coordinates":[],"confidence":{"state":"pre-added","who":["ml:dpeker"],"prob":0.9416},"fields":{},"normalizations":{"n_34":{"source":{"name":"GeoNamesSCAR","id":"132702","url":null},"recName":"Tiger Island","confidence":{"state":"pre-added","who":["ml:dpeker"],"prob":0.9416}}}},{"classId":"e_4","part":"s82v1","offsets":[{"start":1631,"text":"Towle Glacier"}],"coordinates":[],"confidence":{"state":"pre-added","who":["ml:dpeker"],"prob":0.9472},"fields":{},"normalizations":{"n_34":{"source":{"name":"GeoNamesSCAR","id":"132820","url":null},"recName":"Towle Glacier","confidence":{"state":"pre-added","who":["ml:dpeker"],"prob":0.9472}}}},{"classId":"e_39","part":"s83v1","offsets":[{"start":16,"text":"G. hodgsoni"}],"coordinates":[],"confidence":{"state":"pre-added","who":["ml:dpeker"],"prob":0.9349},"fields":{},"normalizations":{"n_44":{"source":{"name":"SpringtailNames","id":"gohodg","url":null},"recName":"Gomphiocephalus hodgsoni","confidence":{"state":"pre-added","who":["ml:dpeker"],"prob":0.9349}}}},{"classId":"e_4","part":"s83v1","offsets":[{"start":269,"text":"Mackay Glacier"}],"coordinates":[],"confidence":{"state":"pre-added","who":["ml:dpeker"],"prob":0.9518},"fields":{},"normalizations":{"n_34":{"source":{"name":"GeoNamesSCAR","id":"128291","url":null},"recName":"Mackay Glacier","confidence":{"state":"pre-added","who":["ml:dpeker"],"prob":0.9518}}}},{"classId":"e_39","part":"s83v1","offsets":[{"start":305,"text":"G. hodgsoni"}],"coordinates":[],"confidence":{"state":"pre-added","who":["ml:dpeker"],"prob":0.9349},"fields":{},"normalizations":{"n_44":{"source":{"name":"SpringtailNames","id":"gohodg","url":null},"recName":"Gomphiocephalus hodgsoni","confidence":{"state":"pre-added","who":["ml:dpeker"],"prob":0.9349}}}},{"classId":"e_39","part":"s83v1","offsets":[{"start":718,"text":"G. hodgsoni"}],"coordinates":[],"confidence":{"state":"pre-added","who":["ml:dpeker"],"prob":0.9349},"fields":{},"normalizations":{"n_44":{"source":{"name":"SpringtailNames","id":"gohodg","url":null},"recName":"Gomphiocephalus hodgsoni","confidence":{"state":"pre-added","who":["ml:dpeker"],"prob":0.9349}}}},{"classId":"e_4","part":"s83v1","offsets":[{"start":803,"text":"Towle Glacier"}],"coordinates":[],"confidence":{"state":"pre-added","who":["ml:dpeker"],"prob":0.9472},"fields":{},"normalizations":{"n_34":{"source":{"name":"GeoNamesSCAR","id":"132820","url":null},"recName":"Towle Glacier","confidence":{"state":"pre-added","who":["ml:dpeker"],"prob":0.9472}}}},{"classId":"e_4","part":"s83v1","offsets":[{"start":905,"text":"Mackay Glacier"}],"coordinates":[],"confidence":{"state":"pre-added","who":["ml:dpeker"],"prob":0.9518},"fields":{},"normalizations":{"n_34":{"source":{"name":"GeoNamesSCAR","id":"128291","url":null},"recName":"Mackay Glacier","confidence":{"state":"pre-added","who":["ml:dpeker"],"prob":0.9518}}}},{"classId":"e_4","part":"s83v1","offsets":[{"start":1032,"text":"Mackay Glacier"}],"coordinates":[],"confidence":{"state":"pre-added","who":["ml:dpeker"],"prob":0.9518},"fields":{},"normalizations":{"n_34":{"source":{"name":"GeoNamesSCAR","id":"128291","url":null},"recName":"Mackay Glacier","confidence":{"state":"pre-added","who":["ml:dpeker"],"prob":0.9518}}}},{"classId":"e_39","part":"s83v1","offsets":[{"start":1224,"text":"G. hodgsoni"}],"coordinates":[],"confidence":{"state":"pre-added","who":["ml:dpeker"],"prob":0.9349},"fields":{},"normalizations":{"n_44":{"source":{"name":"SpringtailNames","id":"gohodg","url":null},"recName":"Gomphiocephalus hodgsoni","confidence":{"state":"pre-added","who":["ml:dpeker"],"prob":0.9349}}}},{"classId":"e_4","part":"s83v1","offsets":[{"start":1535,"text":"Towle Glacier"}],"coordinates":[],"confidence":{"state":"pre-added","who":["ml:dpeker"],"prob":0.9472},"fields":{},"normalizations":{"n_34":{"source":{"name":"GeoNamesSCAR","id":"132820","url":null},"recName":"Towle Glacier","confidence":{"state":"pre-added","who":["ml:dpeker"],"prob":0.9472}}}},{"classId":"e_39","part":"s84v1","offsets":[{"start":6,"text":"Antarcticinella monoculata"}],"coordinates":[],"confidence":{"state":"pre-added","who":["ml:dpeker"],"prob":0.9778},"fields":{},"normalizations":{"n_44":{"source":{"name":"SpringtailNames","id":"anmono","url":null},"recName":"Antarcticinella monoculata","confidence":{"state":"pre-added","who":["ml:dpeker"],"prob":0.9778}}}},{"classId":"e_39","part":"s84v1","offsets":[{"start":351,"text":"A. monoculata"}],"coordinates":[],"confidence":{"state":"pre-added","who":["ml:dpeker"],"prob":0.9472},"fields":{},"normalizations":{"n_44":{"source":{"name":"SpringtailNames","id":"anmono","url":null},"recName":"Antarcticinella monoculata","confidence":{"state":"pre-added","who":["ml:dpeker"],"prob":0.9472}}}},{"classId":"e_4","part":"s84v1","offsets":[{"start":398,"text":"Mackay Glacier"}],"coordinates":[],"confidence":{"state":"pre-added","who":["ml:dpeker"],"prob":0.9518},"fields":{},"normalizations":{"n_34":{"source":{"name":"GeoNamesSCAR","id":"128291","url":null},"recName":"Mackay Glacier","confidence":{"state":"pre-added","who":["ml:dpeker"],"prob":0.9518}}}},{"classId":"e_39","part":"s84v1","offsets":[{"start":500,"text":"G. hodgsoni"}],"coordinates":[],"confidence":{"state":"pre-added","who":["ml:dpeker"],"prob":0.9349},"fields":{},"normalizations":{"n_44":{"source":{"name":"SpringtailNames","id":"gohodg","url":null},"recName":"Gomphiocephalus hodgsoni","confidence":{"state":"pre-added","who":["ml:dpeker"],"prob":0.9349}}}},{"classId":"e_39","part":"s84v1","offsets":[{"start":516,"text":"C. nivicolus"}],"coordinates":[{"x":"246.77","y":"241.91"},{"x":"304.08","y":"247.37"}],"confidence":{"state":"pre-added","who":["user:ICTAR"],"prob":1},"fields":{},"normalizations":{"n_44":{"source":{"name":"SpringtailNames","id":"nenivi","url":null},"recName":"","confidence":{"state":"pre-added","who":["user:ICTAR"],"prob":1}}}},{"classId":"e_4","part":"s84v1","offsets":[{"start":594,"text":"Mackay Glacier"}],"coordinates":[],"confidence":{"state":"pre-added","who":["ml:dpeker"],"prob":0.9518},"fields":{},"normalizations":{"n_34":{"source":{"name":"GeoNamesSCAR","id":"128291","url":null},"recName":"Mackay Glacier","confidence":{"state":"pre-added","who":["ml:dpeker"],"prob":0.9518}}}},{"classId":"e_4","part":"s84v1","offsets":[{"start":706,"text":"Springtail Point"}],"coordinates":[],"confidence":{"state":"pre-added","who":["ml:dpeker"],"prob":0.9592},"fields":{},"normalizations":{"n_34":{"source":{"name":"GeoNamesSCAR","id":"132046","url":null},"recName":"Springtail Point","confidence":{"state":"pre-added","who":["ml:dpeker"],"prob":0.9592}}}},{"classId":"e_39","part":"s84v1","offsets":[{"start":773,"text":"A. monoculata"}],"coordinates":[],"confidence":{"state":"pre-added","who":["ml:dpeker"],"prob":0.9472},"fields":{},"normalizations":{"n_44":{"source":{"name":"SpringtailNames","id":"anmono","url":null},"recName":"Antarcticinella monoculata","confidence":{"state":"pre-added","who":["ml:dpeker"],"prob":0.9472}}}},{"classId":"e_4","part":"s84v1","offsets":[{"start":821,"text":"Mackay Glacier"}],"coordinates":[],"confidence":{"state":"pre-added","who":["ml:dpeker"],"prob":0.9518},"fields":{},"normalizations":{"n_34":{"source":{"name":"GeoNamesSCAR","id":"128291","url":null},"recName":"Mackay Glacier","confidence":{"state":"pre-added","who":["ml:dpeker"],"prob":0.9518}}}},{"classId":"e_4","part":"s84v1","offsets":[{"start":1183,"text":"Towle\n\nGlacier"}],"coordinates":[],"confidence":{"state":"pre-added","who":["ml:dpeker"],"prob":0.8118},"fields":{},"normalizations":{"n_34":{"source":{"name":"GeoNamesSCAR","id":"132820","url":null},"recName":"Towle Glacier","confidence":{"state":"pre-added","who":["ml:dpeker"],"prob":0.8118}}}},{"classId":"e_39","part":"s84v1","offsets":[{"start":1349,"text":"G. hodgsoni"}],"coordinates":[],"confidence":{"state":"pre-added","who":["ml:dpeker"],"prob":0.9349},"fields":{},"normalizations":{"n_44":{"source":{"name":"SpringtailNames","id":"gohodg","url":null},"recName":"Gomphiocephalus hodgsoni","confidence":{"state":"pre-added","who":["ml:dpeker"],"prob":0.9349}}}},{"classId":"e_39","part":"s84v1","offsets":[{"start":1411,"text":"A. monoculata"}],"coordinates":[],"confidence":{"state":"pre-added","who":["ml:dpeker"],"prob":0.9472},"fields":{},"normalizations":{"n_44":{"source":{"name":"SpringtailNames","id":"anmono","url":null},"recName":"Antarcticinella monoculata","confidence":{"state":"pre-added","who":["ml:dpeker"],"prob":0.9472}}}},{"classId":"e_39","part":"s88v1","offsets":[{"start":22,"text":"Gomphiocephalus hodgsoni"}],"coordinates":[],"confidence":{"state":"pre-added","who":["ml:dpeker"],"prob":0.9754},"fields":{},"normalizations":{"n_44":{"source":{"name":"SpringtailNames","id":"gohodg","url":null},"recName":"Gomphiocephalus hodgsoni","confidence":{"state":"pre-added","who":["ml:dpeker"],"prob":0.9754}}}},{"classId":"e_39","part":"s88v1","offsets":[{"start":232,"text":"Antarcticinella monoculata"}],"coordinates":[],"confidence":{"state":"pre-added","who":["ml:dpeker"],"prob":0.9778},"fields":{},"normalizations":{"n_44":{"source":{"name":"SpringtailNames","id":"anmono","url":null},"recName":"Antarcticinella monoculata","confidence":{"state":"pre-added","who":["ml:dpeker"],"prob":0.9778}}}},{"classId":"e_4","part":"s89v1","offsets":[{"start":338,"text":"Mackay Glacier"}],"coordinates":[],"confidence":{"state":"pre-added","who":["ml:dpeker"],"prob":0.9518},"fields":{},"normalizations":{"n_34":{"source":{"name":"GeoNamesSCAR","id":"128291","url":null},"recName":"Mackay Glacier","confidence":{"state":"pre-added","who":["ml:dpeker"],"prob":0.9518}}}},{"classId":"e_1","part":"s89v1","offsets":[{"start":1124,"text":"Bryum argenteum"}],"coordinates":[],"confidence":{"state":"pre-added","who":["ml:dpeker"],"prob":0.9558},"fields":{},"normalizations":{"n_32":{"source":{"name":"MossNames","id":"brarge","url":null},"recName":"Bryum argenteum","confidence":{"state":"pre-added","who":["ml:dpeker"],"prob":0.9558}}}},{"classId":"e_4","part":"s90v1","offsets":[{"start":122,"text":"Towle Glacier"}],"coordinates":[],"confidence":{"state":"pre-added","who":["ml:dpeker"],"prob":0.9472},"fields":{},"normalizations":{"n_34":{"source":{"name":"GeoNamesSCAR","id":"132820","url":null},"recName":"Towle Glacier","confidence":{"state":"pre-added","who":["ml:dpeker"],"prob":0.9472}}}},{"classId":"e_39","part":"s90v1","offsets":[{"start":183,"text":"A. monoculata"}],"coordinates":[],"confidence":{"state":"pre-added","who":["ml:dpeker"],"prob":0.9472},"fields":{},"normalizations":{"n_44":{"source":{"name":"SpringtailNames","id":"anmono","url":null},"recName":"Antarcticinella monoculata","confidence":{"state":"pre-added","who":["ml:dpeker"],"prob":0.9472}}}},{"classId":"e_39","part":"s90v1","offsets":[{"start":666,"text":"G. hodgsoni"}],"coordinates":[],"confidence":{"state":"pre-added","who":["ml:dpeker"],"prob":0.9349},"fields":{},"normalizations":{"n_44":{"source":{"name":"SpringtailNames","id":"gohodg","url":null},"recName":"Gomphiocephalus hodgsoni","confidence":{"state":"pre-added","who":["ml:dpeker"],"prob":0.9349}}}},{"classId":"e_39","part":"s90v1","offsets":[{"start":1681,"text":"G. hodgsoni"}],"coordinates":[],"confidence":{"state":"pre-added","who":["ml:dpeker"],"prob":0.9349},"fields":{},"normalizations":{"n_44":{"source":{"name":"SpringtailNames","id":"gohodg","url":null},"recName":"Gomphiocephalus hodgsoni","confidence":{"state":"pre-added","who":["ml:dpeker"],"prob":0.9349}}}},{"classId":"e_39","part":"s91v1","offsets":[{"start":493,"text":"A. monoculata"}],"coordinates":[],"confidence":{"state":"pre-added","who":["ml:dpeker"],"prob":0.9472},"fields":{},"normalizations":{"n_44":{"source":{"name":"SpringtailNames","id":"anmono","url":null},"recName":"Antarcticinella monoculata","confidence":{"state":"pre-added","who":["ml:dpeker"],"prob":0.9472}}}},{"classId":"e_4","part":"s91v1","offsets":[{"start":510,"text":"Mt Murray"}],"coordinates":[{"x":"258.05","y":"255.72"},{"x":"311.19","y":"261.17"}],"confidence":{"state":"pre-added","who":["user:ICTAR"],"prob":1},"fields":{},"normalizations":{"n_34":{"source":{"name":"GeoNamesSCAR","id":"129232","url":null},"recName":"","confidence":{"state":"pre-added","who":["user:ICTAR"],"prob":1}}}},{"classId":"e_4","part":"s91v1","offsets":[{"start":524,"text":"Cliff Nunatak"}],"coordinates":[{"x":"334.23","y":"255.72"},{"x":"400.57","y":"261.17"}],"confidence":{"state":"pre-added","who":["user:ICTAR"],"prob":1},"fields":{},"normalizations":{"n_52":{"source":{"name":"GeoNamesCustom","id":"AV010","url":null},"recName":"","confidence":{"state":"pre-added","who":["user:ICTAR"],"prob":1}}}},{"classId":"e_39","part":"s91v1","offsets":[{"start":677,"text":"G. hodgsoni"}],"coordinates":[],"confidence":{"state":"pre-added","who":["ml:dpeker"],"prob":0.9349},"fields":{},"normalizations":{"n_44":{"source":{"name":"SpringtailNames","id":"gohodg","url":null},"recName":"Gomphiocephalus hodgsoni","confidence":{"state":"pre-added","who":["ml:dpeker"],"prob":0.9349}}}},{"classId":"e_39","part":"s95v1","offsets":[{"start":645,"text":"Gomphiocephalus hodgsoni"}],"coordinates":[],"confidence":{"state":"pre-added","who":["ml:dpeker"],"prob":0.9754},"fields":{},"normalizations":{"n_44":{"source":{"name":"SpringtailNames","id":"gohodg","url":null},"recName":"Gomphiocephalus hodgsoni","confidence":{"state":"pre-added","who":["ml:dpeker"],"prob":0.9754}}}},{"classId":"e_4","part":"s95v1","offsets":[{"start":721,"text":"Taylor\n\nValley,"}],"coordinates":[],"confidence":{"state":"pre-added","who":["ml:dpeker"],"prob":0.7798},"fields":{},"normalizations":{"n_34":{"source":{"name":"GeoNamesSCAR","id":"132512","url":null},"recName":"Taylor Valley","confidence":{"state":"pre-added","who":["ml:dpeker"],"prob":0.7798}}}},{"classId":"e_39","part":"s96v1","offsets":[{"start":671,"text":"Gressittacantha terranova\n\n("}],"coordinates":[],"confidence":{"state":"pre-added","who":["ml:dpeker"],"prob":0.8842},"fields":{},"normalizations":{"n_44":{"source":{"name":"SpringtailNames","id":"grterr","url":null},"recName":"Gressittacantha terranova","confidence":{"state":"pre-added","who":["ml:dpeker"],"prob":0.8842}}}},{"classId":"e_4","part":"s96v1","offsets":[{"start":1132,"text":"Mcmurdo Dry Valleys"}],"coordinates":[],"confidence":{"state":"pre-added","who":["ml:dpeker"],"prob":0.9417},"fields":{},"normalizations":{"n_34":{"source":{"name":"GeoNamesSCAR","id":"113892","url":null},"recName":"McMurdo Dry Valleys","confidence":{"state":"pre-added","who":["ml:dpeker"],"prob":0.9417}}}},{"classId":"e_4","part":"s96v1","offsets":[{"start":1210,"text":"Mcmurdo Dry Valleys"}],"coordinates":[],"confidence":{"state":"pre-added","who":["ml:dpeker"],"prob":0.9417},"fields":{},"normalizations":{"n_34":{"source":{"name":"GeoNamesSCAR","id":"113892","url":null},"recName":"McMurdo Dry Valleys","confidence":{"state":"pre-added","who":["ml:dpeker"],"prob":0.9417}}}},{"classId":"e_39","part":"s97v1","offsets":[{"start":796,"text":"Gomphiocephalus hodgsoni"}],"coordinates":[],"confidence":{"state":"pre-added","who":["ml:dpeker"],"prob":0.9754},"fields":{},"normalizations":{"n_44":{"source":{"name":"SpringtailNames","id":"gohodg","url":null},"recName":"Gomphiocephalus hodgsoni","confidence":{"state":"pre-added","who":["ml:dpeker"],"prob":0.9754}}}},{"classId":"e_39","part":"s97v1","offsets":[{"start":953,"text":"Gressittacantha terranova"}],"coordinates":[],"confidence":{"state":"pre-added","who":["ml:dpeker"],"prob":0.9766},"fields":{},"normalizations":{"n_44":{"source":{"name":"SpringtailNames","id":"grterr","url":null},"recName":"Gressittacantha terranova","confidence":{"state":"pre-added","who":["ml:dpeker"],"prob":0.9766}}}},{"classId":"e_1","part":"s99v1","offsets":[{"start":1173,"text":"Bryum argenteum"}],"coordinates":[],"confidence":{"state":"pre-added","who":["ml:dpeker"],"prob":0.9558},"fields":{},"normalizations":{"n_32":{"source":{"name":"MossNames","id":"brarge","url":null},"recName":"Bryum argenteum","confidence":{"state":"pre-added","who":["ml:dpeker"],"prob":0.9558}}}},{"classId":"e_4","part":"s101v1","offsets":[{"start":380,"text":"Queen Maud Mountains"}],"coordinates":[],"confidence":{"state":"pre-added","who":["ml:dpeker"],"prob":0.9692},"fields":{},"normalizations":{"n_34":{"source":{"name":"GeoNamesSCAR","id":"130480","url":null},"recName":"Queen Maud Mountains","confidence":{"state":"pre-added","who":["ml:dpeker"],"prob":0.9692}}}},{"classId":"e_39","part":"s101v1","offsets":[{"start":784,"text":"Gomphiocephalus\n\n hodgsoni"}],"coordinates":[],"confidence":{"state":"pre-added","who":["ml:dpeker"],"prob":0.9004},"fields":{},"normalizations":{"n_44":{"source":{"name":"SpringtailNames","id":"gohodg","url":null},"recName":"Gomphiocephalus hodgsoni","confidence":{"state":"pre-added","who":["ml:dpeker"],"prob":0.9004}}}},{"classId":"e_4","part":"s101v1","offsets":[{"start":1074,"text":"Trans-Antarctic Mountains"}],"coordinates":[],"confidence":{"state":"pre-added","who":["ml:dpeker"],"prob":0.9306},"fields":{},"normalizations":{"n_34":{"source":{"name":"GeoNamesSCAR","id":"132843","url":null},"recName":"Transantarctic Mountains","confidence":{"state":"pre-added","who":["ml:dpeker"],"prob":0.9306}}}},{"classId":"e_39","part":"s103v1","offsets":[{"start":252,"text":"G. hodgsoni"}],"coordinates":[],"confidence":{"state":"pre-added","who":["ml:dpeker"],"prob":0.9349},"fields":{},"normalizations":{"n_44":{"source":{"name":"SpringtailNames","id":"gohodg","url":null},"recName":"Gomphiocephalus hodgsoni","confidence":{"state":"pre-added","who":["ml:dpeker"],"prob":0.9349}}}},{"classId":"e_4","part":"s103v1","offsets":[{"start":275,"text":"Tiger Island"}],"coordinates":[],"confidence":{"state":"pre-added","who":["ml:dpeker"],"prob":0.9416},"fields":{},"normalizations":{"n_34":{"source":{"name":"GeoNamesSCAR","id":"132702","url":null},"recName":"Tiger Island","confidence":{"state":"pre-added","who":["ml:dpeker"],"prob":0.9416}}}},{"classId":"e_4","part":"s103v1","offsets":[{"start":417,"text":"Benson Glacier"}],"coordinates":[],"confidence":{"state":"pre-added","who":["ml:dpeker"],"prob":0.9518},"fields":{},"normalizations":{"n_34":{"source":{"name":"GeoNamesSCAR","id":"122420","url":null},"recName":"Benson Glacier","confidence":{"state":"pre-added","who":["ml:dpeker"],"prob":0.9518}}}},{"classId":"e_4","part":"s104v1","offsets":[{"start":11,"text":"Benson Glacier"}],"coordinates":[],"confidence":{"state":"pre-added","who":["ml:dpeker"],"prob":0.9518},"fields":{},"normalizations":{"n_34":{"source":{"name":"GeoNamesSCAR","id":"122420","url":null},"recName":"Benson Glacier","confidence":{"state":"pre-added","who":["ml:dpeker"],"prob":0.9518}}}},{"classId":"e_4","part":"s104v1","offsets":[{"start":684,"text":"Benson Glacier"}],"coordinates":[],"confidence":{"state":"pre-added","who":["ml:dpeker"],"prob":0.9518},"fields":{},"normalizations":{"n_34":{"source":{"name":"GeoNamesSCAR","id":"122420","url":null},"recName":"Benson Glacier","confidence":{"state":"pre-added","who":["ml:dpeker"],"prob":0.9518}}}},{"classId":"e_4","part":"s104v1","offsets":[{"start":853,"text":"Tiger Island"}],"coordinates":[],"confidence":{"state":"pre-added","who":["ml:dpeker"],"prob":0.9416},"fields":{},"normalizations":{"n_34":{"source":{"name":"GeoNamesSCAR","id":"132702","url":null},"recName":"Tiger Island","confidence":{"state":"pre-added","who":["ml:dpeker"],"prob":0.9416}}}},{"classId":"e_4","part":"s104v1","offsets":[{"start":898,"text":"Tiger Island"}],"coordinates":[],"confidence":{"state":"pre-added","who":["ml:dpeker"],"prob":0.9416},"fields":{},"normalizations":{"n_34":{"source":{"name":"GeoNamesSCAR","id":"132702","url":null},"recName":"Tiger Island","confidence":{"state":"pre-added","who":["ml:dpeker"],"prob":0.9416}}}},{"classId":"e_4","part":"s104v1","offsets":[{"start":953,"text":"Tiger Island"}],"coordinates":[],"confidence":{"state":"pre-added","who":["ml:dpeker"],"prob":0.9416},"fields":{},"normalizations":{"n_34":{"source":{"name":"GeoNamesSCAR","id":"132702","url":null},"recName":"Tiger Island","confidence":{"state":"pre-added","who":["ml:dpeker"],"prob":0.9416}}}},{"classId":"e_4","part":"s105v1","offsets":[{"start":18,"text":"Benson Glacier"}],"coordinates":[],"confidence":{"state":"pre-added","who":["ml:dpeker"],"prob":0.9518},"fields":{},"normalizations":{"n_34":{"source":{"name":"GeoNamesSCAR","id":"122420","url":null},"recName":"Benson Glacier","confidence":{"state":"pre-added","who":["ml:dpeker"],"prob":0.9518}}}},{"classId":"e_4","part":"s105v1","offsets":[{"start":231,"text":"Towle Glacier"}],"coordinates":[],"confidence":{"state":"pre-added","who":["ml:dpeker"],"prob":0.9472},"fields":{},"normalizations":{"n_34":{"source":{"name":"GeoNamesSCAR","id":"132820","url":null},"recName":"Towle Glacier","confidence":{"state":"pre-added","who":["ml:dpeker"],"prob":0.9472}}}},{"classId":"e_4","part":"s105v1","offsets":[{"start":277,"text":"Towle Glacier"}],"coordinates":[],"confidence":{"state":"pre-added","who":["ml:dpeker"],"prob":0.9472},"fields":{},"normalizations":{"n_34":{"source":{"name":"GeoNamesSCAR","id":"132820","url":null},"recName":"Towle Glacier","confidence":{"state":"pre-added","who":["ml:dpeker"],"prob":0.9472}}}},{"classId":"e_4","part":"s105v1","offsets":[{"start":440,"text":"Benson Glacier"}],"coordinates":[],"confidence":{"state":"pre-added","who":["ml:dpeker"],"prob":0.9518},"fields":{},"normalizations":{"n_34":{"source":{"name":"GeoNamesSCAR","id":"122420","url":null},"recName":"Benson Glacier","confidence":{"state":"pre-added","who":["ml:dpeker"],"prob":0.9518}}}},{"classId":"e_39","part":"s105v1","offsets":[{"start":617,"text":"A. monoculata"}],"coordinates":[],"confidence":{"state":"pre-added","who":["ml:dpeker"],"prob":0.9472},"fields":{},"normalizations":{"n_44":{"source":{"name":"SpringtailNames","id":"anmono","url":null},"recName":"Antarcticinella monoculata","confidence":{"state":"pre-added","who":["ml:dpeker"],"prob":0.9472}}}},{"classId":"e_4","part":"s106v1","offsets":[{"start":237,"text":"Benson Glacier"}],"coordinates":[],"confidence":{"state":"pre-added","who":["ml:dpeker"],"prob":0.9518},"fields":{},"normalizations":{"n_34":{"source":{"name":"GeoNamesSCAR","id":"122420","url":null},"recName":"Benson Glacier","confidence":{"state":"pre-added","who":["ml:dpeker"],"prob":0.9518}}}},{"classId":"e_4","part":"s106v1","offsets":[{"start":444,"text":"Tiger Island"}],"coordinates":[],"confidence":{"state":"pre-added","who":["ml:dpeker"],"prob":0.9416},"fields":{},"normalizations":{"n_34":{"source":{"name":"GeoNamesSCAR","id":"132702","url":null},"recName":"Tiger Island","confidence":{"state":"pre-added","who":["ml:dpeker"],"prob":0.9416}}}},{"classId":"e_4","part":"s106v1","offsets":[{"start":773,"text":"Towle Glacier"}],"coordinates":[],"confidence":{"state":"pre-added","who":["ml:dpeker"],"prob":0.9472},"fields":{},"normalizations":{"n_34":{"source":{"name":"GeoNamesSCAR","id":"132820","url":null},"recName":"Towle Glacier","confidence":{"state":"pre-added","who":["ml:dpeker"],"prob":0.9472}}}},{"classId":"e_4","part":"s108v1","offsets":[{"start":803,"text":"Mackay Glacier"}],"coordinates":[],"confidence":{"state":"pre-added","who":["ml:dpeker"],"prob":0.9518},"fields":{},"normalizations":{"n_34":{"source":{"name":"GeoNamesSCAR","id":"128291","url":null},"recName":"Mackay Glacier","confidence":{"state":"pre-added","who":["ml:dpeker"],"prob":0.9518}}}},{"classId":"e_4","part":"s111v1","offsets":[{"start":150,"text":"Mackay Glacier"}],"coordinates":[],"confidence":{"state":"pre-added","who":["ml:dpeker"],"prob":0.9518},"fields":{},"normalizations":{"n_34":{"source":{"name":"GeoNamesSCAR","id":"128291","url":null},"recName":"Mackay Glacier","confidence":{"state":"pre-added","who":["ml:dpeker"],"prob":0.9518}}}},{"classId":"e_4","part":"s112v1","offsets":[{"start":1683,"text":"Mackay Glacier"}],"coordinates":[],"confidence":{"state":"pre-added","who":["ml:dpeker"],"prob":0.9518},"fields":{},"normalizations":{"n_34":{"source":{"name":"GeoNamesSCAR","id":"128291","url":null},"recName":"Mackay Glacier","confidence":{"state":"pre-added","who":["ml:dpeker"],"prob":0.9518}}}},{"classId":"e_4","part":"s113v1","offsets":[{"start":215,"text":"Mackay Glacier"}],"coordinates":[],"confidence":{"state":"pre-added","who":["ml:dpeker"],"prob":0.9518},"fields":{},"normalizations":{"n_34":{"source":{"name":"GeoNamesSCAR","id":"128291","url":null},"recName":"Mackay Glacier","confidence":{"state":"pre-added","who":["ml:dpeker"],"prob":0.9518}}}},{"classId":"e_4","part":"s113v1","offsets":[{"start":244,"text":"Clare\n\nRange"}],"coordinates":[],"confidence":{"state":"pre-added","who":["ml:dpeker"],"prob":0.7791},"fields":{},"normalizations":{"n_34":{"source":{"name":"GeoNamesSCAR","id":"123581","url":null},"recName":"Clare Range","confidence":{"state":"pre-added","who":["ml:dpeker"],"prob":0.7791}}}},{"classId":"e_39","part":"s113v1","offsets":[{"start":327,"text":"Antarcticinella monoculata"}],"coordinates":[],"confidence":{"state":"pre-added","who":["ml:dpeker"],"prob":0.9778},"fields":{},"normalizations":{"n_44":{"source":{"name":"SpringtailNames","id":"anmono","url":null},"recName":"Antarcticinella monoculata","confidence":{"state":"pre-added","who":["ml:dpeker"],"prob":0.9778}}}},{"classId":"e_4","part":"s113v1","offsets":[{"start":476,"text":"Mackay Glacier"}],"coordinates":[],"confidence":{"state":"pre-added","who":["ml:dpeker"],"prob":0.9518},"fields":{},"normalizations":{"n_34":{"source":{"name":"GeoNamesSCAR","id":"128291","url":null},"recName":"Mackay Glacier","confidence":{"state":"pre-added","who":["ml:dpeker"],"prob":0.9518}}}},{"classId":"e_39","part":"s115v1","offsets":[{"start":62,"text":"Gomphiocephalus hodgsoni"}],"coordinates":[],"confidence":{"state":"pre-added","who":["ml:dpeker"],"prob":0.9754},"fields":{},"normalizations":{"n_44":{"source":{"name":"SpringtailNames","id":"gohodg","url":null},"recName":"Gomphiocephalus hodgsoni","confidence":{"state":"pre-added","who":["ml:dpeker"],"prob":0.9754}}}},{"classId":"e_39","part":"s117v1","offsets":[{"start":564,"text":"Gomphiocephalus hodgsoni"}],"coordinates":[],"confidence":{"state":"pre-added","who":["ml:dpeker"],"prob":0.9754},"fields":{},"normalizations":{"n_44":{"source":{"name":"SpringtailNames","id":"gohodg","url":null},"recName":"Gomphiocephalus hodgsoni","confidence":{"state":"pre-added","who":["ml:dpeker"],"prob":0.9754}}}}],"relations":[{"classId":"r_46","type":"linked","directed":false,"entities":["s17v1|e_4|835,853","s17v1|e_39|901,924"],"confidence":{"state":"pre-added","who":["user:ICTAR"],"prob":1}},{"classId":"r_46","type":"linked","directed":false,"entities":["s17v1|e_39|969,994","s17v1|e_4|1066,1082"],"confidence":{"state":"pre-added","who":["user:ICTAR"],"prob":1}},{"classId":"r_46","type":"linked","directed":false,"entities":["s17v1|e_39|1001,1021","s17v1|e_4|1066,1082"],"confidence":{"state":"pre-added","who":["user:ICTAR"],"prob":1}},{"classId":"r_46","type":"linked","directed":false,"entities":["s75v1|e_39|102,125","s75v1|e_4|146,164"],"confidence":{"state":"pre-added","who":["user:ICTAR"],"prob":1}},{"classId":"r_46","type":"linked","directed":false,"entities":["s75v1|e_4|1331,1344","s75v1|e_39|1413,1439"],"confidence":{"state":"pre-added","who":["user:ICTAR"],"prob":1}},{"classId":"r_46","type":"linked","directed":false,"entities":["s75v1|e_39|1457,1482","s75v1|e_4|1331,1344"],"confidence":{"state":"pre-added","who":["user:ICTAR"],"prob":1}},{"classId":"r_46","type":"linked","directed":false,"entities":["s75v1|e_39|1528,1548","s75v1|e_4|1331,1344"],"confidence":{"state":"pre-added","who":["user:ICTAR"],"prob":1}},{"classId":"r_46","type":"linked","directed":false,"entities":["s81v1|e_4|605,613","s82v1|e_39|1493,1505"],"confidence":{"state":"pre-added","who":["user:ICTAR"],"prob":1}},{"classId":"r_46","type":"linked","directed":false,"entities":["s81v1|e_4|635,647","s82v1|e_39|1352,1362"],"confidence":{"state":"pre-added","who":["user:ICTAR"],"prob":1}},{"classId":"r_46","type":"linked","directed":false,"entities":["s81v1|e_4|652,665","s82v1|e_39|1493,1505"],"confidence":{"state":"pre-added","who":["user:ICTAR"],"prob":1}},{"classId":"r_46","type":"linked","directed":false,"entities":["s81v1|e_4|671,682","s82v1|e_39|1352,1362"],"confidence":{"state":"pre-added","who":["user:ICTAR"],"prob":1}},{"classId":"r_46","type":"linked","directed":false,"entities":["s81v1|e_4|688,694","s82v1|e_39|1368,1379"],"confidence":{"state":"pre-added","who":["user:ICTAR"],"prob":1}},{"classId":"r_46","type":"linked","directed":false,"entities":["s81v1|e_4|701,709","s82v1|e_39|1493,1505"],"confidence":{"state":"pre-added","who":["user:ICTAR"],"prob":1}},{"classId":"r_46","type":"linked","directed":false,"entities":["s81v1|e_4|715,722","s82v1|e_39|1352,1362"],"confidence":{"state":"pre-added","who":["user:ICTAR"],"prob":1}},{"classId":"r_46","type":"linked","directed":false,"entities":["s81v1|e_4|715,722","s82v1|e_39|1368,1379"],"confidence":{"state":"pre-added","who":["user:ICTAR"],"prob":1}},{"classId":"r_46","type":"linked","directed":false,"entities":["s81v1|e_4|745,755","s82v1|e_39|1352,1362"],"confidence":{"state":"pre-added","who":["user:ICTAR"],"prob":1}},{"classId":"r_46","type":"linked","directed":false,"entities":["s82v1|e_39|1352,1362","s81v1|e_4|652,665"],"confidence":{"state":"pre-added","who":["user:ICTAR"],"prob":1}},{"classId":"r_46","type":"linked","directed":false,"entities":["s82v1|e_39|1352,1362","s81v1|e_4|688,694"],"confidence":{"state":"pre-added","who":["user:ICTAR"],"prob":1}},{"classId":"r_46","type":"linked","directed":false,"entities":["s82v1|e_39|1352,1362","s81v1|e_4|728,739"],"confidence":{"state":"pre-added","who":["user:ICTAR"],"prob":1}},{"classId":"r_46","type":"linked","directed":false,"entities":["s82v1|e_39|1352,1362","s81v1|e_4|781,795"],"confidence":{"state":"pre-added","who":["user:ICTAR"],"prob":1}},{"classId":"r_46","type":"linked","directed":false,"entities":["s82v1|e_39|1352,1362","s82v1|e_4|1413,1425"],"confidence":{"state":"pre-added","who":["user:ICTAR"],"prob":1}},{"classId":"r_46","type":"linked","directed":false,"entities":["s82v1|e_39|1368,1379","s81v1|e_4|635,647"],"confidence":{"state":"pre-added","who":["user:ICTAR"],"prob":1}},{"classId":"r_46","type":"linked","directed":false,"entities":["s82v1|e_39|1368,1379","s81v1|e_4|671,682"],"confidence":{"state":"pre-added","who":["user:ICTAR"],"prob":1}},{"classId":"r_46","type":"linked","directed":false,"entities":["s82v1|e_39|1368,1379","s81v1|e_4|762,774"],"confidence":{"state":"pre-added","who":["user:ICTAR"],"prob":1}},{"classId":"r_46","type":"linked","directed":false,"entities":["s82v1|e_39|1368,1379","s82v1|e_4|1413,1425"],"confidence":{"state":"pre-added","who":["user:ICTAR"],"prob":1}},{"classId":"r_46","type":"linked","directed":false,"entities":["s82v1|e_39|1493,1505","s81v1|e_4|616,629"],"confidence":{"state":"pre-added","who":["user:ICTAR"],"prob":1}},{"classId":"r_46","type":"linked","directed":false,"entities":["s82v1|e_39|1493,1505","s81v1|e_4|762,774"],"confidence":{"state":"pre-added","who":["user:ICTAR"],"prob":1}},{"classId":"r_46","type":"linked","directed":false,"entities":["s82v1|e_39|1493,1505","s82v1|e_4|1540,1553"],"confidence":{"state":"pre-added","who":["user:ICTAR"],"prob":1}},{"classId":"r_46","type":"linked","directed":false,"entities":["s82v1|e_4|1556,1565","s82v1|e_39|1493,1505"],"confidence":{"state":"pre-added","who":["user:ICTAR"],"prob":1}},{"classId":"r_46","type":"linked","directed":false,"entities":["s82v1|e_39|1572,1583","s82v1|e_4|1617,1628"],"confidence":{"state":"pre-added","who":["user:ICTAR"],"prob":1}},{"classId":"r_46","type":"linked","directed":false,"entities":["s82v1|e_4|1631,1643","s82v1|e_39|1572,1583"],"confidence":{"state":"pre-added","who":["user:ICTAR"],"prob":1}},{"classId":"r_46","type":"linked","directed":false,"entities":["s83v1|e_39|718,728","s83v1|e_4|803,815"],"confidence":{"state":"pre-added","who":["user:ICTAR"],"prob":1}},{"classId":"r_46","type":"linked","directed":false,"entities":["s83v1|e_39|718,728","s83v1|e_4|905,918"],"confidence":{"state":"pre-added","who":["user:ICTAR"],"prob":1}},{"classId":"r_46","type":"linked","directed":false,"entities":["s84v1|e_39|351,363","s84v1|e_4|398,411"],"confidence":{"state":"pre-added","who":["user:ICTAR"],"prob":1}},{"classId":"r_46","type":"linked","directed":false,"entities":["s84v1|e_39|500,510","s84v1|e_4|594,607"],"confidence":{"state":"pre-added","who":["user:ICTAR"],"prob":1}},{"classId":"r_46","type":"linked","directed":false,"entities":["s84v1|e_39|516,527","s84v1|e_4|594,607"],"confidence":{"state":"pre-added","who":["user:ICTAR"],"prob":1}},{"classId":"r_46","type":"linked","directed":false,"entities":["s84v1|e_39|773,785","s84v1|e_4|821,834"],"confidence":{"state":"pre-added","who":["user:ICTAR"],"prob":1}},{"classId":"r_46","type":"linked","directed":false,"entities":["s91v1|e_39|493,505","s91v1|e_4|510,518"],"confidence":{"state":"pre-added","who":["user:ICTAR"],"prob":1}},{"classId":"r_46","type":"linked","directed":false,"entities":["s91v1|e_39|493,505","s91v1|e_4|524,536"],"confidence":{"state":"pre-added","who":["user:ICTAR"],"prob":1}}]}