{"annotatable":{"parts":["s1v1","s2v1","s3v1","s4v1","s5v1","s6v1","s7v1","s8v1","s9v1","s10v1","s11v1","s12v1","s13v1","s14v1","s15v1"]},"anncomplete":true,"sources":[],"metas":{"m_76":{"value":false,"confidence":{"state":"pre-added","who":["user:charlesklee"],"prob":1}},"m_14":{"value":false,"confidence":{"state":"pre-added","who":["user:charlesklee"],"prob":1}},"m_16":{"value":"Antarctica","confidence":{"state":"pre-added","who":["user:charlesklee"],"prob":1}}},"entities":[{"classId":"e_48","part":"s3v1","offsets":[{"start":463,"text":"Acutuncus antarcticus"}],"coordinates":[],"confidence":{"state":"pre-added","who":["ml:dpeker"],"prob":0.971},"fields":{},"normalizations":{"n_51":{"source":{"name":"TardigradeNames","id":"Acutan","url":null},"recName":"Acutuncus antarcticus","confidence":{"state":"pre-added","who":["ml:dpeker"],"prob":0.971}}}},{"classId":"e_2","part":"s3v1","offsets":[{"start":2577,"text":"Plectus"}],"coordinates":[],"confidence":{"state":"pre-added","who":["ml:dpeker"],"prob":0.8856},"fields":{},"normalizations":{"n_33":{"source":{"name":"NematodeNames","id":"Plecsp","url":null},"recName":"Plectus spp.","confidence":{"state":"pre-added","who":["ml:dpeker"],"prob":0.8856}}}},{"classId":"e_48","part":"s4v1","offsets":[{"start":743,"text":"Acutuncus antarcticus"}],"coordinates":[],"confidence":{"state":"pre-added","who":["ml:dpeker"],"prob":0.971},"fields":{},"normalizations":{"n_51":{"source":{"name":"TardigradeNames","id":"Acutan","url":null},"recName":"Acutuncus antarcticus","confidence":{"state":"pre-added","who":["ml:dpeker"],"prob":0.971}}}},{"classId":"e_2","part":"s5v1","offsets":[{"start":202,"text":"Panagrolaimus"}],"coordinates":[],"confidence":{"state":"pre-added","who":["ml:dpeker"],"prob":0.9472},"fields":{},"normalizations":{"n_33":{"source":{"name":"NematodeNames","id":"Panasp","url":null},"recName":"Panagrolaimus spp.","confidence":{"state":"pre-added","who":["ml:dpeker"],"prob":0.9472}}}},{"classId":"e_2","part":"s5v1","offsets":[{"start":924,"text":"Plectus murrayi"}],"coordinates":[],"confidence":{"state":"pre-added","who":["ml:dpeker"],"prob":0.9558},"fields":{},"normalizations":{"n_33":{"source":{"name":"NematodeNames","id":"Plmurr","url":null},"recName":"Plectus murrayi","confidence":{"state":"pre-added","who":["ml:dpeker"],"prob":0.9558}}}},{"classId":"e_2","part":"s5v1","offsets":[{"start":953,"text":"P. frigophilus"}],"coordinates":[],"confidence":{"state":"pre-added","who":["ml:dpeker"],"prob":0.9518},"fields":{},"normalizations":{"n_33":{"source":{"name":"NematodeNames","id":"Plfrig","url":null},"recName":"Plectus frigophilus","confidence":{"state":"pre-added","who":["ml:dpeker"],"prob":0.9518}}}},{"classId":"e_2","part":"s5v1","offsets":[{"start":1012,"text":"P. murrayi"}],"coordinates":[],"confidence":{"state":"pre-added","who":["ml:dpeker"],"prob":0.9266},"fields":{},"normalizations":{"n_33":{"source":{"name":"NematodeNames","id":"Plmurr","url":null},"recName":"Plectus murrayi","confidence":{"state":"pre-added","who":["ml:dpeker"],"prob":0.9266}}}},{"classId":"e_2","part":"s5v1","offsets":[{"start":1027,"text":"P. frigophilus"}],"coordinates":[],"confidence":{"state":"pre-added","who":["ml:dpeker"],"prob":0.9518},"fields":{},"normalizations":{"n_33":{"source":{"name":"NematodeNames","id":"Plfrig","url":null},"recName":"Plectus frigophilus","confidence":{"state":"pre-added","who":["ml:dpeker"],"prob":0.9518}}}},{"classId":"e_2","part":"s5v1","offsets":[{"start":1366,"text":"P. murrayi"}],"coordinates":[],"confidence":{"state":"pre-added","who":["ml:dpeker"],"prob":0.9266},"fields":{},"normalizations":{"n_33":{"source":{"name":"NematodeNames","id":"Plmurr","url":null},"recName":"Plectus murrayi","confidence":{"state":"pre-added","who":["ml:dpeker"],"prob":0.9266}}}},{"classId":"e_2","part":"s7v1","offsets":[{"start":37,"text":"Plectus"}],"coordinates":[],"confidence":{"state":"pre-added","who":["ml:dpeker"],"prob":0.8856},"fields":{},"normalizations":{"n_33":{"source":{"name":"NematodeNames","id":"Plecsp","url":null},"recName":"Plectus spp.","confidence":{"state":"pre-added","who":["ml:dpeker"],"prob":0.8856}}}},{"classId":"e_2","part":"s12v1","offsets":[{"start":2196,"text":"Scottnema lindsayae"}],"coordinates":[],"confidence":{"state":"pre-added","who":["ml:dpeker"],"prob":0.9671},"fields":{},"normalizations":{"n_33":{"source":{"name":"NematodeNames","id":"Sclind","url":null},"recName":"Scottnema lindsayae","confidence":{"state":"pre-added","who":["ml:dpeker"],"prob":0.9671}}}},{"classId":"e_2","part":"s12v1","offsets":[{"start":2568,"text":"Geomonhystera"}],"coordinates":[],"confidence":{"state":"pre-added","who":["ml:dpeker"],"prob":0.9472},"fields":{},"normalizations":{"n_33":{"source":{"name":"NematodeNames","id":"Geomsp","url":null},"recName":"Geomonhystera spp.","confidence":{"state":"pre-added","who":["ml:dpeker"],"prob":0.9472}}}},{"classId":"e_2","part":"s12v1","offsets":[{"start":2666,"text":"Eudorylaimus"}],"coordinates":[],"confidence":{"state":"pre-added","who":["ml:dpeker"],"prob":0.9416},"fields":{},"normalizations":{"n_33":{"source":{"name":"NematodeNames","id":"Eudosp","url":null},"recName":"Eudorylaimus spp.","confidence":{"state":"pre-added","who":["ml:dpeker"],"prob":0.9416}}}},{"classId":"e_2","part":"s12v1","offsets":[{"start":2836,"text":"Plectus murrayi"}],"coordinates":[],"confidence":{"state":"pre-added","who":["ml:dpeker"],"prob":0.9558},"fields":{},"normalizations":{"n_33":{"source":{"name":"NematodeNames","id":"Plmurr","url":null},"recName":"Plectus murrayi","confidence":{"state":"pre-added","who":["ml:dpeker"],"prob":0.9558}}}},{"classId":"e_2","part":"s12v1","offsets":[{"start":3493,"text":"Plectus acuminatus"}],"coordinates":[],"confidence":{"state":"pre-added","who":["ml:dpeker"],"prob":0.9648},"fields":{},"normalizations":{"n_33":{"source":{"name":"NematodeNames","id":"Placum","url":null},"recName":"Plectus acuminatus","confidence":{"state":"pre-added","who":["ml:dpeker"],"prob":0.9648}}}},{"classId":"e_2","part":"s12v1","offsets":[{"start":3530,"text":"Panagrolaimus magnivulvatus"}],"coordinates":[],"confidence":{"state":"pre-added","who":["ml:dpeker"],"prob":0.9788},"fields":{},"normalizations":{"n_33":{"source":{"name":"NematodeNames","id":"Pamagn","url":null},"recName":"Panagrolaimus magnivulvatus","confidence":{"state":"pre-added","who":["ml:dpeker"],"prob":0.9788}}}},{"classId":"e_2","part":"s12v1","offsets":[{"start":3741,"text":"Plectus acuminatus"}],"coordinates":[],"confidence":{"state":"pre-added","who":["ml:dpeker"],"prob":0.9648},"fields":{},"normalizations":{"n_33":{"source":{"name":"NematodeNames","id":"Placum","url":null},"recName":"Plectus acuminatus","confidence":{"state":"pre-added","who":["ml:dpeker"],"prob":0.9648}}}},{"classId":"e_2","part":"s12v1","offsets":[{"start":4056,"text":"Scottnema lindsayae"}],"coordinates":[],"confidence":{"state":"pre-added","who":["ml:dpeker"],"prob":0.9671},"fields":{},"normalizations":{"n_33":{"source":{"name":"NematodeNames","id":"Sclind","url":null},"recName":"Scottnema lindsayae","confidence":{"state":"pre-added","who":["ml:dpeker"],"prob":0.9671}}}},{"classId":"e_4","part":"s12v1","offsets":[{"start":4119,"text":"Taylor Valley"}],"coordinates":[],"confidence":{"state":"pre-added","who":["ml:dpeker"],"prob":0.9472},"fields":{},"normalizations":{"n_34":{"source":{"name":"GeoNamesSCAR","id":"132512","url":null},"recName":"Taylor Valley","confidence":{"state":"pre-added","who":["ml:dpeker"],"prob":0.9472}}}},{"classId":"e_2","part":"s12v1","offsets":[{"start":5563,"text":"Scottnema lindsayae"}],"coordinates":[],"confidence":{"state":"pre-added","who":["ml:dpeker"],"prob":0.9671},"fields":{},"normalizations":{"n_33":{"source":{"name":"NematodeNames","id":"Sclind","url":null},"recName":"Scottnema lindsayae","confidence":{"state":"pre-added","who":["ml:dpeker"],"prob":0.9671}}}},{"classId":"e_48","part":"s13v1","offsets":[{"start":674,"text":"Hypsibius antarcticus"}],"coordinates":[],"confidence":{"state":"pre-added","who":["ml:dpeker"],"prob":0.971},"fields":{},"normalizations":{"n_51":{"source":{"name":"TardigradeNames","id":"Acutan","url":null},"recName":"Acutuncus antarcticus","confidence":{"state":"pre-added","who":["ml:dpeker"],"prob":0.971}}}},{"classId":"e_39","part":"s13v1","offsets":[{"start":2842,"text":"Isotoma klovstadi"}],"coordinates":[],"confidence":{"state":"pre-added","who":["ml:dpeker"],"prob":0.9622},"fields":{},"normalizations":{"n_44":{"source":{"name":"SpringtailNames","id":"Isklov","url":null},"recName":"Isotoma klovstadi","confidence":{"state":"pre-added","who":["ml:dpeker"],"prob":0.9622}}}},{"classId":"e_4","part":"s13v1","offsets":[{"start":4305,"text":"McMurdo Dry Valley"}],"coordinates":[],"confidence":{"state":"pre-added","who":["ml:dpeker"],"prob":0.914},"fields":{},"normalizations":{"n_34":{"source":{"name":"GeoNamesSCAR","id":"113892","url":null},"recName":"McMurdo Dry Valleys","confidence":{"state":"pre-added","who":["ml:dpeker"],"prob":0.914}}}},{"classId":"e_2","part":"s13v1","offsets":[{"start":6403,"text":"Plectus"}],"coordinates":[],"confidence":{"state":"pre-added","who":["ml:dpeker"],"prob":0.8856},"fields":{},"normalizations":{"n_33":{"source":{"name":"NematodeNames","id":"Plecsp","url":null},"recName":"Plectus spp.","confidence":{"state":"pre-added","who":["ml:dpeker"],"prob":0.8856}}}},{"classId":"e_2","part":"s13v1","offsets":[{"start":6774,"text":"Plectus antarcticus"}],"coordinates":[],"confidence":{"state":"pre-added","who":["ml:dpeker"],"prob":0.9671},"fields":{},"normalizations":{"n_33":{"source":{"name":"NematodeNames","id":"Plmurr","url":null},"recName":"Plectus murrayi","confidence":{"state":"pre-added","who":["ml:dpeker"],"prob":0.9671}}}},{"classId":"e_2","part":"s13v1","offsets":[{"start":6811,"text":"P. frigophilus"}],"coordinates":[],"confidence":{"state":"pre-added","who":["ml:dpeker"],"prob":0.9518},"fields":{},"normalizations":{"n_33":{"source":{"name":"NematodeNames","id":"Plfrig","url":null},"recName":"Plectus frigophilus","confidence":{"state":"pre-added","who":["ml:dpeker"],"prob":0.9518}}}},{"classId":"e_2","part":"s14v1","offsets":[{"start":61,"text":"Eudorylaimus"}],"coordinates":[],"confidence":{"state":"pre-added","who":["ml:dpeker"],"prob":0.9416},"fields":{},"normalizations":{"n_33":{"source":{"name":"NematodeNames","id":"Eudosp","url":null},"recName":"Eudorylaimus spp.","confidence":{"state":"pre-added","who":["ml:dpeker"],"prob":0.9416}}}},{"classId":"e_4","part":"s14v1","offsets":[{"start":3359,"text":"McMurdo Dry Valleys"}],"coordinates":[],"confidence":{"state":"pre-added","who":["ml:dpeker"],"prob":0.9671},"fields":{},"normalizations":{"n_34":{"source":{"name":"GeoNamesSCAR","id":"113892","url":null},"recName":"McMurdo Dry Valleys","confidence":{"state":"pre-added","who":["ml:dpeker"],"prob":0.9671}}}},{"classId":"e_4","part":"s14v1","offsets":[{"start":5861,"text":"Cape Bird"}],"coordinates":[],"confidence":{"state":"pre-added","who":["ml:dpeker"],"prob":0.9163},"fields":{},"normalizations":{"n_34":{"source":{"name":"GeoNamesSCAR","id":"122545","url":null},"recName":"Bird, Cape","confidence":{"state":"pre-added","who":["ml:dpeker"],"prob":0.9163}}}},{"classId":"e_4","part":"s14v1","offsets":[{"start":5872,"text":"Ross Island"}],"coordinates":[],"confidence":{"state":"pre-added","who":["ml:dpeker"],"prob":0.9349},"fields":{},"normalizations":{"n_34":{"source":{"name":"GeoNamesSCAR","id":"130958","url":null},"recName":"Ross Island","confidence":{"state":"pre-added","who":["ml:dpeker"],"prob":0.9349}}}},{"classId":"e_4","part":"s14v1","offsets":[{"start":5999,"text":"Queen Maud Mountains"}],"coordinates":[],"confidence":{"state":"pre-added","who":["ml:dpeker"],"prob":0.9692},"fields":{},"normalizations":{"n_34":{"source":{"name":"GeoNamesSCAR","id":"130480","url":null},"recName":"Queen Maud Mountains","confidence":{"state":"pre-added","who":["ml:dpeker"],"prob":0.9692}}}},{"classId":"e_4","part":"s14v1","offsets":[{"start":6298,"text":"Edmonson Point"}],"coordinates":[],"confidence":{"state":"pre-added","who":["ml:dpeker"],"prob":0.9518},"fields":{},"normalizations":{"n_34":{"source":{"name":"GeoNamesSCAR","id":"124687","url":null},"recName":"Edmonson Point","confidence":{"state":"pre-added","who":["ml:dpeker"],"prob":0.9518}}}},{"classId":"e_4","part":"s14v1","offsets":[{"start":6501,"text":"Edmonson Point"}],"coordinates":[],"confidence":{"state":"pre-added","who":["ml:dpeker"],"prob":0.9518},"fields":{},"normalizations":{"n_34":{"source":{"name":"GeoNamesSCAR","id":"124687","url":null},"recName":"Edmonson Point","confidence":{"state":"pre-added","who":["ml:dpeker"],"prob":0.9518}}}},{"classId":"e_2","part":"s14v1","offsets":[{"start":6645,"text":"Panagrola- imus"}],"coordinates":[],"confidence":{"state":"pre-added","who":["ml:dpeker"],"prob":0.7798},"fields":{},"normalizations":{"n_33":{"source":{"name":"NematodeNames","id":"Panasp","url":null},"recName":"Panagrolaimus spp.","confidence":{"state":"pre-added","who":["ml:dpeker"],"prob":0.7798}}}},{"classId":"e_39","part":"s15v1","offsets":[{"start":1513,"text":"Gomphiocephalus hodgsoni"}],"coordinates":[],"confidence":{"state":"pre-added","who":["ml:dpeker"],"prob":0.9754},"fields":{},"normalizations":{"n_44":{"source":{"name":"SpringtailNames","id":"Gohodg","url":null},"recName":"Gomphiocephalus hodgsoni","confidence":{"state":"pre-added","who":["ml:dpeker"],"prob":0.9754}}}},{"classId":"e_4","part":"s15v1","offsets":[{"start":1745,"text":"Trans-Antarctic Mountains"}],"coordinates":[],"confidence":{"state":"pre-added","who":["ml:dpeker"],"prob":0.9306},"fields":{},"normalizations":{"n_34":{"source":{"name":"GeoNamesSCAR","id":"132843","url":null},"recName":"Transantarctic Mountains","confidence":{"state":"pre-added","who":["ml:dpeker"],"prob":0.9306}}}},{"classId":"e_4","part":"s15v1","offsets":[{"start":2968,"text":"Ross Ice Shelf"}],"coordinates":[],"confidence":{"state":"pre-added","who":["ml:dpeker"],"prob":0.9518},"fields":{},"normalizations":{"n_34":{"source":{"name":"GeoNamesSCAR","id":"130957","url":null},"recName":"Ross Ice Shelf","confidence":{"state":"pre-added","who":["ml:dpeker"],"prob":0.9518}}}},{"classId":"e_4","part":"s15v1","offsets":[{"start":3226,"text":"McMurdo Sound"}],"coordinates":[],"confidence":{"state":"pre-added","who":["ml:dpeker"],"prob":0.9472},"fields":{},"normalizations":{"n_34":{"source":{"name":"GeoNamesSCAR","id":"128724","url":null},"recName":"McMurdo Sound","confidence":{"state":"pre-added","who":["ml:dpeker"],"prob":0.9472}}}},{"classId":"e_39","part":"s15v1","offsets":[{"start":3443,"text":"Friesea grisea"}],"coordinates":[],"confidence":{"state":"pre-added","who":["ml:dpeker"],"prob":0.9518},"fields":{},"normalizations":{"n_44":{"source":{"name":"SpringtailNames","id":"Frgris","url":null},"recName":"Friesea grisea","confidence":{"state":"pre-added","who":["ml:dpeker"],"prob":0.9518}}}},{"classId":"e_4","part":"s15v1","offsets":[{"start":5621,"text":"Darwin Glacier"}],"coordinates":[],"confidence":{"state":"pre-added","who":["ml:dpeker"],"prob":0.9518},"fields":{},"normalizations":{"n_34":{"source":{"name":"GeoNamesSCAR","id":"124112","url":null},"recName":"Darwin Glacier","confidence":{"state":"pre-added","who":["ml:dpeker"],"prob":0.9518}}}},{"classId":"e_4","part":"s15v1","offsets":[{"start":5945,"text":"McMurdo Sound"}],"coordinates":[],"confidence":{"state":"pre-added","who":["ml:dpeker"],"prob":0.9472},"fields":{},"normalizations":{"n_34":{"source":{"name":"GeoNamesSCAR","id":"128724","url":null},"recName":"McMurdo Sound","confidence":{"state":"pre-added","who":["ml:dpeker"],"prob":0.9472}}}}],"relations":[]}