{"annotatable":{"parts":["s1v1","s2v1","s3v1","s4v1","s5v1","s6v1","s7v1","s8v1","s9v1"]},"anncomplete":true,"sources":[],"metas":{"m_14":{"value":false,"confidence":{"state":"pre-added","who":["user:ICTAR"],"prob":1}},"m_16":{"value":"North Victoria Land","confidence":{"state":"pre-added","who":["user:ICTAR"],"prob":1}},"m_76":{"value":true,"confidence":{"state":"pre-added","who":["user:charlesklee"],"prob":1}}},"entities":[{"classId":"e_39","part":"s1v1","offsets":[{"start":162,"text":"Gressittacanthaterranova"}],"coordinates":[],"confidence":{"state":"pre-added","who":["ml:dpeker"],"prob":0.7628},"fields":{},"normalizations":{"n_44":{"source":{"name":"SpringtailNames","id":"Grterr","url":null},"recName":"Gressittacantha terranova","confidence":{"state":"pre-added","who":["ml:dpeker"],"prob":0.7628}}}},{"classId":"e_39","part":"s1v1","offsets":[{"start":558,"text":"Gressittacanthaterranova"}],"coordinates":[],"confidence":{"state":"pre-added","who":["ml:dpeker"],"prob":0.7628},"fields":{},"normalizations":{"n_44":{"source":{"name":"SpringtailNames","id":"Grterr","url":null},"recName":"Gressittacantha terranova","confidence":{"state":"pre-added","who":["ml:dpeker"],"prob":0.7628}}}},{"classId":"e_4","part":"s1v1","offsets":[{"start":658,"text":"Mariner Glacier"}],"coordinates":[{"x":"71.80","y":"212.23"},{"x":"136.78","y":"218.86"}],"confidence":{"state":"pre-added","who":["user:ICTAR"],"prob":1},"fields":{},"normalizations":{"n_34":{"source":{"name":"GeoNamesSCAR","id":"128431","url":null},"recName":"","confidence":{"state":"pre-added","who":["user:ICTAR"],"prob":1}}}},{"classId":"e_4","part":"s1v1","offsets":[{"start":680,"text":"Nansen Ice Sheet"}],"coordinates":[{"x":"168.50","y":"212.23"},{"x":"237.91","y":"218.86"}],"confidence":{"state":"pre-added","who":["user:ICTAR"],"prob":1},"fields":{},"normalizations":{"n_34":{"source":{"name":"GeoNamesSCAR","id":"129264","url":null},"recName":"","confidence":{"state":"pre-added","who":["user:ICTAR"],"prob":1}}}},{"classId":"e_39","part":"s1v1","offsets":[{"start":1039,"text":"G. terranova"}],"coordinates":[],"confidence":{"state":"pre-added","who":["ml:dpeker"],"prob":0.9416},"fields":{},"normalizations":{"n_44":{"source":{"name":"SpringtailNames","id":"Grterr","url":null},"recName":"Gressittacantha terranova","confidence":{"state":"pre-added","who":["ml:dpeker"],"prob":0.9416}}}},{"classId":"e_4","part":"s1v1","offsets":[{"start":1599,"text":"Edmonson Point"}],"coordinates":[],"confidence":{"state":"pre-added","who":["ml:dpeker"],"prob":0.9518},"fields":{},"normalizations":{"n_34":{"source":{"name":"GeoNamesSCAR","id":"124687","url":null},"recName":"Edmonson Point","confidence":{"state":"pre-added","who":["ml:dpeker"],"prob":0.9518}}}},{"classId":"e_4","part":"s1v1","offsets":[{"start":1846,"text":"Apostrophe Island"}],"coordinates":[],"confidence":{"state":"pre-added","who":["ml:dpeker"],"prob":0.9622},"fields":{},"normalizations":{"n_34":{"source":{"name":"GeoNamesSCAR","id":"121872","url":null},"recName":"Apostrophe Island","confidence":{"state":"pre-added","who":["ml:dpeker"],"prob":0.9622}}}},{"classId":"e_39","part":"s1v1","offsets":[{"start":2141,"text":"Gressittacantha terranova"}],"coordinates":[],"confidence":{"state":"pre-added","who":["ml:dpeker"],"prob":0.9766},"fields":{},"normalizations":{"n_44":{"source":{"name":"SpringtailNames","id":"Grterr","url":null},"recName":"Gressittacantha terranova","confidence":{"state":"pre-added","who":["ml:dpeker"],"prob":0.9766}}}},{"classId":"e_4","part":"s1v1","offsets":[{"start":2496,"text":"Northern Foothills"}],"coordinates":[],"confidence":{"state":"pre-added","who":["ml:dpeker"],"prob":0.9648},"fields":{},"normalizations":{"n_34":{"source":{"name":"GeoNamesSCAR","id":"114021","url":null},"recName":"Northern Foothills","confidence":{"state":"pre-added","who":["ml:dpeker"],"prob":0.9648}}}},{"classId":"e_4","part":"s1v1","offsets":[{"start":2575,"text":"Football Saddle\n\n("}],"coordinates":[],"confidence":{"state":"pre-added","who":["ml:dpeker"],"prob":0.8151},"fields":{},"normalizations":{"n_34":{"source":{"name":"GeoNamesSCAR","id":"125253","url":null},"recName":"Football Saddle","confidence":{"state":"pre-added","who":["ml:dpeker"],"prob":0.8151}}}},{"classId":"e_4","part":"s1v1","offsets":[{"start":2630,"text":"Tripp Island"}],"coordinates":[],"confidence":{"state":"pre-added","who":["ml:dpeker"],"prob":0.9416},"fields":{},"normalizations":{"n_34":{"source":{"name":"GeoNamesSCAR","id":"132890","url":null},"recName":"Tripp Island","confidence":{"state":"pre-added","who":["ml:dpeker"],"prob":0.9416}}}},{"classId":"e_39","part":"s1v1","offsets":[{"start":2713,"text":"Gressittacantha terranova"}],"coordinates":[],"confidence":{"state":"pre-added","who":["ml:dpeker"],"prob":0.9766},"fields":{},"normalizations":{"n_44":{"source":{"name":"SpringtailNames","id":"Grterr","url":null},"recName":"Gressittacantha terranova","confidence":{"state":"pre-added","who":["ml:dpeker"],"prob":0.9766}}}},{"classId":"e_39","part":"s1v1","offsets":[{"start":2895,"text":"Gressittacantha terranova"}],"coordinates":[],"confidence":{"state":"pre-added","who":["ml:dpeker"],"prob":0.9766},"fields":{},"normalizations":{"n_44":{"source":{"name":"SpringtailNames","id":"Grterr","url":null},"recName":"Gressittacantha terranova","confidence":{"state":"pre-added","who":["ml:dpeker"],"prob":0.9766}}}},{"classId":"e_4","part":"s1v1","offsets":[{"start":2955,"text":"Mariner Glacier"}],"coordinates":[{"x":"111.61","y":"615.73"},{"x":"177.00","y":"622.36"}],"confidence":{"state":"pre-added","who":["user:ICTAR"],"prob":1},"fields":{},"normalizations":{"n_34":{"source":{"name":"GeoNamesSCAR","id":"128431","url":null},"recName":"","confidence":{"state":"pre-added","who":["user:ICTAR"],"prob":1}}}},{"classId":"e_4","part":"s1v1","offsets":[{"start":2987,"text":"Nansen Ice Sheet"}],"coordinates":[{"x":"245.80","y":"615.73"},{"x":"72.87","y":"634.06"}],"confidence":{"state":"pre-added","who":["user:ICTAR"],"prob":1},"fields":{},"normalizations":{"n_34":{"source":{"name":"GeoNamesSCAR","id":"129264","url":null},"recName":"","confidence":{"state":"pre-added","who":["user:ICTAR"],"prob":1}}}},{"classId":"e_39","part":"s1v1","offsets":[{"start":3478,"text":"G. terranova"}],"coordinates":[],"confidence":{"state":"pre-added","who":["ml:dpeker"],"prob":0.9416},"fields":{},"normalizations":{"n_44":{"source":{"name":"SpringtailNames","id":"Grterr","url":null},"recName":"Gressittacantha terranova","confidence":{"state":"pre-added","who":["ml:dpeker"],"prob":0.9416}}}},{"classId":"e_39","part":"s2v1","offsets":[{"start":269,"text":"Gressittacantha terranova"}],"coordinates":[],"confidence":{"state":"pre-added","who":["ml:dpeker"],"prob":0.9766},"fields":{},"normalizations":{"n_44":{"source":{"name":"SpringtailNames","id":"Grterr","url":null},"recName":"Gressittacantha terranova","confidence":{"state":"pre-added","who":["ml:dpeker"],"prob":0.9766}}}},{"classId":"e_39","part":"s2v1","offsets":[{"start":723,"text":"G. terranova"}],"coordinates":[],"confidence":{"state":"pre-added","who":["ml:dpeker"],"prob":0.9416},"fields":{},"normalizations":{"n_44":{"source":{"name":"SpringtailNames","id":"Grterr","url":null},"recName":"Gressittacantha terranova","confidence":{"state":"pre-added","who":["ml:dpeker"],"prob":0.9416}}}},{"classId":"e_4","part":"s2v1","offsets":[{"start":817,"text":"Mariner Glacier"}],"coordinates":[],"confidence":{"state":"pre-added","who":["ml:dpeker"],"prob":0.9558},"fields":{},"normalizations":{"n_34":{"source":{"name":"GeoNamesSCAR","id":"128431","url":null},"recName":"Mariner Glacier","confidence":{"state":"pre-added","who":["ml:dpeker"],"prob":0.9558}}}},{"classId":"e_4","part":"s2v1","offsets":[{"start":841,"text":"Nansen Ice Sheet"}],"coordinates":[],"confidence":{"state":"pre-added","who":["ml:dpeker"],"prob":0.9592},"fields":{},"normalizations":{"n_34":{"source":{"name":"GeoNamesSCAR","id":"129264","url":null},"recName":"Nansen Ice Sheet","confidence":{"state":"pre-added","who":["ml:dpeker"],"prob":0.9592}}}},{"classId":"e_4","part":"s2v1","offsets":[{"start":966,"text":"EdmonsonPoint"}],"coordinates":[],"confidence":{"state":"pre-added","who":["ml:dpeker"],"prob":0.8118},"fields":{},"normalizations":{"n_34":{"source":{"name":"GeoNamesSCAR","id":"124687","url":null},"recName":"Edmonson Point","confidence":{"state":"pre-added","who":["ml:dpeker"],"prob":0.8118}}}},{"classId":"e_4","part":"s2v1","offsets":[{"start":1092,"text":"Edmonson Point"}],"coordinates":[],"confidence":{"state":"pre-added","who":["ml:dpeker"],"prob":0.9518},"fields":{},"normalizations":{"n_34":{"source":{"name":"GeoNamesSCAR","id":"124687","url":null},"recName":"Edmonson Point","confidence":{"state":"pre-added","who":["ml:dpeker"],"prob":0.9518}}}},{"classId":"e_4","part":"s2v1","offsets":[{"start":1681,"text":"Inexpressible Island"}],"coordinates":[],"confidence":{"state":"pre-added","who":["ml:dpeker"],"prob":0.9692},"fields":{},"normalizations":{"n_34":{"source":{"name":"GeoNamesSCAR","id":"113617","url":null},"recName":"Inexpressible Island","confidence":{"state":"pre-added","who":["ml:dpeker"],"prob":0.9692}}}},{"classId":"e_4","part":"s2v1","offsets":[{"start":1711,"text":"Adelie Cove"}],"coordinates":[{"x":"308.66","y":"117.54"},{"x":"349.04","y":"122.54"}],"confidence":{"state":"pre-added","who":["user:ICTAR"],"prob":1},"fields":{},"normalizations":{"n_52":{"source":{"name":"GeoNamesCustom","id":"CKL011","url":null},"recName":"","confidence":{"state":"pre-added","who":["user:charlesklee"],"prob":1}}}},{"classId":"e_4","part":"s2v1","offsets":[{"start":1732,"text":"\"Springtail valley\""}],"coordinates":[{"x":"308.66","y":"127.64"},{"x":"368.37","y":"132.64"}],"confidence":{"state":"pre-added","who":["user:ICTAR"],"prob":1},"fields":{},"normalizations":{"n_52":{"source":{"name":"GeoNamesCustom","id":"CKL012","url":null},"recName":"","confidence":{"state":"pre-added","who":["user:charlesklee"],"prob":1}}}},{"classId":"e_4","part":"s2v1","offsets":[{"start":1763,"text":"Northern Foothills"}],"coordinates":[],"confidence":{"state":"pre-added","who":["ml:dpeker"],"prob":0.9648},"fields":{},"normalizations":{"n_34":{"source":{"name":"GeoNamesSCAR","id":"114021","url":null},"recName":"Northern Foothills","confidence":{"state":"pre-added","who":["ml:dpeker"],"prob":0.9648}}}},{"classId":"e_4","part":"s2v1","offsets":[{"start":1793,"text":"Cape Sastrugi"}],"coordinates":[],"confidence":{"state":"pre-added","who":["ml:dpeker"],"prob":0.9472},"fields":{},"normalizations":{"n_34":{"source":{"name":"GeoNamesSCAR","id":"114313","url":null},"recName":"Sastrugi, Cape","confidence":{"state":"pre-added","who":["ml:dpeker"],"prob":0.9472}}}},{"classId":"e_4","part":"s2v1","offsets":[{"start":1818,"text":"Gondwana station"}],"coordinates":[],"confidence":{"state":"pre-added","who":["ml:dpeker"],"prob":0.9293},"fields":{},"normalizations":{"n_52":{"source":{"name":"GeoNamesCustom","id":"CKL003","url":null},"recName":"Gondwana Station","confidence":{"state":"pre-added","who":["ml:dpeker"],"prob":0.9293}}}},{"classId":"e_4","part":"s2v1","offsets":[{"start":1844,"text":"Campbell Glacier"}],"coordinates":[],"confidence":{"state":"pre-added","who":["ml:dpeker"],"prob":0.9592},"fields":{},"normalizations":{"n_34":{"source":{"name":"GeoNamesSCAR","id":"112923","url":null},"recName":"Campbell Glacier","confidence":{"state":"pre-added","who":["ml:dpeker"],"prob":0.9592}}}},{"classId":"e_4","part":"s2v1","offsets":[{"start":1872,"text":"Cape Washington"}],"coordinates":[],"confidence":{"state":"pre-added","who":["ml:dpeker"],"prob":0.9558},"fields":{},"normalizations":{"n_34":{"source":{"name":"GeoNamesSCAR","id":"133453","url":null},"recName":"Washington, Cape","confidence":{"state":"pre-added","who":["ml:dpeker"],"prob":0.9558}}}},{"classId":"e_4","part":"s2v1","offsets":[{"start":1897,"text":"Edmonson Point"}],"coordinates":[],"confidence":{"state":"pre-added","who":["ml:dpeker"],"prob":0.9518},"fields":{},"normalizations":{"n_34":{"source":{"name":"GeoNamesSCAR","id":"124687","url":null},"recName":"Edmonson Point","confidence":{"state":"pre-added","who":["ml:dpeker"],"prob":0.9518}}}},{"classId":"e_4","part":"s2v1","offsets":[{"start":1943,"text":"Edmonson Point"}],"coordinates":[],"confidence":{"state":"pre-added","who":["ml:dpeker"],"prob":0.9518},"fields":{},"normalizations":{"n_34":{"source":{"name":"GeoNamesSCAR","id":"124687","url":null},"recName":"Edmonson Point","confidence":{"state":"pre-added","who":["ml:dpeker"],"prob":0.9518}}}},{"classId":"e_4","part":"s2v1","offsets":[{"start":1974,"text":"Edmonson Point"}],"coordinates":[],"confidence":{"state":"pre-added","who":["ml:dpeker"],"prob":0.9518},"fields":{},"normalizations":{"n_34":{"source":{"name":"GeoNamesSCAR","id":"124687","url":null},"recName":"Edmonson Point","confidence":{"state":"pre-added","who":["ml:dpeker"],"prob":0.9518}}}},{"classId":"e_4","part":"s2v1","offsets":[{"start":2005,"text":"Edmonson Point"}],"coordinates":[],"confidence":{"state":"pre-added","who":["ml:dpeker"],"prob":0.9518},"fields":{},"normalizations":{"n_34":{"source":{"name":"GeoNamesSCAR","id":"124687","url":null},"recName":"Edmonson Point","confidence":{"state":"pre-added","who":["ml:dpeker"],"prob":0.9518}}}},{"classId":"e_4","part":"s2v1","offsets":[{"start":2047,"text":"Edmonson Point"}],"coordinates":[],"confidence":{"state":"pre-added","who":["ml:dpeker"],"prob":0.9518},"fields":{},"normalizations":{"n_34":{"source":{"name":"GeoNamesSCAR","id":"124687","url":null},"recName":"Edmonson Point","confidence":{"state":"pre-added","who":["ml:dpeker"],"prob":0.9518}}}},{"classId":"e_4","part":"s2v1","offsets":[{"start":2099,"text":"Edmonson Point"}],"coordinates":[],"confidence":{"state":"pre-added","who":["ml:dpeker"],"prob":0.9518},"fields":{},"normalizations":{"n_34":{"source":{"name":"GeoNamesSCAR","id":"124687","url":null},"recName":"Edmonson Point","confidence":{"state":"pre-added","who":["ml:dpeker"],"prob":0.9518}}}},{"classId":"e_4","part":"s2v1","offsets":[{"start":2130,"text":"Baker Rocks"}],"coordinates":[],"confidence":{"state":"pre-added","who":["ml:dpeker"],"prob":0.9349},"fields":{},"normalizations":{"n_34":{"source":{"name":"GeoNamesSCAR","id":"122117","url":null},"recName":"Baker Rocks","confidence":{"state":"pre-added","who":["ml:dpeker"],"prob":0.9349}}}},{"classId":"e_4","part":"s2v1","offsets":[{"start":2151,"text":"Mount McGee"}],"coordinates":[],"confidence":{"state":"pre-added","who":["ml:dpeker"],"prob":0.9349},"fields":{},"normalizations":{"n_34":{"source":{"name":"GeoNamesSCAR","id":"128661","url":null},"recName":"McGee, Mount","confidence":{"state":"pre-added","who":["ml:dpeker"],"prob":0.9349}}}},{"classId":"e_4","part":"s2v1","offsets":[{"start":2172,"text":"Tinker Glacier"}],"coordinates":[],"confidence":{"state":"pre-added","who":["ml:dpeker"],"prob":0.9518},"fields":{},"normalizations":{"n_34":{"source":{"name":"GeoNamesSCAR","id":"132727","url":null},"recName":"Tinker Glacier","confidence":{"state":"pre-added","who":["ml:dpeker"],"prob":0.9518}}}},{"classId":"e_4","part":"s2v1","offsets":[{"start":2195,"text":".Bums Glacier"}],"coordinates":[{"x":"306.84","y":"297.04"},{"x":"354.00","y":"302.04"}],"confidence":{"state":"pre-added","who":["user:ICTAR"],"prob":1},"fields":{},"normalizations":{"n_34":{"source":{"name":"GeoNamesSCAR","id":"123119","url":null},"recName":"","confidence":{"state":"pre-added","who":["user:charlesklee"],"prob":1}}}},{"classId":"e_4","part":"s2v1","offsets":[{"start":2219,"text":"Apostrophe Island"}],"coordinates":[],"confidence":{"state":"pre-added","who":["ml:dpeker"],"prob":0.9622},"fields":{},"normalizations":{"n_34":{"source":{"name":"GeoNamesSCAR","id":"121872","url":null},"recName":"Apostrophe Island","confidence":{"state":"pre-added","who":["ml:dpeker"],"prob":0.9622}}}},{"classId":"e_4","part":"s2v1","offsets":[{"start":2247,"text":"Cape King"}],"coordinates":[],"confidence":{"state":"pre-added","who":["ml:dpeker"],"prob":0.9163},"fields":{},"normalizations":{"n_34":{"source":{"name":"GeoNamesSCAR","id":"127417","url":null},"recName":"King, Cape","confidence":{"state":"pre-added","who":["ml:dpeker"],"prob":0.9163}}}},{"classId":"e_4","part":"s2v1","offsets":[{"start":2267,"text":"Emerging Island"}],"coordinates":[],"confidence":{"state":"pre-added","who":["ml:dpeker"],"prob":0.9558},"fields":{},"normalizations":{"n_34":{"source":{"name":"GeoNamesSCAR","id":"124808","url":null},"recName":"Emerging Island","confidence":{"state":"pre-added","who":["ml:dpeker"],"prob":0.9558}}}},{"classId":"e_4","part":"s2v1","offsets":[{"start":2293,"text":"Kay Island"}],"coordinates":[],"confidence":{"state":"pre-added","who":["ml:dpeker"],"prob":0.9266},"fields":{},"normalizations":{"n_34":{"source":{"name":"GeoNamesSCAR","id":"127279","url":null},"recName":"Kay Island","confidence":{"state":"pre-added","who":["ml:dpeker"],"prob":0.9266}}}},{"classId":"e_4","part":"s4v1","offsets":[{"start":3343,"text":"Campbell glaciers"}],"coordinates":[],"confidence":{"state":"pre-added","who":["ml:dpeker"],"prob":0.8746},"fields":{},"normalizations":{"n_34":{"source":{"name":"GeoNamesSCAR","id":"112923","url":null},"recName":"Campbell Glacier","confidence":{"state":"pre-added","who":["ml:dpeker"],"prob":0.8746}}}},{"classId":"e_4","part":"s4v1","offsets":[{"start":3464,"text":"Apostrophe Island"}],"coordinates":[],"confidence":{"state":"pre-added","who":["ml:dpeker"],"prob":0.9622},"fields":{},"normalizations":{"n_34":{"source":{"name":"GeoNamesSCAR","id":"121872","url":null},"recName":"Apostrophe Island","confidence":{"state":"pre-added","who":["ml:dpeker"],"prob":0.9622}}}},{"classId":"e_4","part":"s4v1","offsets":[{"start":3486,"text":"Cape King"}],"coordinates":[],"confidence":{"state":"pre-added","who":["ml:dpeker"],"prob":0.9163},"fields":{},"normalizations":{"n_34":{"source":{"name":"GeoNamesSCAR","id":"127417","url":null},"recName":"King, Cape","confidence":{"state":"pre-added","who":["ml:dpeker"],"prob":0.9163}}}},{"classId":"e_4","part":"s4v1","offsets":[{"start":4003,"text":"Gondwana station"}],"coordinates":[],"confidence":{"state":"pre-added","who":["ml:dpeker"],"prob":0.9293},"fields":{},"normalizations":{"n_52":{"source":{"name":"GeoNamesCustom","id":"CKL003","url":null},"recName":"Gondwana Station","confidence":{"state":"pre-added","who":["ml:dpeker"],"prob":0.9293}}}},{"classId":"e_4","part":"s4v1","offsets":[{"start":4052,"text":"Edmonson Point"}],"coordinates":[],"confidence":{"state":"pre-added","who":["ml:dpeker"],"prob":0.9518},"fields":{},"normalizations":{"n_34":{"source":{"name":"GeoNamesSCAR","id":"124687","url":null},"recName":"Edmonson Point","confidence":{"state":"pre-added","who":["ml:dpeker"],"prob":0.9518}}}},{"classId":"e_4","part":"s4v1","offsets":[{"start":4084,"text":"Baker Rocks"}],"coordinates":[],"confidence":{"state":"pre-added","who":["ml:dpeker"],"prob":0.9349},"fields":{},"normalizations":{"n_34":{"source":{"name":"GeoNamesSCAR","id":"122117","url":null},"recName":"Baker Rocks","confidence":{"state":"pre-added","who":["ml:dpeker"],"prob":0.9349}}}},{"classId":"e_4","part":"s4v1","offsets":[{"start":4151,"text":"Kay Island"}],"coordinates":[],"confidence":{"state":"pre-added","who":["ml:dpeker"],"prob":0.9266},"fields":{},"normalizations":{"n_34":{"source":{"name":"GeoNamesSCAR","id":"127279","url":null},"recName":"Kay Island","confidence":{"state":"pre-added","who":["ml:dpeker"],"prob":0.9266}}}},{"classId":"e_39","part":"s4v1","offsets":[{"start":4239,"text":"G. terranova"}],"coordinates":[{"x":"225.56","y":"545.58"},{"x":"276.39","y":"552.14"}],"confidence":{"state":"pre-added","who":["user:ICTAR"],"prob":1},"fields":{},"normalizations":{"n_44":{"source":{"name":"SpringtailNames","id":"Grterr","url":null},"recName":"","confidence":{"state":"pre-added","who":["user:ICTAR"],"prob":1}}}},{"classId":"e_4","part":"s4v1","offsets":[{"start":4862,"text":"Cape Sastrugi"}],"coordinates":[],"confidence":{"state":"pre-added","who":["ml:dpeker"],"prob":0.9472},"fields":{},"normalizations":{"n_34":{"source":{"name":"GeoNamesSCAR","id":"114313","url":null},"recName":"Sastrugi, Cape","confidence":{"state":"pre-added","who":["ml:dpeker"],"prob":0.9472}}}},{"classId":"e_4","part":"s4v1","offsets":[{"start":4919,"text":"Campbell Glacier"}],"coordinates":[],"confidence":{"state":"pre-added","who":["ml:dpeker"],"prob":0.9592},"fields":{},"normalizations":{"n_34":{"source":{"name":"GeoNamesSCAR","id":"112923","url":null},"recName":"Campbell Glacier","confidence":{"state":"pre-added","who":["ml:dpeker"],"prob":0.9592}}}},{"classId":"e_39","part":"s4v1","offsets":[{"start":5005,"text":"G. terranova"}],"coordinates":[],"confidence":{"state":"pre-added","who":["ml:dpeker"],"prob":0.9416},"fields":{},"normalizations":{"n_44":{"source":{"name":"SpringtailNames","id":"Grterr","url":null},"recName":"Gressittacantha terranova","confidence":{"state":"pre-added","who":["ml:dpeker"],"prob":0.9416}}}},{"classId":"e_4","part":"s4v1","offsets":[{"start":5288,"text":"Cape King"}],"coordinates":[],"confidence":{"state":"pre-added","who":["ml:dpeker"],"prob":0.9163},"fields":{},"normalizations":{"n_34":{"source":{"name":"GeoNamesSCAR","id":"127417","url":null},"recName":"King, Cape","confidence":{"state":"pre-added","who":["ml:dpeker"],"prob":0.9163}}}},{"classId":"e_4","part":"s4v1","offsets":[{"start":5453,"text":"Apostrophe Island"}],"coordinates":[],"confidence":{"state":"pre-added","who":["ml:dpeker"],"prob":0.9622},"fields":{},"normalizations":{"n_34":{"source":{"name":"GeoNamesSCAR","id":"121872","url":null},"recName":"Apostrophe Island","confidence":{"state":"pre-added","who":["ml:dpeker"],"prob":0.9622}}}},{"classId":"e_4","part":"s4v1","offsets":[{"start":5593,"text":"ApostropheIsland"}],"coordinates":[{"x":"422.37","y":"520.01"},{"x":"496.34","y":"526.64"}],"confidence":{"state":"pre-added","who":["user:ICTAR"],"prob":1},"fields":{},"normalizations":{"n_34":{"source":{"name":"GeoNamesSCAR","id":"121872","url":null},"recName":"","confidence":{"state":"pre-added","who":["user:ICTAR"],"prob":1}}}},{"classId":"e_4","part":"s4v1","offsets":[{"start":5719,"text":"Emerging Island"}],"coordinates":[{"x":"457.66","y":"544.01"},{"x":"524.83","y":"550.64"}],"confidence":{"state":"pre-added","who":["user:ICTAR"],"prob":1},"fields":{},"normalizations":{"n_34":{"source":{"name":"GeoNamesSCAR","id":"124808","url":null},"recName":"","confidence":{"state":"pre-added","who":["user:ICTAR"],"prob":1}}}},{"classId":"e_4","part":"s4v1","offsets":[{"start":5738,"text":"Cape King"}],"coordinates":[],"confidence":{"state":"pre-added","who":["ml:dpeker"],"prob":0.9163},"fields":{},"normalizations":{"n_34":{"source":{"name":"GeoNamesSCAR","id":"127417","url":null},"recName":"King, Cape","confidence":{"state":"pre-added","who":["ml:dpeker"],"prob":0.9163}}}},{"classId":"e_4","part":"s4v1","offsets":[{"start":5876,"text":"Apostrophe Island"}],"coordinates":[],"confidence":{"state":"pre-added","who":["ml:dpeker"],"prob":0.9622},"fields":{},"normalizations":{"n_34":{"source":{"name":"GeoNamesSCAR","id":"121872","url":null},"recName":"Apostrophe Island","confidence":{"state":"pre-added","who":["ml:dpeker"],"prob":0.9622}}}},{"classId":"e_4","part":"s4v1","offsets":[{"start":6000,"text":"Emerging Island"}],"coordinates":[{"x":"434.66","y":"603.81"},{"x":"502.33","y":"610.44"}],"confidence":{"state":"pre-added","who":["user:ICTAR"],"prob":1},"fields":{},"normalizations":{"n_34":{"source":{"name":"GeoNamesSCAR","id":"124808","url":null},"recName":"","confidence":{"state":"pre-added","who":["user:ICTAR"],"prob":1}}}},{"classId":"e_4","part":"s4v1","offsets":[{"start":6019,"text":"Cape King"}],"coordinates":[],"confidence":{"state":"pre-added","who":["ml:dpeker"],"prob":0.9163},"fields":{},"normalizations":{"n_34":{"source":{"name":"GeoNamesSCAR","id":"127417","url":null},"recName":"King, Cape","confidence":{"state":"pre-added","who":["ml:dpeker"],"prob":0.9163}}}},{"classId":"e_4","part":"s4v1","offsets":[{"start":6078,"text":"Apostrophe Island"}],"coordinates":[],"confidence":{"state":"pre-added","who":["ml:dpeker"],"prob":0.9622},"fields":{},"normalizations":{"n_34":{"source":{"name":"GeoNamesSCAR","id":"121872","url":null},"recName":"Apostrophe Island","confidence":{"state":"pre-added","who":["ml:dpeker"],"prob":0.9622}}}},{"classId":"e_4","part":"s4v1","offsets":[{"start":6396,"text":"Emerging Island"}],"coordinates":[],"confidence":{"state":"pre-added","who":["ml:dpeker"],"prob":0.9558},"fields":{},"normalizations":{"n_34":{"source":{"name":"GeoNamesSCAR","id":"124808","url":null},"recName":"Emerging Island","confidence":{"state":"pre-added","who":["ml:dpeker"],"prob":0.9558}}}},{"classId":"e_4","part":"s4v1","offsets":[{"start":6416,"text":"Cape King"}],"coordinates":[],"confidence":{"state":"pre-added","who":["ml:dpeker"],"prob":0.9163},"fields":{},"normalizations":{"n_34":{"source":{"name":"GeoNamesSCAR","id":"127417","url":null},"recName":"King, Cape","confidence":{"state":"pre-added","who":["ml:dpeker"],"prob":0.9163}}}},{"classId":"e_4","part":"s5v1","offsets":[{"start":52,"text":"Apostrophe Island"}],"coordinates":[],"confidence":{"state":"pre-added","who":["ml:dpeker"],"prob":0.9622},"fields":{},"normalizations":{"n_34":{"source":{"name":"GeoNamesSCAR","id":"121872","url":null},"recName":"Apostrophe Island","confidence":{"state":"pre-added","who":["ml:dpeker"],"prob":0.9622}}}},{"classId":"e_4","part":"s5v1","offsets":[{"start":339,"text":"Apostrophe Island"}],"coordinates":[],"confidence":{"state":"pre-added","who":["ml:dpeker"],"prob":0.9622},"fields":{},"normalizations":{"n_34":{"source":{"name":"GeoNamesSCAR","id":"121872","url":null},"recName":"Apostrophe Island","confidence":{"state":"pre-added","who":["ml:dpeker"],"prob":0.9622}}}},{"classId":"e_4","part":"s5v1","offsets":[{"start":551,"text":"Apostrophe Island"}],"coordinates":[],"confidence":{"state":"pre-added","who":["ml:dpeker"],"prob":0.9622},"fields":{},"normalizations":{"n_34":{"source":{"name":"GeoNamesSCAR","id":"121872","url":null},"recName":"Apostrophe Island","confidence":{"state":"pre-added","who":["ml:dpeker"],"prob":0.9622}}}},{"classId":"e_4","part":"s5v1","offsets":[{"start":844,"text":"Edmonson Point"}],"coordinates":[],"confidence":{"state":"pre-added","who":["ml:dpeker"],"prob":0.9518},"fields":{},"normalizations":{"n_34":{"source":{"name":"GeoNamesSCAR","id":"124687","url":null},"recName":"Edmonson Point","confidence":{"state":"pre-added","who":["ml:dpeker"],"prob":0.9518}}}},{"classId":"e_4","part":"s5v1","offsets":[{"start":1489,"text":"Emerging Island"}],"coordinates":[],"confidence":{"state":"pre-added","who":["ml:dpeker"],"prob":0.9558},"fields":{},"normalizations":{"n_34":{"source":{"name":"GeoNamesSCAR","id":"124808","url":null},"recName":"Emerging Island","confidence":{"state":"pre-added","who":["ml:dpeker"],"prob":0.9558}}}},{"classId":"e_4","part":"s5v1","offsets":[{"start":1509,"text":"Cape King"}],"coordinates":[],"confidence":{"state":"pre-added","who":["ml:dpeker"],"prob":0.9163},"fields":{},"normalizations":{"n_34":{"source":{"name":"GeoNamesSCAR","id":"127417","url":null},"recName":"King, Cape","confidence":{"state":"pre-added","who":["ml:dpeker"],"prob":0.9163}}}},{"classId":"e_4","part":"s5v1","offsets":[{"start":2023,"text":"Cape Sastrugi"}],"coordinates":[],"confidence":{"state":"pre-added","who":["ml:dpeker"],"prob":0.9472},"fields":{},"normalizations":{"n_34":{"source":{"name":"GeoNamesSCAR","id":"114313","url":null},"recName":"Sastrugi, Cape","confidence":{"state":"pre-added","who":["ml:dpeker"],"prob":0.9472}}}},{"classId":"e_4","part":"s5v1","offsets":[{"start":2054,"text":"Baker Rocks"}],"coordinates":[],"confidence":{"state":"pre-added","who":["ml:dpeker"],"prob":0.9349},"fields":{},"normalizations":{"n_34":{"source":{"name":"GeoNamesSCAR","id":"122117","url":null},"recName":"Baker Rocks","confidence":{"state":"pre-added","who":["ml:dpeker"],"prob":0.9349}}}},{"classId":"e_39","part":"s5v1","offsets":[{"start":3026,"text":"G. terranova"}],"coordinates":[],"confidence":{"state":"pre-added","who":["ml:dpeker"],"prob":0.9416},"fields":{},"normalizations":{"n_44":{"source":{"name":"SpringtailNames","id":"Grterr","url":null},"recName":"Gressittacantha terranova","confidence":{"state":"pre-added","who":["ml:dpeker"],"prob":0.9416}}}},{"classId":"e_4","part":"s5v1","offsets":[{"start":4058,"text":"Cape Sastrugi"}],"coordinates":[],"confidence":{"state":"pre-added","who":["ml:dpeker"],"prob":0.9472},"fields":{},"normalizations":{"n_34":{"source":{"name":"GeoNamesSCAR","id":"114313","url":null},"recName":"Sastrugi, Cape","confidence":{"state":"pre-added","who":["ml:dpeker"],"prob":0.9472}}}},{"classId":"e_4","part":"s5v1","offsets":[{"start":4209,"text":"Cape Sastrugi"}],"coordinates":[],"confidence":{"state":"pre-added","who":["ml:dpeker"],"prob":0.9472},"fields":{},"normalizations":{"n_34":{"source":{"name":"GeoNamesSCAR","id":"114313","url":null},"recName":"Sastrugi, Cape","confidence":{"state":"pre-added","who":["ml:dpeker"],"prob":0.9472}}}},{"classId":"e_4","part":"s5v1","offsets":[{"start":4237,"text":"Cape King"}],"coordinates":[],"confidence":{"state":"pre-added","who":["ml:dpeker"],"prob":0.9163},"fields":{},"normalizations":{"n_34":{"source":{"name":"GeoNamesSCAR","id":"127417","url":null},"recName":"King, Cape","confidence":{"state":"pre-added","who":["ml:dpeker"],"prob":0.9163}}}},{"classId":"e_39","part":"s6v1","offsets":[{"start":265,"text":"G. terranova"}],"coordinates":[],"confidence":{"state":"pre-added","who":["ml:dpeker"],"prob":0.9416},"fields":{},"normalizations":{"n_44":{"source":{"name":"SpringtailNames","id":"Grterr","url":null},"recName":"Gressittacantha terranova","confidence":{"state":"pre-added","who":["ml:dpeker"],"prob":0.9416}}}},{"classId":"e_39","part":"s6v1","offsets":[{"start":820,"text":"G. terranova"}],"coordinates":[],"confidence":{"state":"pre-added","who":["ml:dpeker"],"prob":0.9416},"fields":{},"normalizations":{"n_44":{"source":{"name":"SpringtailNames","id":"Grterr","url":null},"recName":"Gressittacantha terranova","confidence":{"state":"pre-added","who":["ml:dpeker"],"prob":0.9416}}}},{"classId":"e_39","part":"s6v1","offsets":[{"start":965,"text":"G. terranova"}],"coordinates":[],"confidence":{"state":"pre-added","who":["ml:dpeker"],"prob":0.9416},"fields":{},"normalizations":{"n_44":{"source":{"name":"SpringtailNames","id":"Grterr","url":null},"recName":"Gressittacantha terranova","confidence":{"state":"pre-added","who":["ml:dpeker"],"prob":0.9416}}}},{"classId":"e_39","part":"s6v1","offsets":[{"start":1863,"text":"G. terranova"}],"coordinates":[],"confidence":{"state":"pre-added","who":["ml:dpeker"],"prob":0.9416},"fields":{},"normalizations":{"n_44":{"source":{"name":"SpringtailNames","id":"Grterr","url":null},"recName":"Gressittacantha terranova","confidence":{"state":"pre-added","who":["ml:dpeker"],"prob":0.9416}}}},{"classId":"e_39","part":"s6v1","offsets":[{"start":2608,"text":"G. terranova"}],"coordinates":[],"confidence":{"state":"pre-added","who":["ml:dpeker"],"prob":0.9416},"fields":{},"normalizations":{"n_44":{"source":{"name":"SpringtailNames","id":"Grterr","url":null},"recName":"Gressittacantha terranova","confidence":{"state":"pre-added","who":["ml:dpeker"],"prob":0.9416}}}},{"classId":"e_39","part":"s6v1","offsets":[{"start":3049,"text":"G. terranova"}],"coordinates":[],"confidence":{"state":"pre-added","who":["ml:dpeker"],"prob":0.9416},"fields":{},"normalizations":{"n_44":{"source":{"name":"SpringtailNames","id":"Grterr","url":null},"recName":"Gressittacantha terranova","confidence":{"state":"pre-added","who":["ml:dpeker"],"prob":0.9416}}}},{"classId":"e_4","part":"s7v1","offsets":[{"start":53,"text":"Edmonson Point"}],"coordinates":[],"confidence":{"state":"pre-added","who":["ml:dpeker"],"prob":0.9518},"fields":{},"normalizations":{"n_34":{"source":{"name":"GeoNamesSCAR","id":"124687","url":null},"recName":"Edmonson Point","confidence":{"state":"pre-added","who":["ml:dpeker"],"prob":0.9518}}}},{"classId":"e_4","part":"s7v1","offsets":[{"start":294,"text":"Edmonson Point"}],"coordinates":[],"confidence":{"state":"pre-added","who":["ml:dpeker"],"prob":0.9518},"fields":{},"normalizations":{"n_34":{"source":{"name":"GeoNamesSCAR","id":"124687","url":null},"recName":"Edmonson Point","confidence":{"state":"pre-added","who":["ml:dpeker"],"prob":0.9518}}}},{"classId":"e_4","part":"s7v1","offsets":[{"start":405,"text":"EdmonsonPoint"}],"coordinates":[],"confidence":{"state":"pre-added","who":["ml:dpeker"],"prob":0.8118},"fields":{},"normalizations":{"n_34":{"source":{"name":"GeoNamesSCAR","id":"124687","url":null},"recName":"Edmonson Point","confidence":{"state":"pre-added","who":["ml:dpeker"],"prob":0.8118}}}},{"classId":"e_4","part":"s7v1","offsets":[{"start":948,"text":"Edmonson Point"}],"coordinates":[],"confidence":{"state":"pre-added","who":["ml:dpeker"],"prob":0.9518},"fields":{},"normalizations":{"n_34":{"source":{"name":"GeoNamesSCAR","id":"124687","url":null},"recName":"Edmonson Point","confidence":{"state":"pre-added","who":["ml:dpeker"],"prob":0.9518}}}},{"classId":"e_39","part":"s7v1","offsets":[{"start":1707,"text":"G. terranova"}],"coordinates":[],"confidence":{"state":"pre-added","who":["ml:dpeker"],"prob":0.9416},"fields":{},"normalizations":{"n_44":{"source":{"name":"SpringtailNames","id":"Grterr","url":null},"recName":"Gressittacantha terranova","confidence":{"state":"pre-added","who":["ml:dpeker"],"prob":0.9416}}}},{"classId":"e_1","part":"s7v1","offsets":[{"start":2066,"text":"Ceratodon purpureus"}],"coordinates":[],"confidence":{"state":"pre-added","who":["ml:dpeker"],"prob":0.9671},"fields":{},"normalizations":{"n_32":{"source":{"name":"MossNames","id":"Cepurp","url":null},"recName":"Ceratodon purpureus","confidence":{"state":"pre-added","who":["ml:dpeker"],"prob":0.9671}}}},{"classId":"e_39","part":"s7v1","offsets":[{"start":2428,"text":"G. terranova"}],"coordinates":[],"confidence":{"state":"pre-added","who":["ml:dpeker"],"prob":0.9416},"fields":{},"normalizations":{"n_44":{"source":{"name":"SpringtailNames","id":"Grterr","url":null},"recName":"Gressittacantha terranova","confidence":{"state":"pre-added","who":["ml:dpeker"],"prob":0.9416}}}},{"classId":"e_39","part":"s7v1","offsets":[{"start":3236,"text":"G. terranova"}],"coordinates":[],"confidence":{"state":"pre-added","who":["ml:dpeker"],"prob":0.9416},"fields":{},"normalizations":{"n_44":{"source":{"name":"SpringtailNames","id":"Grterr","url":null},"recName":"Gressittacantha terranova","confidence":{"state":"pre-added","who":["ml:dpeker"],"prob":0.9416}}}},{"classId":"e_39","part":"s7v1","offsets":[{"start":3995,"text":"Zsotomaklovstadi"}],"coordinates":[{"x":"330.58","y":"233.43"},{"x":"401.85","y":"239.74"}],"confidence":{"state":"pre-added","who":["user:ICTAR"],"prob":1},"fields":{},"normalizations":{"n_44":{"source":{"name":"SpringtailNames","id":"Isklov","url":null},"recName":"","confidence":{"state":"pre-added","who":["user:ICTAR"],"prob":1}}}},{"classId":"e_4","part":"s7v1","offsets":[{"start":4046,"text":"Mariner Glacier"}],"coordinates":[],"confidence":{"state":"pre-added","who":["ml:dpeker"],"prob":0.9558},"fields":{},"normalizations":{"n_34":{"source":{"name":"GeoNamesSCAR","id":"128431","url":null},"recName":"Mariner Glacier","confidence":{"state":"pre-added","who":["ml:dpeker"],"prob":0.9558}}}},{"classId":"e_39","part":"s7v1","offsets":[{"start":4063,"text":"Gresszttacantha terranova"}],"coordinates":[{"x":"377.28","y":"245.43"},{"x":"487.58","y":"251.74"}],"confidence":{"state":"pre-added","who":["user:ICTAR"],"prob":1},"fields":{},"normalizations":{"n_44":{"source":{"name":"SpringtailNames","id":"Grterr","url":null},"recName":"","confidence":{"state":"pre-added","who":["user:ICTAR"],"prob":1}}}},{"classId":"e_4","part":"s7v1","offsets":[{"start":4112,"text":"Mariner Glacier"}],"coordinates":[{"x":"349.68","y":"257.24"},{"x":"414.99","y":"263.74"}],"confidence":{"state":"pre-added","who":["user:ICTAR"],"prob":1},"fields":{},"normalizations":{"n_34":{"source":{"name":"GeoNamesSCAR","id":"128431","url":null},"recName":"","confidence":{"state":"pre-added","who":["user:ICTAR"],"prob":1}}}},{"classId":"e_4","part":"s7v1","offsets":[{"start":4134,"text":"Nansen Ice Sheet"}],"coordinates":[{"x":"446.17","y":"257.24"},{"x":"514.75","y":"263.74"}],"confidence":{"state":"pre-added","who":["user:ICTAR"],"prob":1},"fields":{},"normalizations":{"n_34":{"source":{"name":"GeoNamesSCAR","id":"129264","url":null},"recName":"","confidence":{"state":"pre-added","who":["user:ICTAR"],"prob":1}}}},{"classId":"e_39","part":"s7v1","offsets":[{"start":4196,"text":"Friesea grisea"}],"coordinates":[],"confidence":{"state":"pre-added","who":["ml:dpeker"],"prob":0.9518},"fields":{},"normalizations":{"n_44":{"source":{"name":"SpringtailNames","id":"Frgris","url":null},"recName":"Friesea grisea","confidence":{"state":"pre-added","who":["ml:dpeker"],"prob":0.9518}}}},{"classId":"e_39","part":"s7v1","offsets":[{"start":4218,"text":"Gomphiocephalushodgsoni"}],"coordinates":[{"x":"301.88","y":"281.43"},{"x":"414.57","y":"287.74"}],"confidence":{"state":"pre-added","who":["user:ICTAR"],"prob":1},"fields":{},"normalizations":{"n_44":{"source":{"name":"SpringtailNames","id":"Gohodg","url":null},"recName":"","confidence":{"state":"pre-added","who":["user:ICTAR"],"prob":1}}}},{"classId":"e_4","part":"s7v1","offsets":[{"start":4267,"text":"David Glacier"}],"coordinates":[],"confidence":{"state":"pre-added","who":["ml:dpeker"],"prob":0.9472},"fields":{},"normalizations":{"n_34":{"source":{"name":"GeoNamesSCAR","id":"124129","url":null},"recName":"David Glacier","confidence":{"state":"pre-added","who":["ml:dpeker"],"prob":0.9472}}}},{"classId":"e_39","part":"s7v1","offsets":[{"start":4540,"text":"G. terranova"}],"coordinates":[{"x":"444.58","y":"353.48"},{"x":"495.98","y":"360.04"}],"confidence":{"state":"pre-added","who":["user:ICTAR"],"prob":1},"fields":{},"normalizations":{"n_44":{"source":{"name":"SpringtailNames","id":"Grterr","url":null},"recName":"","confidence":{"state":"pre-added","who":["user:ICTAR"],"prob":1}}}},{"classId":"e_4","part":"s7v1","offsets":[{"start":4597,"text":"Apostrophe Island"}],"coordinates":[],"confidence":{"state":"pre-added","who":["ml:dpeker"],"prob":0.9622},"fields":{},"normalizations":{"n_34":{"source":{"name":"GeoNamesSCAR","id":"121872","url":null},"recName":"Apostrophe Island","confidence":{"state":"pre-added","who":["ml:dpeker"],"prob":0.9622}}}},{"classId":"e_4","part":"s7v1","offsets":[{"start":4747,"text":"Apostrophe Island"}],"coordinates":[],"confidence":{"state":"pre-added","who":["ml:dpeker"],"prob":0.9622},"fields":{},"normalizations":{"n_34":{"source":{"name":"GeoNamesSCAR","id":"121872","url":null},"recName":"Apostrophe Island","confidence":{"state":"pre-added","who":["ml:dpeker"],"prob":0.9622}}}},{"classId":"e_39","part":"s7v1","offsets":[{"start":5912,"text":"Folsomia candida"}],"coordinates":[],"confidence":{"state":"pre-added","who":["ml:dpeker"],"prob":0.9592},"fields":{},"normalizations":{"n_44":{"source":{"name":"SpringtailNames","id":"Focand","url":null},"recName":"Folsomia candida","confidence":{"state":"pre-added","who":["ml:dpeker"],"prob":0.9592}}}},{"classId":"e_39","part":"s7v1","offsets":[{"start":5943,"text":"Cryptopygus caecus"}],"coordinates":[],"confidence":{"state":"pre-added","who":["ml:dpeker"],"prob":0.9648},"fields":{},"normalizations":{"n_44":{"source":{"name":"SpringtailNames","id":"Crcaec","url":null},"recName":"Cryptopygus caecus","confidence":{"state":"pre-added","who":["ml:dpeker"],"prob":0.9648}}}},{"classId":"e_4","part":"s8v1","offsets":[{"start":404,"text":"Apostrophe Island"}],"coordinates":[],"confidence":{"state":"pre-added","who":["ml:dpeker"],"prob":0.9622},"fields":{},"normalizations":{"n_34":{"source":{"name":"GeoNamesSCAR","id":"121872","url":null},"recName":"Apostrophe Island","confidence":{"state":"pre-added","who":["ml:dpeker"],"prob":0.9622}}}},{"classId":"e_4","part":"s8v1","offsets":[{"start":856,"text":"Cape Sastrugi"}],"coordinates":[],"confidence":{"state":"pre-added","who":["ml:dpeker"],"prob":0.9472},"fields":{},"normalizations":{"n_34":{"source":{"name":"GeoNamesSCAR","id":"114313","url":null},"recName":"Sastrugi, Cape","confidence":{"state":"pre-added","who":["ml:dpeker"],"prob":0.9472}}}},{"classId":"e_39","part":"s8v1","offsets":[{"start":1189,"text":"Isotoma klovstadi"}],"coordinates":[],"confidence":{"state":"pre-added","who":["ml:dpeker"],"prob":0.9622},"fields":{},"normalizations":{"n_44":{"source":{"name":"SpringtailNames","id":"Isklov","url":null},"recName":"Isotoma klovstadi","confidence":{"state":"pre-added","who":["ml:dpeker"],"prob":0.9622}}}},{"classId":"e_39","part":"s8v1","offsets":[{"start":1486,"text":"Gomphiocephalus hodgsoni"}],"coordinates":[],"confidence":{"state":"pre-added","who":["ml:dpeker"],"prob":0.9754},"fields":{},"normalizations":{"n_44":{"source":{"name":"SpringtailNames","id":"Gohodg","url":null},"recName":"Gomphiocephalus hodgsoni","confidence":{"state":"pre-added","who":["ml:dpeker"],"prob":0.9754}}}},{"classId":"e_39","part":"s8v1","offsets":[{"start":1512,"text":"Friesea grisea"}],"coordinates":[],"confidence":{"state":"pre-added","who":["ml:dpeker"],"prob":0.9518},"fields":{},"normalizations":{"n_44":{"source":{"name":"SpringtailNames","id":"Frgris","url":null},"recName":"Friesea grisea","confidence":{"state":"pre-added","who":["ml:dpeker"],"prob":0.9518}}}},{"classId":"e_39","part":"s8v1","offsets":[{"start":1781,"text":"Frieseagrisea"}],"coordinates":[],"confidence":{"state":"pre-added","who":["ml:dpeker"],"prob":0.6901},"fields":{},"normalizations":{"n_44":{"source":{"name":"SpringtailNames","id":"Frgris","url":null},"recName":"Friesea grisea","confidence":{"state":"pre-added","who":["ml:dpeker"],"prob":0.6901}}}},{"classId":"e_2","part":"s8v1","offsets":[{"start":3892,"text":"Scottnema lindsayae"}],"coordinates":[],"confidence":{"state":"pre-added","who":["ml:dpeker"],"prob":0.9671},"fields":{},"normalizations":{"n_33":{"source":{"name":"NematodeNames","id":"Sclind","url":null},"recName":"Scottnema lindsayae","confidence":{"state":"pre-added","who":["ml:dpeker"],"prob":0.9671}}}},{"classId":"e_1","part":"s8v1","offsets":[{"start":3986,"text":"Hennediella heimii"}],"coordinates":[],"confidence":{"state":"pre-added","who":["ml:dpeker"],"prob":0.9648},"fields":{},"normalizations":{"n_32":{"source":{"name":"MossNames","id":"Heheim","url":null},"recName":"Hennediella heimii","confidence":{"state":"pre-added","who":["ml:dpeker"],"prob":0.9648}}}},{"classId":"e_4","part":"s8v1","offsets":[{"start":4008,"text":"Miers Valley"}],"coordinates":[],"confidence":{"state":"pre-added","who":["ml:dpeker"],"prob":0.9416},"fields":{},"normalizations":{"n_34":{"source":{"name":"GeoNamesSCAR","id":"128868","url":null},"recName":"Miers Valley","confidence":{"state":"pre-added","who":["ml:dpeker"],"prob":0.9416}}}},{"classId":"e_39","part":"s8v1","offsets":[{"start":4120,"text":"Gressittacantha terranova"}],"coordinates":[],"confidence":{"state":"pre-added","who":["ml:dpeker"],"prob":0.9766},"fields":{},"normalizations":{"n_44":{"source":{"name":"SpringtailNames","id":"Grterr","url":null},"recName":"Gressittacantha terranova","confidence":{"state":"pre-added","who":["ml:dpeker"],"prob":0.9766}}}},{"classId":"e_39","part":"s8v1","offsets":[{"start":4150,"text":"Friesea grisea"}],"coordinates":[],"confidence":{"state":"pre-added","who":["ml:dpeker"],"prob":0.9518},"fields":{},"normalizations":{"n_44":{"source":{"name":"SpringtailNames","id":"Frgris","url":null},"recName":"Friesea grisea","confidence":{"state":"pre-added","who":["ml:dpeker"],"prob":0.9518}}}}],"relations":[{"classId":"r_46","type":"linked","directed":false,"entities":["s1v1|e_4|658,672","s1v1|e_39|558,581"],"confidence":{"state":"pre-added","who":["user:ICTAR"],"prob":1}},{"classId":"r_46","type":"linked","directed":false,"entities":["s1v1|e_4|680,695","s1v1|e_39|558,581"],"confidence":{"state":"pre-added","who":["user:ICTAR"],"prob":1}},{"classId":"r_46","type":"linked","directed":false,"entities":["s1v1|e_4|1599,1612","s1v1|e_39|1039,1050"],"confidence":{"state":"pre-added","who":["user:ICTAR"],"prob":1}},{"classId":"r_46","type":"linked","directed":false,"entities":["s1v1|e_4|1846,1862","s1v1|e_39|1039,1050"],"confidence":{"state":"pre-added","who":["user:ICTAR"],"prob":1}},{"classId":"r_46","type":"linked","directed":false,"entities":["s1v1|e_4|2496,2513","s1v1|e_39|2141,2165"],"confidence":{"state":"pre-added","who":["user:ICTAR"],"prob":1}},{"classId":"r_46","type":"linked","directed":false,"entities":["s1v1|e_4|2575,2592","s1v1|e_39|2141,2165"],"confidence":{"state":"pre-added","who":["user:ICTAR"],"prob":1}},{"classId":"r_46","type":"linked","directed":false,"entities":["s1v1|e_4|2630,2641","s1v1|e_39|2141,2165"],"confidence":{"state":"pre-added","who":["user:ICTAR"],"prob":1}},{"classId":"r_46","type":"linked","directed":false,"entities":["s1v1|e_39|2895,2919","s1v1|e_4|2955,2969"],"confidence":{"state":"pre-added","who":["user:ICTAR"],"prob":1}},{"classId":"r_46","type":"linked","directed":false,"entities":["s1v1|e_39|2895,2919","s1v1|e_4|2987,3002"],"confidence":{"state":"pre-added","who":["user:ICTAR"],"prob":1}},{"classId":"r_46","type":"linked","directed":false,"entities":["s2v1|e_39|723,734","s2v1|e_4|1681,1700"],"confidence":{"state":"pre-added","who":["user:ICTAR"],"prob":1}},{"classId":"r_46","type":"linked","directed":false,"entities":["s2v1|e_39|723,734","s2v1|e_4|1711,1721"],"confidence":{"state":"pre-added","who":["user:ICTAR"],"prob":1}},{"classId":"r_46","type":"linked","directed":false,"entities":["s2v1|e_39|723,734","s2v1|e_4|1732,1750"],"confidence":{"state":"pre-added","who":["user:ICTAR"],"prob":1}},{"classId":"r_46","type":"linked","directed":false,"entities":["s2v1|e_39|723,734","s2v1|e_4|1763,1780"],"confidence":{"state":"pre-added","who":["user:ICTAR"],"prob":1}},{"classId":"r_46","type":"linked","directed":false,"entities":["s2v1|e_39|723,734","s2v1|e_4|1793,1805"],"confidence":{"state":"pre-added","who":["user:ICTAR"],"prob":1}},{"classId":"r_46","type":"linked","directed":false,"entities":["s2v1|e_39|723,734","s2v1|e_4|1818,1833"],"confidence":{"state":"pre-added","who":["user:ICTAR"],"prob":1}},{"classId":"r_46","type":"linked","directed":false,"entities":["s2v1|e_39|723,734","s2v1|e_4|1844,1859"],"confidence":{"state":"pre-added","who":["user:ICTAR"],"prob":1}},{"classId":"r_46","type":"linked","directed":false,"entities":["s2v1|e_39|723,734","s2v1|e_4|1897,1910"],"confidence":{"state":"pre-added","who":["user:ICTAR"],"prob":1}},{"classId":"r_46","type":"linked","directed":false,"entities":["s2v1|e_39|723,734","s2v1|e_4|2130,2140"],"confidence":{"state":"pre-added","who":["user:ICTAR"],"prob":1}},{"classId":"r_46","type":"linked","directed":false,"entities":["s2v1|e_39|723,734","s2v1|e_4|2151,2161"],"confidence":{"state":"pre-added","who":["user:ICTAR"],"prob":1}},{"classId":"r_46","type":"linked","directed":false,"entities":["s2v1|e_39|723,734","s2v1|e_4|2293,2302"],"confidence":{"state":"pre-added","who":["user:ICTAR"],"prob":1}},{"classId":"r_46","type":"linked","directed":false,"entities":["s2v1|e_39|723,734","s2v1|e_4|2172,2185"],"confidence":{"state":"pre-added","who":["user:ICTAR"],"prob":1}},{"classId":"r_46","type":"linked","directed":false,"entities":["s2v1|e_39|723,734","s2v1|e_4|2195,2207"],"confidence":{"state":"pre-added","who":["user:ICTAR"],"prob":1}},{"classId":"r_46","type":"linked","directed":false,"entities":["s2v1|e_39|723,734","s2v1|e_4|2219,2235"],"confidence":{"state":"pre-added","who":["user:ICTAR"],"prob":1}},{"classId":"r_46","type":"linked","directed":false,"entities":["s2v1|e_39|723,734","s2v1|e_4|2247,2255"],"confidence":{"state":"pre-added","who":["user:ICTAR"],"prob":1}},{"classId":"r_46","type":"linked","directed":false,"entities":["s2v1|e_39|723,734","s2v1|e_4|2267,2281"],"confidence":{"state":"pre-added","who":["user:ICTAR"],"prob":1}},{"classId":"r_46","type":"linked","directed":false,"entities":["s2v1|e_39|723,734","s2v1|e_4|1943,1956"],"confidence":{"state":"pre-added","who":["user:ICTAR"],"prob":1}},{"classId":"r_46","type":"linked","directed":false,"entities":["s2v1|e_39|723,734","s2v1|e_4|1974,1987"],"confidence":{"state":"pre-added","who":["user:ICTAR"],"prob":1}},{"classId":"r_46","type":"linked","directed":false,"entities":["s2v1|e_39|723,734","s2v1|e_4|2005,2018"],"confidence":{"state":"pre-added","who":["user:ICTAR"],"prob":1}},{"classId":"r_46","type":"linked","directed":false,"entities":["s2v1|e_39|723,734","s2v1|e_4|2047,2060"],"confidence":{"state":"pre-added","who":["user:ICTAR"],"prob":1}},{"classId":"r_46","type":"linked","directed":false,"entities":["s2v1|e_39|723,734","s2v1|e_4|2099,2112"],"confidence":{"state":"pre-added","who":["user:ICTAR"],"prob":1}},{"classId":"r_46","type":"linked","directed":false,"entities":["s2v1|e_4|817,831","s2v1|e_39|723,734"],"confidence":{"state":"pre-added","who":["user:ICTAR"],"prob":1}},{"classId":"r_46","type":"linked","directed":false,"entities":["s2v1|e_4|841,856","s2v1|e_39|723,734"],"confidence":{"state":"pre-added","who":["user:ICTAR"],"prob":1}},{"classId":"r_46","type":"linked","directed":false,"entities":["s2v1|e_4|966,978","s2v1|e_39|723,734"],"confidence":{"state":"pre-added","who":["user:ICTAR"],"prob":1}},{"classId":"r_46","type":"linked","directed":false,"entities":["s2v1|e_4|1092,1105","s2v1|e_39|723,734"],"confidence":{"state":"pre-added","who":["user:ICTAR"],"prob":1}},{"classId":"r_46","type":"linked","directed":false,"entities":["s2v1|e_4|1872,1886","s2v1|e_39|723,734"],"confidence":{"state":"pre-added","who":["user:ICTAR"],"prob":1}},{"classId":"r_46","type":"linked","directed":false,"entities":["s4v1|e_39|4239,4250","s4v1|e_4|4862,4874"],"confidence":{"state":"pre-added","who":["user:ICTAR"],"prob":1}},{"classId":"r_46","type":"linked","directed":false,"entities":["s4v1|e_39|4239,4250","s4v1|e_4|4919,4934"],"confidence":{"state":"pre-added","who":["user:ICTAR"],"prob":1}},{"classId":"r_46","type":"linked","directed":false,"entities":["s4v1|e_39|5005,5016","s4v1|e_4|5288,5296"],"confidence":{"state":"pre-added","who":["user:ICTAR"],"prob":1}},{"classId":"r_46","type":"linked","directed":false,"entities":["s4v1|e_39|5005,5016","s4v1|e_4|5453,5469"],"confidence":{"state":"pre-added","who":["user:ICTAR"],"prob":1}},{"classId":"r_46","type":"linked","directed":false,"entities":["s4v1|e_39|5005,5016","s4v1|e_4|5738,5746"],"confidence":{"state":"pre-added","who":["user:ICTAR"],"prob":1}},{"classId":"r_46","type":"linked","directed":false,"entities":["s4v1|e_39|5005,5016","s4v1|e_4|5876,5892"],"confidence":{"state":"pre-added","who":["user:ICTAR"],"prob":1}},{"classId":"r_46","type":"linked","directed":false,"entities":["s4v1|e_39|5005,5016","s4v1|e_4|6019,6027"],"confidence":{"state":"pre-added","who":["user:ICTAR"],"prob":1}},{"classId":"r_46","type":"linked","directed":false,"entities":["s4v1|e_39|5005,5016","s4v1|e_4|6078,6094"],"confidence":{"state":"pre-added","who":["user:ICTAR"],"prob":1}},{"classId":"r_46","type":"linked","directed":false,"entities":["s4v1|e_4|5593,5608","s4v1|e_39|5005,5016"],"confidence":{"state":"pre-added","who":["user:ICTAR"],"prob":1}},{"classId":"r_46","type":"linked","directed":false,"entities":["s4v1|e_4|5719,5733","s4v1|e_39|5005,5016"],"confidence":{"state":"pre-added","who":["user:ICTAR"],"prob":1}},{"classId":"r_46","type":"linked","directed":false,"entities":["s4v1|e_4|6000,6014","s4v1|e_39|5005,5016"],"confidence":{"state":"pre-added","who":["user:ICTAR"],"prob":1}},{"classId":"r_46","type":"linked","directed":false,"entities":["s7v1|e_39|3995,4010","s7v1|e_4|4046,4060"],"confidence":{"state":"pre-added","who":["user:ICTAR"],"prob":1}},{"classId":"r_46","type":"linked","directed":false,"entities":["s7v1|e_39|4063,4087","s7v1|e_4|4112,4126"],"confidence":{"state":"pre-added","who":["user:ICTAR"],"prob":1}},{"classId":"r_46","type":"linked","directed":false,"entities":["s7v1|e_39|4063,4087","s7v1|e_4|4134,4149"],"confidence":{"state":"pre-added","who":["user:ICTAR"],"prob":1}},{"classId":"r_46","type":"linked","directed":false,"entities":["s7v1|e_39|4196,4209","s7v1|e_4|4112,4126"],"confidence":{"state":"pre-added","who":["user:ICTAR"],"prob":1}},{"classId":"r_46","type":"linked","directed":false,"entities":["s7v1|e_39|4196,4209","s7v1|e_4|4134,4149"],"confidence":{"state":"pre-added","who":["user:ICTAR"],"prob":1}},{"classId":"r_46","type":"linked","directed":false,"entities":["s7v1|e_39|4218,4240","s7v1|e_4|4267,4279"],"confidence":{"state":"pre-added","who":["user:ICTAR"],"prob":1}},{"classId":"r_46","type":"linked","directed":false,"entities":["s7v1|e_39|4540,4551","s7v1|e_4|4597,4613"],"confidence":{"state":"pre-added","who":["user:ICTAR"],"prob":1}}]}