{"annotatable":{"parts":["s1v1","s2v1","s3v1","s4v1","s5v1","s6v1","s7v1","s8v1","s9v1","s10v1","s11v1","s12v1","s13v1","s14v1","s15v1","s16v1","s17v1","s18v1","s19v1"]},"anncomplete":true,"sources":[],"metas":{"m_10":{"value":false,"confidence":{"state":"pre-added","who":["user:ICTAR"],"prob":1}},"m_9":{"value":true,"confidence":{"state":"pre-added","who":["user:ICTAR"],"prob":1}},"m_11":{"value":false,"confidence":{"state":"pre-added","who":["user:ICTAR"],"prob":1}},"m_16":{"value":"South Victoria Land","confidence":{"state":"pre-added","who":["user:ICTAR"],"prob":1}},"m_14":{"value":true,"confidence":{"state":"pre-added","who":["user:ICTAR"],"prob":1}}},"entities":[{"classId":"e_4","part":"s1v1","offsets":[{"start":263,"text":"Ross Island"}],"coordinates":[],"confidence":{"state":"pre-added","who":["ml:dpeker"],"prob":0.9349},"fields":{},"normalizations":{"n_34":{"source":{"name":"GeoNamesSCAR","id":"130958","url":null},"recName":"Ross Island","confidence":{"state":"pre-added","who":["ml:dpeker"],"prob":0.9349}}}},{"classId":"e_4","part":"s1v1","offsets":[{"start":616,"text":"Ross Island"}],"coordinates":[],"confidence":{"state":"pre-added","who":["ml:dpeker"],"prob":0.9349},"fields":{},"normalizations":{"n_34":{"source":{"name":"GeoNamesSCAR","id":"130958","url":null},"recName":"Ross Island","confidence":{"state":"pre-added","who":["ml:dpeker"],"prob":0.9349}}}},{"classId":"e_4","part":"s1v1","offsets":[{"start":1301,"text":"CapeBird"}],"coordinates":[],"confidence":{"state":"pre-added","who":["ml:dpeker"],"prob":0.7024},"fields":{},"normalizations":{"n_34":{"source":{"name":"GeoNamesSCAR","id":"122545","url":null},"recName":"Bird, Cape","confidence":{"state":"pre-added","who":["ml:dpeker"],"prob":0.7024}}}},{"classId":"e_4","part":"s1v1","offsets":[{"start":1338,"text":"Ross Island"}],"coordinates":[],"confidence":{"state":"pre-added","who":["ml:dpeker"],"prob":0.9349},"fields":{},"normalizations":{"n_34":{"source":{"name":"GeoNamesSCAR","id":"130958","url":null},"recName":"Ross Island","confidence":{"state":"pre-added","who":["ml:dpeker"],"prob":0.9349}}}},{"classId":"e_4","part":"s1v1","offsets":[{"start":2208,"text":"Ross Island"}],"coordinates":[],"confidence":{"state":"pre-added","who":["ml:dpeker"],"prob":0.9349},"fields":{},"normalizations":{"n_34":{"source":{"name":"GeoNamesSCAR","id":"130958","url":null},"recName":"Ross Island","confidence":{"state":"pre-added","who":["ml:dpeker"],"prob":0.9349}}}},{"classId":"e_4","part":"s1v1","offsets":[{"start":2617,"text":"Cape Royds"}],"coordinates":[],"confidence":{"state":"pre-added","who":["ml:dpeker"],"prob":0.9266},"fields":{},"normalizations":{"n_34":{"source":{"name":"GeoNamesSCAR","id":"131005","url":null},"recName":"Royds, Cape","confidence":{"state":"pre-added","who":["ml:dpeker"],"prob":0.9266}}}},{"classId":"e_4","part":"s2v1","offsets":[{"start":285,"text":"Ross Island"}],"coordinates":[],"confidence":{"state":"pre-added","who":["ml:dpeker"],"prob":0.9349},"fields":{},"normalizations":{"n_34":{"source":{"name":"GeoNamesSCAR","id":"130958","url":null},"recName":"Ross Island","confidence":{"state":"pre-added","who":["ml:dpeker"],"prob":0.9349}}}},{"classId":"e_4","part":"s2v1","offsets":[{"start":617,"text":"Ross Island"}],"coordinates":[],"confidence":{"state":"pre-added","who":["ml:dpeker"],"prob":0.9349},"fields":{},"normalizations":{"n_34":{"source":{"name":"GeoNamesSCAR","id":"130958","url":null},"recName":"Ross Island","confidence":{"state":"pre-added","who":["ml:dpeker"],"prob":0.9349}}}},{"classId":"e_4","part":"s2v1","offsets":[{"start":1032,"text":"Cape Bird"}],"coordinates":[],"confidence":{"state":"pre-added","who":["ml:dpeker"],"prob":0.9163},"fields":{},"normalizations":{"n_34":{"source":{"name":"GeoNamesSCAR","id":"122545","url":null},"recName":"Bird, Cape","confidence":{"state":"pre-added","who":["ml:dpeker"],"prob":0.9163}}}},{"classId":"e_4","part":"s2v1","offsets":[{"start":1308,"text":"Ross Island"}],"coordinates":[],"confidence":{"state":"pre-added","who":["ml:dpeker"],"prob":0.9349},"fields":{},"normalizations":{"n_34":{"source":{"name":"GeoNamesSCAR","id":"130958","url":null},"recName":"Ross Island","confidence":{"state":"pre-added","who":["ml:dpeker"],"prob":0.9349}}}},{"classId":"e_4","part":"s2v1","offsets":[{"start":1470,"text":"Ross Island"}],"coordinates":[],"confidence":{"state":"pre-added","who":["ml:dpeker"],"prob":0.9349},"fields":{},"normalizations":{"n_34":{"source":{"name":"GeoNamesSCAR","id":"130958","url":null},"recName":"Ross Island","confidence":{"state":"pre-added","who":["ml:dpeker"],"prob":0.9349}}}},{"classId":"e_4","part":"s2v1","offsets":[{"start":1570,"text":"Bird, Cape"}],"coordinates":[],"confidence":{"state":"pre-added","who":["ml:dpeker"],"prob":0.9266},"fields":{},"normalizations":{"n_34":{"source":{"name":"GeoNamesSCAR","id":"122545","url":null},"recName":"Bird, Cape","confidence":{"state":"pre-added","who":["ml:dpeker"],"prob":0.9266}}}},{"classId":"e_4","part":"s2v1","offsets":[{"start":1591,"text":"Cape Crozier"}],"coordinates":[],"confidence":{"state":"pre-added","who":["ml:dpeker"],"prob":0.9416},"fields":{},"normalizations":{"n_34":{"source":{"name":"GeoNamesSCAR","id":"123976","url":null},"recName":"Crozier, Cape","confidence":{"state":"pre-added","who":["ml:dpeker"],"prob":0.9416}}}},{"classId":"e_4","part":"s2v1","offsets":[{"start":1702,"text":"Ross Island"}],"coordinates":[],"confidence":{"state":"pre-added","who":["ml:dpeker"],"prob":0.9349},"fields":{},"normalizations":{"n_34":{"source":{"name":"GeoNamesSCAR","id":"130958","url":null},"recName":"Ross Island","confidence":{"state":"pre-added","who":["ml:dpeker"],"prob":0.9349}}}},{"classId":"e_4","part":"s3v1","offsets":[{"start":92,"text":"Cape Bird"}],"coordinates":[],"confidence":{"state":"pre-added","who":["ml:dpeker"],"prob":0.9163},"fields":{},"normalizations":{"n_34":{"source":{"name":"GeoNamesSCAR","id":"122545","url":null},"recName":"Bird, Cape","confidence":{"state":"pre-added","who":["ml:dpeker"],"prob":0.9163}}}},{"classId":"e_4","part":"s3v1","offsets":[{"start":840,"text":"Cape Bird"}],"coordinates":[],"confidence":{"state":"pre-added","who":["ml:dpeker"],"prob":0.9163},"fields":{},"normalizations":{"n_34":{"source":{"name":"GeoNamesSCAR","id":"122545","url":null},"recName":"Bird, Cape","confidence":{"state":"pre-added","who":["ml:dpeker"],"prob":0.9163}}}},{"classId":"e_4","part":"s3v1","offsets":[{"start":1445,"text":"Cape Royds"}],"coordinates":[],"confidence":{"state":"pre-added","who":["ml:dpeker"],"prob":0.9266},"fields":{},"normalizations":{"n_34":{"source":{"name":"GeoNamesSCAR","id":"131005","url":null},"recName":"Royds, Cape","confidence":{"state":"pre-added","who":["ml:dpeker"],"prob":0.9266}}}},{"classId":"e_4","part":"s3v1","offsets":[{"start":1744,"text":"Blue Lake"}],"coordinates":[],"confidence":{"state":"pre-added","who":["ml:dpeker"],"prob":0.9163},"fields":{},"normalizations":{"n_34":{"source":{"name":"GeoNamesSCAR","id":"122650","url":null},"recName":"Blue Lake","confidence":{"state":"pre-added","who":["ml:dpeker"],"prob":0.9163}}}},{"classId":"e_4","part":"s4v1","offsets":[{"start":1062,"text":"Cape Bird"}],"coordinates":[],"confidence":{"state":"pre-added","who":["ml:dpeker"],"prob":0.9163},"fields":{},"normalizations":{"n_34":{"source":{"name":"GeoNamesSCAR","id":"122545","url":null},"recName":"Bird, Cape","confidence":{"state":"pre-added","who":["ml:dpeker"],"prob":0.9163}}}},{"classId":"e_4","part":"s5v1","offsets":[{"start":106,"text":"Ross Island"}],"coordinates":[],"confidence":{"state":"pre-added","who":["ml:dpeker"],"prob":0.9349},"fields":{},"normalizations":{"n_34":{"source":{"name":"GeoNamesSCAR","id":"130958","url":null},"recName":"Ross Island","confidence":{"state":"pre-added","who":["ml:dpeker"],"prob":0.9349}}}},{"classId":"e_41","part":"s5v1","offsets":[{"start":208,"text":"Gloeocapsa kuetzingiana"}],"coordinates":[],"confidence":{"state":"pre-added","who":["ml:dpeker"],"prob":0.9741},"fields":{},"normalizations":{"n_55":{"source":{"name":"CyanobacteriaNames","id":"gloeku","url":null},"recName":"Gloeocapsa kuetzingiana","confidence":{"state":"pre-added","who":["ml:dpeker"],"prob":0.9741}}}},{"classId":"e_41","part":"s5v1","offsets":[{"start":257,"text":"Chroococcidiopsis sp"}],"coordinates":[{"x":"49.50","y":"184.05"},{"x":"120.66","y":"189.50"}],"confidence":{"state":"pre-added","who":["user:ICTAR"],"prob":1},"fields":{},"normalizations":{"n_55":{"source":{"name":"CyanobacteriaNames","id":"chrosp","url":null},"recName":"","confidence":{"state":"pre-added","who":["user:ICTAR"],"prob":1}}}},{"classId":"e_41","part":"s5v1","offsets":[{"start":307,"text":"Oscillatoriaceae"}],"coordinates":[],"confidence":{"state":"pre-added","who":["ml:dpeker"],"prob":0.9592},"fields":{},"normalizations":{"n_55":{"source":{"name":"CyanobacteriaNames","id":"oscifa","url":null},"recName":"Oscillatoriaceae","confidence":{"state":"pre-added","who":["ml:dpeker"],"prob":0.9592}}}},{"classId":"e_41","part":"s5v1","offsets":[{"start":335,"text":"Lyngbya"}],"coordinates":[{"x":"149.26","y":"205.80"},{"x":"175.64","y":"211.25"}],"confidence":{"state":"pre-added","who":["user:ICTAR"],"prob":1},"fields":{},"normalizations":{"n_55":{"source":{"name":"CyanobacteriaNames","id":"lyngsp","url":null},"recName":"","confidence":{"state":"pre-added","who":["user:ICTAR"],"prob":1}}}},{"classId":"e_41","part":"s5v1","offsets":[{"start":361,"text":"Phormidium spp"}],"coordinates":[],"confidence":{"state":"pre-added","who":["ml:dpeker"],"prob":0.9106},"fields":{},"normalizations":{"n_55":{"source":{"name":"CyanobacteriaNames","id":"phorsp","url":null},"recName":"Phormidium sp.","confidence":{"state":"pre-added","who":["ml:dpeker"],"prob":0.9106}}}},{"classId":"e_41","part":"s5v1","offsets":[{"start":378,"text":"Nostoc sp"}],"coordinates":[],"confidence":{"state":"pre-added","who":["ml:dpeker"],"prob":0.8568},"fields":{},"normalizations":{"n_55":{"source":{"name":"CyanobacteriaNames","id":"nostsp","url":null},"recName":"Nostoc","confidence":{"state":"pre-added","who":["ml:dpeker"],"prob":0.8568}}}},{"classId":"e_41","part":"s5v1","offsets":[{"start":389,"text":"Nostoc commune"}],"coordinates":[],"confidence":{"state":"pre-added","who":["ml:dpeker"],"prob":0.9518},"fields":{},"normalizations":{"n_55":{"source":{"name":"CyanobacteriaNames","id":"nocomm","url":null},"recName":"Nostoc commune","confidence":{"state":"pre-added","who":["ml:dpeker"],"prob":0.9518}}}},{"classId":"e_41","part":"s5v1","offsets":[{"start":404,"text":"Scytonema sp"}],"coordinates":[{"x":"49.50","y":"248.55"},{"x":"97.41","y":"254.00"}],"confidence":{"state":"pre-added","who":["user:ICTAR"],"prob":1},"fields":{},"normalizations":{"n_55":{"source":{"name":"CyanobacteriaNames","id":"scytsp","url":null},"recName":"","confidence":{"state":"pre-added","who":["user:ICTAR"],"prob":1}}}},{"classId":"e_40","part":"s5v1","offsets":[{"start":569,"text":"Ulothrix sp"}],"coordinates":[],"confidence":{"state":"pre-added","who":["ml:dpeker"],"prob":0.8842},"fields":{},"normalizations":{"n_75":{"source":{"name":"AlgaeNames","id":"ulotsp","url":null},"recName":"Ulothrix sp.","confidence":{"state":"pre-added","who":["ml:dpeker"],"prob":0.8842}}}},{"classId":"e_40","part":"s5v1","offsets":[{"start":597,"text":"cf. Coccobotrys sp."}],"coordinates":[{"x":"48.75","y":"367.05"},{"x":"114.53","y":"372.50"}],"confidence":{"state":"pre-added","who":["user:ICTAR"],"prob":1},"fields":{},"normalizations":{"n_75":{"source":{"name":"AlgaeNames","id":"coccsp","url":null},"recName":"","confidence":{"state":"pre-added","who":["user:ICTAR"],"prob":1}}}},{"classId":"e_40","part":"s5v1","offsets":[{"start":645,"text":"Prasiola calophyha"}],"coordinates":[{"x":"48.75","y":"399.30"},{"x":"111.70","y":"404.75"}],"confidence":{"state":"pre-added","who":["user:ICTAR"],"prob":1},"fields":{},"normalizations":{"n_75":{"source":{"name":"AlgaeNames","id":"prcalo","url":null},"recName":"","confidence":{"state":"pre-added","who":["user:ICTAR"],"prob":1}}}},{"classId":"e_40","part":"s5v1","offsets":[{"start":683,"text":"P. crispa"}],"coordinates":[],"confidence":{"state":"pre-added","who":["ml:dpeker"],"prob":0.9163},"fields":{},"normalizations":{"n_75":{"source":{"name":"AlgaeNames","id":"prcris","url":null},"recName":"Prasiola crispa","confidence":{"state":"pre-added","who":["ml:dpeker"],"prob":0.9163}}}},{"classId":"e_40","part":"s5v1","offsets":[{"start":711,"text":"Prasiococcus calcarius"}],"coordinates":[{"x":"48.75","y":"421.05"},{"x":"123.65","y":"426.50"}],"confidence":{"state":"pre-added","who":["user:ICTAR"],"prob":1},"fields":{},"normalizations":{"n_75":{"source":{"name":"AlgaeNames","id":"prcalc","url":null},"recName":"","confidence":{"state":"pre-added","who":["user:ICTAR"],"prob":1}}}},{"classId":"e_40","part":"s5v1","offsets":[{"start":868,"text":"Navicula ctyptocephala"}],"coordinates":[{"x":"48.75","y":"485.55"},{"x":"125.89","y":"491.00"}],"confidence":{"state":"pre-added","who":["user:ICTAR"],"prob":1},"fields":{},"normalizations":{"n_75":{"source":{"name":"AlgaeNames","id":"nacryp","url":null},"recName":"","confidence":{"state":"pre-added","who":["user:ICTAR"],"prob":1}}}},{"classId":"e_40","part":"s5v1","offsets":[{"start":903,"text":"N. muticopsis"}],"coordinates":[],"confidence":{"state":"pre-added","who":["ml:dpeker"],"prob":0.9472},"fields":{},"normalizations":{"n_75":{"source":{"name":"AlgaeNames","id":"namuti","url":null},"recName":"Navicula muticopsis","confidence":{"state":"pre-added","who":["ml:dpeker"],"prob":0.9472}}}},{"classId":"e_4","part":"s5v1","offsets":[{"start":1209,"text":"Cape Bird"}],"coordinates":[],"confidence":{"state":"pre-added","who":["ml:dpeker"],"prob":0.9163},"fields":{},"normalizations":{"n_34":{"source":{"name":"GeoNamesSCAR","id":"122545","url":null},"recName":"Bird, Cape","confidence":{"state":"pre-added","who":["ml:dpeker"],"prob":0.9163}}}},{"classId":"e_4","part":"s6v1","offsets":[{"start":524,"text":"Northern Rookery"}],"coordinates":[],"confidence":{"state":"pre-added","who":["ml:dpeker"],"prob":0.9592},"fields":{},"normalizations":{"n_52":{"source":{"name":"GeoNamesCustom","id":"CKL009","url":null},"recName":"Northern Rookery","confidence":{"state":"pre-added","who":["ml:dpeker"],"prob":0.9592}}}},{"classId":"e_4","part":"s7v1","offsets":[{"start":25,"text":"Cape Bird"}],"coordinates":[],"confidence":{"state":"pre-added","who":["ml:dpeker"],"prob":0.9163},"fields":{},"normalizations":{"n_34":{"source":{"name":"GeoNamesSCAR","id":"122545","url":null},"recName":"Bird, Cape","confidence":{"state":"pre-added","who":["ml:dpeker"],"prob":0.9163}}}},{"classId":"e_4","part":"s7v1","offsets":[{"start":2747,"text":"Cape Bird"}],"coordinates":[{"x":"479.25","y":"616.80"},{"x":"293.49","y":"632.75"}],"confidence":{"state":"pre-added","who":["user:ICTAR"],"prob":1},"fields":{},"normalizations":{"n_34":{"source":{"name":"GeoNamesSCAR","id":"122545","url":null},"recName":"","confidence":{"state":"pre-added","who":["user:ICTAR"],"prob":1}}}},{"classId":"e_4","part":"s7v1","offsets":[{"start":2761,"text":"C. Royds"}],"coordinates":[{"x":"316.49","y":"627.30"},{"x":"349.30","y":"632.75"}],"confidence":{"state":"pre-added","who":["user:ICTAR"],"prob":1},"fields":{},"normalizations":{"n_34":{"source":{"name":"GeoNamesSCAR","id":"131005","url":null},"recName":"","confidence":{"state":"pre-added","who":["user:ICTAR"],"prob":1}}}},{"classId":"e_4","part":"s7v1","offsets":[{"start":2777,"text":"C. Crozier"}],"coordinates":[{"x":"386.99","y":"627.30"},{"x":"422.36","y":"632.75"}],"confidence":{"state":"pre-added","who":["user:ICTAR"],"prob":1},"fields":{},"normalizations":{"n_34":{"source":{"name":"GeoNamesSCAR","id":"123976","url":null},"recName":"","confidence":{"state":"pre-added","who":["user:ICTAR"],"prob":1}}}},{"classId":"e_41","part":"s7v1","offsets":[{"start":2875,"text":"Oscillatoriaceae"}],"coordinates":[],"confidence":{"state":"pre-added","who":["ml:dpeker"],"prob":0.9592},"fields":{},"normalizations":{"n_55":{"source":{"name":"CyanobacteriaNames","id":"oscifa","url":null},"recName":"Oscillatoriaceae","confidence":{"state":"pre-added","who":["ml:dpeker"],"prob":0.9592}}}},{"classId":"e_41","part":"s7v1","offsets":[{"start":2919,"text":"Nostoc sp"}],"coordinates":[],"confidence":{"state":"pre-added","who":["ml:dpeker"],"prob":0.8568},"fields":{},"normalizations":{"n_55":{"source":{"name":"CyanobacteriaNames","id":"nostsp","url":null},"recName":"Nostoc","confidence":{"state":"pre-added","who":["ml:dpeker"],"prob":0.8568}}}},{"classId":"e_41","part":"s7v1","offsets":[{"start":2938,"text":"Oscillatoriaceae"}],"coordinates":[],"confidence":{"state":"pre-added","who":["ml:dpeker"],"prob":0.9592},"fields":{},"normalizations":{"n_55":{"source":{"name":"CyanobacteriaNames","id":"oscifa","url":null},"recName":"Oscillatoriaceae","confidence":{"state":"pre-added","who":["ml:dpeker"],"prob":0.9592}}}},{"classId":"e_41","part":"s7v1","offsets":[{"start":2959,"text":"Nostoc"}],"coordinates":[],"confidence":{"state":"pre-added","who":["ml:dpeker"],"prob":0.8617},"fields":{},"normalizations":{"n_55":{"source":{"name":"CyanobacteriaNames","id":"nostsp","url":null},"recName":"Nostoc","confidence":{"state":"pre-added","who":["ml:dpeker"],"prob":0.8617}}}},{"classId":"e_41","part":"s7v1","offsets":[{"start":3009,"text":"Gloeocapsa kuetzingiana"}],"coordinates":[],"confidence":{"state":"pre-added","who":["ml:dpeker"],"prob":0.9741},"fields":{},"normalizations":{"n_55":{"source":{"name":"CyanobacteriaNames","id":"gloeku","url":null},"recName":"Gloeocapsa kuetzingiana","confidence":{"state":"pre-added","who":["ml:dpeker"],"prob":0.9741}}}},{"classId":"e_41","part":"s8v1","offsets":[{"start":4,"text":"Nostocsp"}],"coordinates":[],"confidence":{"state":"pre-added","who":["ml:dpeker"],"prob":0.5642},"fields":{},"normalizations":{"n_55":{"source":{"name":"CyanobacteriaNames","id":"nostsp","url":null},"recName":"Nostoc","confidence":{"state":"pre-added","who":["ml:dpeker"],"prob":0.5642}}}},{"classId":"e_4","part":"s8v1","offsets":[{"start":92,"text":"C. Bird"}],"coordinates":[{"x":"248.99","y":"86.73"},{"x":"62.09","y":"106.75"}],"confidence":{"state":"pre-added","who":["user:ICTAR"],"prob":1},"fields":{},"normalizations":{"n_34":{"source":{"name":"GeoNamesSCAR","id":"122545","url":null},"recName":"","confidence":{"state":"pre-added","who":["user:ICTAR"],"prob":1}}}},{"classId":"e_41","part":"s8v1","offsets":[{"start":110,"text":"Gloeocapsa kuetzingiiana"}],"coordinates":[{"x":"108.75","y":"100.39"},{"x":"209.25","y":"106.75"}],"confidence":{"state":"pre-added","who":["user:ICTAR"],"prob":1},"fields":{},"normalizations":{"n_55":{"source":{"name":"CyanobacteriaNames","id":"gloeku","url":null},"recName":"","confidence":{"state":"pre-added","who":["user:ICTAR"],"prob":1}}}},{"classId":"e_4","part":"s8v1","offsets":[{"start":220,"text":"C. Royds"}],"coordinates":[{"x":"180.75","y":"124.98"},{"x":"225.53","y":"132.25"}],"confidence":{"state":"pre-added","who":["user:ICTAR"],"prob":1},"fields":{},"normalizations":{"n_34":{"source":{"name":"GeoNamesSCAR","id":"131005","url":null},"recName":"","confidence":{"state":"pre-added","who":["user:ICTAR"],"prob":1}}}},{"classId":"e_4","part":"s8v1","offsets":[{"start":233,"text":"C. Crozier"}],"coordinates":[{"x":"249.00","y":"124.98"},{"x":"77.02","y":"145.75"}],"confidence":{"state":"pre-added","who":["user:ICTAR"],"prob":1},"fields":{},"normalizations":{"n_34":{"source":{"name":"GeoNamesSCAR","id":"123976","url":null},"recName":"","confidence":{"state":"pre-added","who":["user:ICTAR"],"prob":1}}}},{"classId":"e_40","part":"s8v1","offsets":[{"start":836,"text":"Ulothrix sp"}],"coordinates":[],"confidence":{"state":"pre-added","who":["ml:dpeker"],"prob":0.8842},"fields":{},"normalizations":{"n_75":{"source":{"name":"AlgaeNames","id":"ulotsp","url":null},"recName":"Ulothrix sp.","confidence":{"state":"pre-added","who":["ml:dpeker"],"prob":0.8842}}}},{"classId":"e_4","part":"s8v1","offsets":[{"start":1420,"text":"Cape Bird"}],"coordinates":[],"confidence":{"state":"pre-added","who":["ml:dpeker"],"prob":0.9163},"fields":{},"normalizations":{"n_34":{"source":{"name":"GeoNamesSCAR","id":"122545","url":null},"recName":"Bird, Cape","confidence":{"state":"pre-added","who":["ml:dpeker"],"prob":0.9163}}}},{"classId":"e_4","part":"s8v1","offsets":[{"start":1434,"text":"C. Royds"}],"coordinates":[{"x":"79.50","y":"634.55"},{"x":"112.31","y":"640.00"}],"confidence":{"state":"pre-added","who":["user:ICTAR"],"prob":1},"fields":{},"normalizations":{"n_34":{"source":{"name":"GeoNamesSCAR","id":"131005","url":null},"recName":"","confidence":{"state":"pre-added","who":["user:ICTAR"],"prob":1}}}},{"classId":"e_4","part":"s8v1","offsets":[{"start":1450,"text":"C. Crozier"}],"coordinates":[{"x":"150.01","y":"634.55"},{"x":"184.63","y":"640.00"}],"confidence":{"state":"pre-added","who":["user:ICTAR"],"prob":1},"fields":{},"normalizations":{"n_34":{"source":{"name":"GeoNamesSCAR","id":"123976","url":null},"recName":"","confidence":{"state":"pre-added","who":["user:ICTAR"],"prob":1}}}},{"classId":"e_40","part":"s8v1","offsets":[{"start":1578,"text":"Ulothrix sp"}],"coordinates":[],"confidence":{"state":"pre-added","who":["ml:dpeker"],"prob":0.8842},"fields":{},"normalizations":{"n_75":{"source":{"name":"AlgaeNames","id":"ulotsp","url":null},"recName":"Ulothrix sp.","confidence":{"state":"pre-added","who":["ml:dpeker"],"prob":0.8842}}}},{"classId":"e_40","part":"s8v1","offsets":[{"start":1599,"text":"Ulothrix sp"}],"coordinates":[],"confidence":{"state":"pre-added","who":["ml:dpeker"],"prob":0.8842},"fields":{},"normalizations":{"n_75":{"source":{"name":"AlgaeNames","id":"ulotsp","url":null},"recName":"Ulothrix sp.","confidence":{"state":"pre-added","who":["ml:dpeker"],"prob":0.8842}}}},{"classId":"e_40","part":"s8v1","offsets":[{"start":2115,"text":"N. muticopsis"}],"coordinates":[],"confidence":{"state":"pre-added","who":["ml:dpeker"],"prob":0.9472},"fields":{},"normalizations":{"n_75":{"source":{"name":"AlgaeNames","id":"namuti","url":null},"recName":"Navicula muticopsis","confidence":{"state":"pre-added","who":["ml:dpeker"],"prob":0.9472}}}},{"classId":"e_4","part":"s8v1","offsets":[{"start":2227,"text":"Cape Bird"}],"coordinates":[],"confidence":{"state":"pre-added","who":["ml:dpeker"],"prob":0.9163},"fields":{},"normalizations":{"n_34":{"source":{"name":"GeoNamesSCAR","id":"122545","url":null},"recName":"Bird, Cape","confidence":{"state":"pre-added","who":["ml:dpeker"],"prob":0.9163}}}},{"classId":"e_4","part":"s8v1","offsets":[{"start":2509,"text":"Cape Bird"}],"coordinates":[],"confidence":{"state":"pre-added","who":["ml:dpeker"],"prob":0.9163},"fields":{},"normalizations":{"n_34":{"source":{"name":"GeoNamesSCAR","id":"122545","url":null},"recName":"Bird, Cape","confidence":{"state":"pre-added","who":["ml:dpeker"],"prob":0.9163}}}},{"classId":"e_4","part":"s8v1","offsets":[{"start":2523,"text":"C. Royds"}],"coordinates":[{"x":"285.00","y":"635.30"},{"x":"314.81","y":"640.75"}],"confidence":{"state":"pre-added","who":["user:ICTAR"],"prob":1},"fields":{},"normalizations":{"n_34":{"source":{"name":"GeoNamesSCAR","id":"131005","url":null},"recName":"","confidence":{"state":"pre-added","who":["user:ICTAR"],"prob":1}}}},{"classId":"e_4","part":"s8v1","offsets":[{"start":2539,"text":"C. Crozier"}],"coordinates":[{"x":"344.25","y":"635.30"},{"x":"376.62","y":"640.75"}],"confidence":{"state":"pre-added","who":["user:ICTAR"],"prob":1},"fields":{},"normalizations":{"n_34":{"source":{"name":"GeoNamesSCAR","id":"123976","url":null},"recName":"","confidence":{"state":"pre-added","who":["user:ICTAR"],"prob":1}}}},{"classId":"e_40","part":"s8v1","offsets":[{"start":2610,"text":"Navicula cryptocephala"}],"coordinates":[],"confidence":{"state":"pre-added","who":["ml:dpeker"],"prob":0.9726},"fields":{},"normalizations":{"n_75":{"source":{"name":"AlgaeNames","id":"nacryp","url":null},"recName":"Navicula cryptocephala","confidence":{"state":"pre-added","who":["ml:dpeker"],"prob":0.9726}}}},{"classId":"e_40","part":"s8v1","offsets":[{"start":2654,"text":"N. muticopsir"}],"coordinates":[{"x":"348.00","y":"656.30"},{"x":"391.56","y":"661.75"}],"confidence":{"state":"pre-added","who":["user:ICTAR"],"prob":1},"fields":{},"normalizations":{"n_75":{"source":{"name":"AlgaeNames","id":"namuti","url":null},"recName":"","confidence":{"state":"pre-added","who":["user:ICTAR"],"prob":1}}}},{"classId":"e_41","part":"s9v1","offsets":[{"start":414,"text":"Oscillatoriaceae"}],"coordinates":[],"confidence":{"state":"pre-added","who":["ml:dpeker"],"prob":0.9592},"fields":{},"normalizations":{"n_55":{"source":{"name":"CyanobacteriaNames","id":"oscifa","url":null},"recName":"Oscillatoriaceae","confidence":{"state":"pre-added","who":["ml:dpeker"],"prob":0.9592}}}},{"classId":"e_4","part":"s9v1","offsets":[{"start":465,"text":"Ross Island"}],"coordinates":[],"confidence":{"state":"pre-added","who":["ml:dpeker"],"prob":0.9349},"fields":{},"normalizations":{"n_34":{"source":{"name":"GeoNamesSCAR","id":"130958","url":null},"recName":"Ross Island","confidence":{"state":"pre-added","who":["ml:dpeker"],"prob":0.9349}}}},{"classId":"e_40","part":"s9v1","offsets":[{"start":703,"text":"Ulothrix sp"}],"coordinates":[],"confidence":{"state":"pre-added","who":["ml:dpeker"],"prob":0.8842},"fields":{},"normalizations":{"n_75":{"source":{"name":"AlgaeNames","id":"ulotsp","url":null},"recName":"Ulothrix sp.","confidence":{"state":"pre-added","who":["ml:dpeker"],"prob":0.8842}}}},{"classId":"e_41","part":"s9v1","offsets":[{"start":760,"text":"Nostoc sp"}],"coordinates":[],"confidence":{"state":"pre-added","who":["ml:dpeker"],"prob":0.8568},"fields":{},"normalizations":{"n_55":{"source":{"name":"CyanobacteriaNames","id":"nostsp","url":null},"recName":"Nostoc","confidence":{"state":"pre-added","who":["ml:dpeker"],"prob":0.8568}}}},{"classId":"e_41","part":"s9v1","offsets":[{"start":800,"text":"Oscillatoriaceae"}],"coordinates":[],"confidence":{"state":"pre-added","who":["ml:dpeker"],"prob":0.9592},"fields":{},"normalizations":{"n_55":{"source":{"name":"CyanobacteriaNames","id":"oscifa","url":null},"recName":"Oscillatoriaceae","confidence":{"state":"pre-added","who":["ml:dpeker"],"prob":0.9592}}}},{"classId":"e_40","part":"s9v1","offsets":[{"start":996,"text":"Ulothrix sp"}],"coordinates":[],"confidence":{"state":"pre-added","who":["ml:dpeker"],"prob":0.8842},"fields":{},"normalizations":{"n_75":{"source":{"name":"AlgaeNames","id":"ulotsp","url":null},"recName":"Ulothrix sp.","confidence":{"state":"pre-added","who":["ml:dpeker"],"prob":0.8842}}}},{"classId":"e_40","part":"s9v1","offsets":[{"start":1277,"text":"Navi- cula cryptocephala"}],"coordinates":[],"confidence":{"state":"pre-added","who":["ml:dpeker"],"prob":0.8652},"fields":{},"normalizations":{"n_75":{"source":{"name":"AlgaeNames","id":"nacryp","url":null},"recName":"Navicula cryptocephala","confidence":{"state":"pre-added","who":["ml:dpeker"],"prob":0.8652}}}},{"classId":"e_40","part":"s9v1","offsets":[{"start":1456,"text":"N. muticopsis"}],"coordinates":[],"confidence":{"state":"pre-added","who":["ml:dpeker"],"prob":0.9472},"fields":{},"normalizations":{"n_75":{"source":{"name":"AlgaeNames","id":"namuti","url":null},"recName":"Navicula muticopsis","confidence":{"state":"pre-added","who":["ml:dpeker"],"prob":0.9472}}}},{"classId":"e_4","part":"s9v1","offsets":[{"start":2125,"text":"Mc- Murdo Ice Shelf"}],"coordinates":[],"confidence":{"state":"pre-added","who":["ml:dpeker"],"prob":0.828},"fields":{},"normalizations":{"n_34":{"source":{"name":"GeoNamesSCAR","id":"128723","url":null},"recName":"McMurdo Ice Shelf","confidence":{"state":"pre-added","who":["ml:dpeker"],"prob":0.828}}}},{"classId":"e_4","part":"s9v1","offsets":[{"start":2407,"text":"Ross Island"}],"coordinates":[],"confidence":{"state":"pre-added","who":["ml:dpeker"],"prob":0.9349},"fields":{},"normalizations":{"n_34":{"source":{"name":"GeoNamesSCAR","id":"130958","url":null},"recName":"Ross Island","confidence":{"state":"pre-added","who":["ml:dpeker"],"prob":0.9349}}}},{"classId":"e_4","part":"s10v1","offsets":[{"start":30,"text":"Cape Crozier"}],"coordinates":[],"confidence":{"state":"pre-added","who":["ml:dpeker"],"prob":0.9416},"fields":{},"normalizations":{"n_34":{"source":{"name":"GeoNamesSCAR","id":"123976","url":null},"recName":"Crozier, Cape","confidence":{"state":"pre-added","who":["ml:dpeker"],"prob":0.9416}}}},{"classId":"e_4","part":"s10v1","offsets":[{"start":484,"text":"Cape Bird"}],"coordinates":[],"confidence":{"state":"pre-added","who":["ml:dpeker"],"prob":0.9163},"fields":{},"normalizations":{"n_34":{"source":{"name":"GeoNamesSCAR","id":"122545","url":null},"recName":"Bird, Cape","confidence":{"state":"pre-added","who":["ml:dpeker"],"prob":0.9163}}}},{"classId":"e_41","part":"s10v1","offsets":[{"start":777,"text":"Nostoc commune"}],"coordinates":[],"confidence":{"state":"pre-added","who":["ml:dpeker"],"prob":0.9518},"fields":{},"normalizations":{"n_55":{"source":{"name":"CyanobacteriaNames","id":"nocomm","url":null},"recName":"Nostoc commune","confidence":{"state":"pre-added","who":["ml:dpeker"],"prob":0.9518}}}},{"classId":"e_40","part":"s10v1","offsets":[{"start":807,"text":"Prasiola calophylla"}],"coordinates":[],"confidence":{"state":"pre-added","who":["ml:dpeker"],"prob":0.9671},"fields":{},"normalizations":{"n_75":{"source":{"name":"AlgaeNames","id":"prcalo","url":null},"recName":"Prasiola calophylla","confidence":{"state":"pre-added","who":["ml:dpeker"],"prob":0.9671}}}},{"classId":"e_41","part":"s11v1","offsets":[{"start":1536,"text":"Phormidium fragile"}],"coordinates":[],"confidence":{"state":"pre-added","who":["ml:dpeker"],"prob":0.9648},"fields":{},"normalizations":{"n_55":{"source":{"name":"CyanobacteriaNames","id":"phfrag","url":null},"recName":"Phormidium fragile","confidence":{"state":"pre-added","who":["ml:dpeker"],"prob":0.9648}}}},{"classId":"e_40","part":"s11v1","offsets":[{"start":1962,"text":"Ulothrix sp"}],"coordinates":[],"confidence":{"state":"pre-added","who":["ml:dpeker"],"prob":0.8842},"fields":{},"normalizations":{"n_75":{"source":{"name":"AlgaeNames","id":"ulotsp","url":null},"recName":"Ulothrix sp.","confidence":{"state":"pre-added","who":["ml:dpeker"],"prob":0.8842}}}},{"classId":"e_4","part":"s11v1","offsets":[{"start":2288,"text":"Cape Bird"}],"coordinates":[],"confidence":{"state":"pre-added","who":["ml:dpeker"],"prob":0.9163},"fields":{},"normalizations":{"n_34":{"source":{"name":"GeoNamesSCAR","id":"122545","url":null},"recName":"Bird, Cape","confidence":{"state":"pre-added","who":["ml:dpeker"],"prob":0.9163}}}},{"classId":"e_41","part":"s12v1","offsets":[{"start":349,"text":"Nostoc\n\ncommune("}],"coordinates":[],"confidence":{"state":"pre-added","who":["ml:dpeker"],"prob":0.7942},"fields":{},"normalizations":{"n_55":{"source":{"name":"CyanobacteriaNames","id":"nocomm","url":null},"recName":"Nostoc commune","confidence":{"state":"pre-added","who":["ml:dpeker"],"prob":0.7942}}}},{"classId":"e_40","part":"s12v1","offsets":[{"start":489,"text":"Ulothrix spp"}],"coordinates":[],"confidence":{"state":"pre-added","who":["ml:dpeker"],"prob":0.8945},"fields":{},"normalizations":{"n_75":{"source":{"name":"AlgaeNames","id":"ulotsp","url":null},"recName":"Ulothrix sp.","confidence":{"state":"pre-added","who":["ml:dpeker"],"prob":0.8945}}}},{"classId":"e_40","part":"s12v1","offsets":[{"start":980,"text":"Binuclearia tectorum"}],"coordinates":[],"confidence":{"state":"pre-added","who":["ml:dpeker"],"prob":0.9692},"fields":{},"normalizations":{"n_75":{"source":{"name":"AlgaeNames","id":"bitect","url":null},"recName":"Binuclearia tectorum","confidence":{"state":"pre-added","who":["ml:dpeker"],"prob":0.9692}}}},{"classId":"e_40","part":"s12v1","offsets":[{"start":1002,"text":"Prasiola calophyllu"}],"coordinates":[{"x":"221.25","y":"358.64"},{"x":"77.95","y":"378.50"}],"confidence":{"state":"pre-added","who":["user:ICTAR"],"prob":1},"fields":{},"normalizations":{"n_75":{"source":{"name":"AlgaeNames","id":"prcalo","url":null},"recName":"","confidence":{"state":"pre-added","who":["user:ICTAR"],"prob":1}}}},{"classId":"e_40","part":"s12v1","offsets":[{"start":1026,"text":"Tribonema elegans"}],"coordinates":[],"confidence":{"state":"pre-added","who":["ml:dpeker"],"prob":0.9622},"fields":{},"normalizations":{"n_75":{"source":{"name":"AlgaeNames","id":"treleg","url":null},"recName":"Tribonema elegans","confidence":{"state":"pre-added","who":["ml:dpeker"],"prob":0.9622}}}},{"classId":"e_4","part":"s12v1","offsets":[{"start":1079,"text":"Ross Island"}],"coordinates":[],"confidence":{"state":"pre-added","who":["ml:dpeker"],"prob":0.9349},"fields":{},"normalizations":{"n_34":{"source":{"name":"GeoNamesSCAR","id":"130958","url":null},"recName":"Ross Island","confidence":{"state":"pre-added","who":["ml:dpeker"],"prob":0.9349}}}},{"classId":"e_41","part":"s12v1","offsets":[{"start":1157,"text":"Gloeocupsa"}],"coordinates":[{"x":"53.25","y":"410.39"},{"x":"98.28","y":"416.75"}],"confidence":{"state":"pre-added","who":["user:ICTAR"],"prob":1},"fields":{},"normalizations":{"n_55":{"source":{"name":"CyanobacteriaNames","id":"gloesp","url":null},"recName":"","confidence":{"state":"pre-added","who":["user:ICTAR"],"prob":1}}}},{"classId":"e_41","part":"s12v1","offsets":[{"start":1172,"text":"Nostoc"}],"coordinates":[],"confidence":{"state":"pre-added","who":["ml:dpeker"],"prob":0.8617},"fields":{},"normalizations":{"n_55":{"source":{"name":"CyanobacteriaNames","id":"nostsp","url":null},"recName":"Nostoc","confidence":{"state":"pre-added","who":["ml:dpeker"],"prob":0.8617}}}},{"classId":"e_4","part":"s12v1","offsets":[{"start":1243,"text":"C. Bird"}],"coordinates":[{"x":"245.24","y":"422.23"},{"x":"58.36","y":"443.00"}],"confidence":{"state":"pre-added","who":["user:ICTAR"],"prob":1},"fields":{},"normalizations":{"n_34":{"source":{"name":"GeoNamesSCAR","id":"122545","url":null},"recName":"","confidence":{"state":"pre-added","who":["user:ICTAR"],"prob":1}}}},{"classId":"e_4","part":"s12v1","offsets":[{"start":2246,"text":"CapeBird"}],"coordinates":[],"confidence":{"state":"pre-added","who":["ml:dpeker"],"prob":0.7024},"fields":{},"normalizations":{"n_34":{"source":{"name":"GeoNamesSCAR","id":"122545","url":null},"recName":"Bird, Cape","confidence":{"state":"pre-added","who":["ml:dpeker"],"prob":0.7024}}}},{"classId":"e_41","part":"s12v1","offsets":[{"start":2309,"text":"Oscillatoriacea"}],"coordinates":[{"x":"281.25","y":"164.98"},{"x":"350.92","y":"172.25"}],"confidence":{"state":"pre-added","who":["user:ICTAR"],"prob":1},"fields":{},"normalizations":{"n_55":{"source":{"name":"CyanobacteriaNames","id":"oscifa","url":null},"recName":"","confidence":{"state":"pre-added","who":["user:ICTAR"],"prob":1}}}},{"classId":"e_40","part":"s12v1","offsets":[{"start":2329,"text":"Ulothrix sp"}],"coordinates":[],"confidence":{"state":"pre-added","who":["ml:dpeker"],"prob":0.8842},"fields":{},"normalizations":{"n_75":{"source":{"name":"AlgaeNames","id":"ulotsp","url":null},"recName":"Ulothrix sp.","confidence":{"state":"pre-added","who":["ml:dpeker"],"prob":0.8842}}}},{"classId":"e_41","part":"s12v1","offsets":[{"start":2381,"text":"Gloeocapsa spp"}],"coordinates":[],"confidence":{"state":"pre-added","who":["ml:dpeker"],"prob":0.9106},"fields":{},"normalizations":{"n_55":{"source":{"name":"CyanobacteriaNames","id":"gloesp","url":null},"recName":"Gloeocapsa sp.","confidence":{"state":"pre-added","who":["ml:dpeker"],"prob":0.9106}}}},{"classId":"e_41","part":"s12v1","offsets":[{"start":2397,"text":"Nostoc\n\nsp."}],"coordinates":[],"confidence":{"state":"pre-added","who":["ml:dpeker"],"prob":0.7582},"fields":{},"normalizations":{"n_55":{"source":{"name":"CyanobacteriaNames","id":"nostsp","url":null},"recName":"Nostoc","confidence":{"state":"pre-added","who":["ml:dpeker"],"prob":0.7582}}}},{"classId":"e_41","part":"s12v1","offsets":[{"start":2413,"text":"Scytonema sp"}],"coordinates":[{"x":"320.25","y":"191.39"},{"x":"382.98","y":"197.75"}],"confidence":{"state":"pre-added","who":["user:ICTAR"],"prob":1},"fields":{},"normalizations":{"n_55":{"source":{"name":"CyanobacteriaNames","id":"scytsp","url":null},"recName":"","confidence":{"state":"pre-added","who":["user:ICTAR"],"prob":1}}}},{"classId":"e_47","part":"s12v1","offsets":[{"start":2731,"text":"Both green and blue-greengrowths occurred below thin flakesof rock, the former dominatedby cf. Cocco-\n\nbotrys sp. andPrusiococcus calcarius and the latter by Chroococcidiopsis sp."}],"coordinates":[{"x":"447.75","y":"281.23"},{"x":"387.53","y":"339.50"}],"confidence":{"state":"pre-added","who":["user:ICTAR"],"prob":1},"fields":{},"normalizations":{}},{"classId":"e_47","part":"s12v1","offsets":[{"start":2911,"text":"Sublithic (hypolithic) algaeforming crusts on the undersurfacesof translucent stoneslying on the soil were infrequent at C. Bird and absent from C. Royds and Crozier. Six quartz stones supportedgreenand blue-greencrusts. Chroococ- cidiopsis sp., Phormidium sp. and Coccobotrys sp. weredominant."}],"coordinates":[{"x":"291.75","y":"345.73"},{"x":"350.81","y":"430.25"}],"confidence":{"state":"pre-added","who":["user:ICTAR"],"prob":1},"fields":{},"normalizations":{}},{"classId":"e_41","part":"s12v1","offsets":[{"start":3157,"text":"Phormidium sp"}],"coordinates":[],"confidence":{"state":"pre-added","who":["ml:dpeker"],"prob":0.9032},"fields":{},"normalizations":{"n_55":{"source":{"name":"CyanobacteriaNames","id":"phorsp","url":null},"recName":"Phormidium sp.","confidence":{"state":"pre-added","who":["ml:dpeker"],"prob":0.9032}}}},{"classId":"e_40","part":"s12v1","offsets":[{"start":3176,"text":"Coccobotrys sp"}],"coordinates":[{"x":"429.75","y":"411.14"},{"x":"494.73","y":"417.50"}],"confidence":{"state":"pre-added","who":["user:ICTAR"],"prob":1},"fields":{},"normalizations":{"n_75":{"source":{"name":"AlgaeNames","id":"coccsp","url":null},"recName":"","confidence":{"state":"pre-added","who":["user:ICTAR"],"prob":1}}}},{"classId":"e_47","part":"s12v1","offsets":[{"start":3232,"text":",lithic algaewere rare due to lack of suitable substrata. Epilithic communitieswerelimited by the generalabsence of irrigated rock surfaces"}],"coordinates":[{"x":"423.67","y":"435.73"},{"x":"405.45","y":"481.25"}],"confidence":{"state":"pre-added","who":["user:ICTAR"],"prob":1},"fields":{},"normalizations":{}},{"classId":"e_41","part":"s12v1","offsets":[{"start":3489,"text":"Gloeocapsa spp"}],"coordinates":[],"confidence":{"state":"pre-added","who":["ml:dpeker"],"prob":0.9106},"fields":{},"normalizations":{"n_55":{"source":{"name":"CyanobacteriaNames","id":"gloesp","url":null},"recName":"Gloeocapsa sp.","confidence":{"state":"pre-added","who":["ml:dpeker"],"prob":0.9106}}}},{"classId":"e_40","part":"s12v1","offsets":[{"start":3650,"text":"Ulothrix sp"}],"coordinates":[],"confidence":{"state":"pre-added","who":["ml:dpeker"],"prob":0.8842},"fields":{},"normalizations":{"n_75":{"source":{"name":"AlgaeNames","id":"ulotsp","url":null},"recName":"Ulothrix sp.","confidence":{"state":"pre-added","who":["ml:dpeker"],"prob":0.8842}}}},{"classId":"e_4","part":"s12v1","offsets":[{"start":3739,"text":"Ross Island"}],"coordinates":[],"confidence":{"state":"pre-added","who":["ml:dpeker"],"prob":0.9349},"fields":{},"normalizations":{"n_34":{"source":{"name":"GeoNamesSCAR","id":"130958","url":null},"recName":"Ross Island","confidence":{"state":"pre-added","who":["ml:dpeker"],"prob":0.9349}}}},{"classId":"e_47","part":"s13v1","offsets":[{"start":737,"text":"Oscillatoriaceanfelts and macroscopic colonies of Nostoc commune(Fig. 24) weremost abundant on poorly drained lithosols downslope from melting snowdrifts"}],"coordinates":[{"x":"39.00","y":"332.73"},{"x":"122.00","y":"379.00"}],"confidence":{"state":"pre-added","who":["user:ICTAR"],"prob":1},"fields":{},"normalizations":{}},{"classId":"e_41","part":"s13v1","offsets":[{"start":787,"text":"Nostoc commune"}],"coordinates":[],"confidence":{"state":"pre-added","who":["ml:dpeker"],"prob":0.9518},"fields":{},"normalizations":{"n_55":{"source":{"name":"CyanobacteriaNames","id":"nocomm","url":null},"recName":"Nostoc commune","confidence":{"state":"pre-added","who":["ml:dpeker"],"prob":0.9518}}}},{"classId":"e_4","part":"s13v1","offsets":[{"start":1048,"text":"the terraced moraines"}],"coordinates":[],"confidence":{"state":"pre-added","who":["ml:dpeker"],"prob":0.9016},"fields":{},"normalizations":{"n_34":{"source":{"name":"GeoNamesSCAR","id":"114532","url":null},"recName":"Terraced Moraines, The","confidence":{"state":"pre-added","who":["ml:dpeker"],"prob":0.9016}}}},{"classId":"e_47","part":"s13v1","offsets":[{"start":1260,"text":"Similar to the ponds (Fig. 15),Nostoc was al- most absent from salineareaswhereasoscilla- toriacean felts were present. This was most apparentat C. Bird where all but one record of N. communewas in the northern half. Oscillatoriaceae and N. commune are well-\n\nknown throughout the Antarctic Region on irri- gated soils."}],"coordinates":[{"x":"293.25","y":"113.73"},{"x":"335.11","y":"211.00"}],"confidence":{"state":"pre-added","who":["user:ICTAR"],"prob":1},"fields":{},"normalizations":{}},{"classId":"e_41","part":"s13v1","offsets":[{"start":1291,"text":"Nostoc"}],"coordinates":[],"confidence":{"state":"pre-added","who":["ml:dpeker"],"prob":0.8617},"fields":{},"normalizations":{"n_55":{"source":{"name":"CyanobacteriaNames","id":"nostsp","url":null},"recName":"Nostoc","confidence":{"state":"pre-added","who":["ml:dpeker"],"prob":0.8617}}}},{"classId":"e_41","part":"s13v1","offsets":[{"start":1477,"text":"Oscillatoriaceae"}],"coordinates":[],"confidence":{"state":"pre-added","who":["ml:dpeker"],"prob":0.9592},"fields":{},"normalizations":{"n_55":{"source":{"name":"CyanobacteriaNames","id":"oscifa","url":null},"recName":"Oscillatoriaceae","confidence":{"state":"pre-added","who":["ml:dpeker"],"prob":0.9592}}}},{"classId":"e_41","part":"s13v1","offsets":[{"start":1498,"text":"N. commune"}],"coordinates":[],"confidence":{"state":"pre-added","who":["ml:dpeker"],"prob":0.9266},"fields":{},"normalizations":{"n_55":{"source":{"name":"CyanobacteriaNames","id":"nocomm","url":null},"recName":"Nostoc commune","confidence":{"state":"pre-added","who":["ml:dpeker"],"prob":0.9266}}}},{"classId":"e_41","part":"s13v1","offsets":[{"start":1591,"text":"N. commune"}],"coordinates":[],"confidence":{"state":"pre-added","who":["ml:dpeker"],"prob":0.9266},"fields":{},"normalizations":{"n_55":{"source":{"name":"CyanobacteriaNames","id":"nocomm","url":null},"recName":"Nostoc commune","confidence":{"state":"pre-added","who":["ml:dpeker"],"prob":0.9266}}}},{"classId":"e_4","part":"s13v1","offsets":[{"start":1629,"text":"RossIsland"}],"coordinates":[],"confidence":{"state":"pre-added","who":["ml:dpeker"],"prob":0.7582},"fields":{},"normalizations":{"n_34":{"source":{"name":"GeoNamesSCAR","id":"130958","url":null},"recName":"Ross Island","confidence":{"state":"pre-added","who":["ml:dpeker"],"prob":0.7582}}}},{"classId":"e_47","part":"s13v1","offsets":[{"start":2090,"text":"Green foliose thalli of the nitrophilous P. crispa were common on water-saturatedground in the vicinity of bird colonies.In contrast,P. calophylla was intolerant of suchhigh nutrient and salt levelsandwas also excluded from areas receiving windblown sea- spray."}],"coordinates":[{"x":"437.25","y":"358.98"},{"x":"311.00","y":"443.50"}],"confidence":{"state":"pre-added","who":["user:ICTAR"],"prob":1},"fields":{},"normalizations":{}},{"classId":"e_40","part":"s13v1","offsets":[{"start":2131,"text":"P. crispa"}],"coordinates":[],"confidence":{"state":"pre-added","who":["ml:dpeker"],"prob":0.9163},"fields":{},"normalizations":{"n_75":{"source":{"name":"AlgaeNames","id":"prcris","url":null},"recName":"Prasiola crispa","confidence":{"state":"pre-added","who":["ml:dpeker"],"prob":0.9163}}}},{"classId":"e_41","part":"s13v1","offsets":[{"start":2457,"text":"Nostoc commune"}],"coordinates":[],"confidence":{"state":"pre-added","who":["ml:dpeker"],"prob":0.9518},"fields":{},"normalizations":{"n_55":{"source":{"name":"CyanobacteriaNames","id":"nocomm","url":null},"recName":"Nostoc commune","confidence":{"state":"pre-added","who":["ml:dpeker"],"prob":0.9518}}}},{"classId":"e_4","part":"s13v1","offsets":[{"start":2496,"text":"Cape Bird"}],"coordinates":[],"confidence":{"state":"pre-added","who":["ml:dpeker"],"prob":0.9163},"fields":{},"normalizations":{"n_34":{"source":{"name":"GeoNamesSCAR","id":"122545","url":null},"recName":"Bird, Cape","confidence":{"state":"pre-added","who":["ml:dpeker"],"prob":0.9163}}}},{"classId":"e_4","part":"s13v1","offsets":[{"start":2510,"text":"C. Royds"}],"coordinates":[{"x":"246.76","y":"637.55"},{"x":"58.30","y":"653.50"}],"confidence":{"state":"pre-added","who":["user:ICTAR"],"prob":1},"fields":{},"normalizations":{"n_34":{"source":{"name":"GeoNamesSCAR","id":"131005","url":null},"recName":"","confidence":{"state":"pre-added","who":["user:ICTAR"],"prob":1}}}},{"classId":"e_4","part":"s13v1","offsets":[{"start":2526,"text":"C. Crozier"}],"coordinates":[{"x":"91.50","y":"648.05"},{"x":"124.62","y":"653.50"}],"confidence":{"state":"pre-added","who":["user:ICTAR"],"prob":1},"fields":{},"normalizations":{"n_34":{"source":{"name":"GeoNamesSCAR","id":"123976","url":null},"recName":"","confidence":{"state":"pre-added","who":["user:ICTAR"],"prob":1}}}},{"classId":"e_41","part":"s13v1","offsets":[{"start":2597,"text":"Oscillatoriaceae"}],"coordinates":[],"confidence":{"state":"pre-added","who":["ml:dpeker"],"prob":0.9592},"fields":{},"normalizations":{"n_55":{"source":{"name":"CyanobacteriaNames","id":"oscifa","url":null},"recName":"Oscillatoriaceae","confidence":{"state":"pre-added","who":["ml:dpeker"],"prob":0.9592}}}},{"classId":"e_41","part":"s13v1","offsets":[{"start":2617,"text":"N. commune"}],"coordinates":[],"confidence":{"state":"pre-added","who":["ml:dpeker"],"prob":0.9266},"fields":{},"normalizations":{"n_55":{"source":{"name":"CyanobacteriaNames","id":"nocomm","url":null},"recName":"Nostoc commune","confidence":{"state":"pre-added","who":["ml:dpeker"],"prob":0.9266}}}},{"classId":"e_4","part":"s13v1","offsets":[{"start":2723,"text":"Cape Bird"}],"coordinates":[],"confidence":{"state":"pre-added","who":["ml:dpeker"],"prob":0.9163},"fields":{},"normalizations":{"n_34":{"source":{"name":"GeoNamesSCAR","id":"122545","url":null},"recName":"Bird, Cape","confidence":{"state":"pre-added","who":["ml:dpeker"],"prob":0.9163}}}},{"classId":"e_4","part":"s13v1","offsets":[{"start":2737,"text":"C. Royds"}],"coordinates":[{"x":"423.01","y":"648.05"},{"x":"455.06","y":"653.50"}],"confidence":{"state":"pre-added","who":["user:ICTAR"],"prob":1},"fields":{},"normalizations":{"n_34":{"source":{"name":"GeoNamesSCAR","id":"131005","url":null},"recName":"","confidence":{"state":"pre-added","who":["user:ICTAR"],"prob":1}}}},{"classId":"e_4","part":"s13v1","offsets":[{"start":2753,"text":"C. Crozier."}],"coordinates":[{"x":"491.26","y":"648.05"},{"x":"307.38","y":"664.00"}],"confidence":{"state":"pre-added","who":["user:ICTAR"],"prob":1},"fields":{},"normalizations":{"n_34":{"source":{"name":"GeoNamesSCAR","id":"123976","url":null},"recName":"","confidence":{"state":"pre-added","who":["user:ICTAR"],"prob":1}}}},{"classId":"e_40","part":"s13v1","offsets":[{"start":2824,"text":"P. crispa"}],"coordinates":[],"confidence":{"state":"pre-added","who":["ml:dpeker"],"prob":0.9163},"fields":{},"normalizations":{"n_75":{"source":{"name":"AlgaeNames","id":"prcris","url":null},"recName":"Prasiola crispa","confidence":{"state":"pre-added","who":["ml:dpeker"],"prob":0.9163}}}},{"classId":"e_40","part":"s13v1","offsets":[{"start":2837,"text":"P. calophylla"}],"coordinates":[],"confidence":{"state":"pre-added","who":["ml:dpeker"],"prob":0.9472},"fields":{},"normalizations":{"n_75":{"source":{"name":"AlgaeNames","id":"prcalo","url":null},"recName":"Prasiola calophylla","confidence":{"state":"pre-added","who":["ml:dpeker"],"prob":0.9472}}}},{"classId":"e_40","part":"s14v1","offsets":[{"start":108,"text":"P. calophylla"}],"coordinates":[],"confidence":{"state":"pre-added","who":["ml:dpeker"],"prob":0.9472},"fields":{},"normalizations":{"n_75":{"source":{"name":"AlgaeNames","id":"prcalo","url":null},"recName":"Prasiola calophylla","confidence":{"state":"pre-added","who":["ml:dpeker"],"prob":0.9472}}}},{"classId":"e_40","part":"s14v1","offsets":[{"start":520,"text":"P. crispa"}],"coordinates":[],"confidence":{"state":"pre-added","who":["ml:dpeker"],"prob":0.9163},"fields":{},"normalizations":{"n_75":{"source":{"name":"AlgaeNames","id":"prcris","url":null},"recName":"Prasiola crispa","confidence":{"state":"pre-added","who":["ml:dpeker"],"prob":0.9163}}}},{"classId":"e_4","part":"s14v1","offsets":[{"start":733,"text":"Ross Is"}],"coordinates":[{"x":"164.25","y":"280.23"},{"x":"202.34","y":"287.50"}],"confidence":{"state":"pre-added","who":["user:ICTAR"],"prob":1},"fields":{},"normalizations":{"n_34":{"source":{"name":"GeoNamesSCAR","id":"130958","url":null},"recName":"","confidence":{"state":"pre-added","who":["user:ICTAR"],"prob":1}}}},{"classId":"e_40","part":"s14v1","offsets":[{"start":1919,"text":"Prasiola crispa"}],"coordinates":[],"confidence":{"state":"pre-added","who":["ml:dpeker"],"prob":0.9558},"fields":{},"normalizations":{"n_75":{"source":{"name":"AlgaeNames","id":"prcris","url":null},"recName":"Prasiola crispa","confidence":{"state":"pre-added","who":["ml:dpeker"],"prob":0.9558}}}},{"classId":"e_40","part":"s14v1","offsets":[{"start":1939,"text":"P. calophylla"}],"coordinates":[],"confidence":{"state":"pre-added","who":["ml:dpeker"],"prob":0.9472},"fields":{},"normalizations":{"n_75":{"source":{"name":"AlgaeNames","id":"prcalo","url":null},"recName":"Prasiola calophylla","confidence":{"state":"pre-added","who":["ml:dpeker"],"prob":0.9472}}}},{"classId":"e_4","part":"s14v1","offsets":[{"start":2139,"text":"Cape Bird"}],"coordinates":[],"confidence":{"state":"pre-added","who":["ml:dpeker"],"prob":0.9163},"fields":{},"normalizations":{"n_34":{"source":{"name":"GeoNamesSCAR","id":"122545","url":null},"recName":"Bird, Cape","confidence":{"state":"pre-added","who":["ml:dpeker"],"prob":0.9163}}}},{"classId":"e_47","part":"s14v1","offsets":[{"start":2349,"text":".At C. Bird greencrusts were infrequent, and only on small areas of moist, mineral fines close to penguincolonies, but not where large quantitiesof guanowere deposited"}],"coordinates":[{"x":"361.40","y":"292.98"},{"x":"499.17","y":"338.50"}],"confidence":{"state":"pre-added","who":["user:ICTAR"],"prob":1},"fields":{},"normalizations":{}},{"classId":"e_40","part":"s14v1","offsets":[{"start":3128,"text":"P. crispa"}],"coordinates":[],"confidence":{"state":"pre-added","who":["ml:dpeker"],"prob":0.9163},"fields":{},"normalizations":{"n_75":{"source":{"name":"AlgaeNames","id":"prcris","url":null},"recName":"Prasiola crispa","confidence":{"state":"pre-added","who":["ml:dpeker"],"prob":0.9163}}}},{"classId":"e_7","part":"s14v1","offsets":[{"start":3495,"text":"Biutorella cerebnfinnis"}],"coordinates":[{"x":"396.75","y":"665.89"},{"x":"486.67","y":"672.25"}],"confidence":{"state":"pre-added","who":["user:ICTAR"],"prob":1},"fields":{},"normalizations":{"n_31":{"source":{"name":"LichenNames","id":"plchlo","url":null},"recName":"","confidence":{"state":"pre-added","who":["user:ICTAR"],"prob":1}}}},{"classId":"e_4","part":"s15v1","offsets":[{"start":49,"text":"Cape Bird"}],"coordinates":[],"confidence":{"state":"pre-added","who":["ml:dpeker"],"prob":0.9163},"fields":{},"normalizations":{"n_34":{"source":{"name":"GeoNamesSCAR","id":"122545","url":null},"recName":"Bird, Cape","confidence":{"state":"pre-added","who":["ml:dpeker"],"prob":0.9163}}}},{"classId":"e_4","part":"s15v1","offsets":[{"start":63,"text":"C. Royds"}],"coordinates":[{"x":"225.76","y":"225.80"},{"x":"255.56","y":"231.25"}],"confidence":{"state":"pre-added","who":["user:ICTAR"],"prob":1},"fields":{},"normalizations":{"n_34":{"source":{"name":"GeoNamesSCAR","id":"131005","url":null},"recName":"","confidence":{"state":"pre-added","who":["user:ICTAR"],"prob":1}}}},{"classId":"e_4","part":"s15v1","offsets":[{"start":79,"text":"C. Crozier"}],"coordinates":[{"x":"66.75","y":"237.05"},{"x":"99.12","y":"242.50"}],"confidence":{"state":"pre-added","who":["user:ICTAR"],"prob":1},"fields":{},"normalizations":{"n_34":{"source":{"name":"GeoNamesSCAR","id":"123976","url":null},"recName":"","confidence":{"state":"pre-added","who":["user:ICTAR"],"prob":1}}}},{"classId":"e_7","part":"s15v1","offsets":[{"start":171,"text":"Usnea antarctica"}],"coordinates":[],"confidence":{"state":"pre-added","who":["ml:dpeker"],"prob":0.9592},"fields":{},"normalizations":{"n_31":{"source":{"name":"LichenNames","id":"usanta","url":null},"recName":"Usnea antarctica","confidence":{"state":"pre-added","who":["ml:dpeker"],"prob":0.9592}}}},{"classId":"e_7","part":"s15v1","offsets":[{"start":212,"text":"Umbilicaria aprina"}],"coordinates":[],"confidence":{"state":"pre-added","who":["ml:dpeker"],"prob":0.9648},"fields":{},"normalizations":{"n_31":{"source":{"name":"LichenNames","id":"umapri","url":null},"recName":"Umbilicaria aprina","confidence":{"state":"pre-added","who":["ml:dpeker"],"prob":0.9648}}}},{"classId":"e_7","part":"s15v1","offsets":[{"start":302,"text":"Candelariella antarctica"}],"coordinates":[{"x":"41.25","y":"308.14"},{"x":"139.50","y":"314.50"}],"confidence":{"state":"pre-added","who":["user:ICTAR"],"prob":1},"fields":{},"normalizations":{"n_31":{"source":{"name":"LichenNames","id":"caanta","url":null},"recName":"","confidence":{"state":"pre-added","who":["user:ICTAR"],"prob":1}}}},{"classId":"e_7","part":"s15v1","offsets":[{"start":341,"text":"Buellia"}],"coordinates":[{"x":"225.00","y":"308.14"},{"x":"250.97","y":"314.50"}],"confidence":{"state":"pre-added","who":["user:ICTAR"],"prob":1},"fields":{},"normalizations":{"n_31":{"source":{"name":"LichenNames","id":"buelsp","url":null},"recName":"","confidence":{"state":"pre-added","who":["user:ICTAR"],"prob":1}}}},{"classId":"e_7","part":"s15v1","offsets":[{"start":350,"text":"Caloplaca"}],"coordinates":[{"x":"41.25","y":"320.89"},{"x":"78.71","y":"327.25"}],"confidence":{"state":"pre-added","who":["user:ICTAR"],"prob":1},"fields":{},"normalizations":{"n_31":{"source":{"name":"LichenNames","id":"calosp","url":null},"recName":"","confidence":{"state":"pre-added","who":["user:ICTAR"],"prob":1}}}},{"classId":"e_7","part":"s15v1","offsets":[{"start":361,"text":"Candelaria"}],"coordinates":[{"x":"91.50","y":"320.89"},{"x":"132.01","y":"327.25"}],"confidence":{"state":"pre-added","who":["user:ICTAR"],"prob":1},"fields":{},"normalizations":{"n_31":{"source":{"name":"LichenNames","id":"candsp","url":null},"recName":"","confidence":{"state":"pre-added","who":["user:ICTAR"],"prob":1}}}},{"classId":"e_7","part":"s15v1","offsets":[{"start":373,"text":"Lecanora"}],"coordinates":[{"x":"145.50","y":"320.89"},{"x":"180.11","y":"327.25"}],"confidence":{"state":"pre-added","who":["user:ICTAR"],"prob":1},"fields":{},"normalizations":{"n_31":{"source":{"name":"LichenNames","id":"lecasp","url":null},"recName":"","confidence":{"state":"pre-added","who":["user:ICTAR"],"prob":1}}}},{"classId":"e_7","part":"s15v1","offsets":[{"start":386,"text":"Xanthoria"}],"coordinates":[{"x":"212.25","y":"320.89"},{"x":"248.23","y":"327.25"}],"confidence":{"state":"pre-added","who":["user:ICTAR"],"prob":1},"fields":{},"normalizations":{"n_31":{"source":{"name":"LichenNames","id":"xantsp","url":null},"recName":"","confidence":{"state":"pre-added","who":["user:ICTAR"],"prob":1}}}},{"classId":"e_7","part":"s15v1","offsets":[{"start":433,"text":"Umbilicaria aprina"}],"coordinates":[],"confidence":{"state":"pre-added","who":["ml:dpeker"],"prob":0.9648},"fields":{},"normalizations":{"n_31":{"source":{"name":"LichenNames","id":"umapri","url":null},"recName":"Umbilicaria aprina","confidence":{"state":"pre-added","who":["ml:dpeker"],"prob":0.9648}}}},{"classId":"e_7","part":"s15v1","offsets":[{"start":469,"text":"Usnea antarctica"}],"coordinates":[],"confidence":{"state":"pre-added","who":["ml:dpeker"],"prob":0.9592},"fields":{},"normalizations":{"n_31":{"source":{"name":"LichenNames","id":"usanta","url":null},"recName":"Usnea antarctica","confidence":{"state":"pre-added","who":["ml:dpeker"],"prob":0.9592}}}},{"classId":"e_47","part":"s15v1","offsets":[{"start":488,"text":"At C. Bird, lichenswere extremelyrare, being restrictedto sparsegrowthsof crustoseCaloplaca darbishirei. This is possibly a response to the generallyhigh levelsof salt thought to occur over the region as a whole, even in the relatively pro- tectednorthernhalf"}],"coordinates":[{"x":"51.75","y":"358.98"},{"x":"128.77","y":"431.50"}],"confidence":{"state":"pre-added","who":["user:ICTAR"],"prob":1},"fields":{},"normalizations":{}},{"classId":"e_4","part":"s15v1","offsets":[{"start":491,"text":"C. Bird"}],"coordinates":[{"x":"66.00","y":"358.98"},{"x":"98.85","y":"366.25"}],"confidence":{"state":"pre-added","who":["user:ICTAR"],"prob":1},"fields":{},"normalizations":{"n_34":{"source":{"name":"GeoNamesSCAR","id":"122545","url":null},"recName":"","confidence":{"state":"pre-added","who":["user:ICTAR"],"prob":1}}}},{"classId":"e_7","part":"s15v1","offsets":[{"start":570,"text":"Caloplaca darbishirei"}],"coordinates":[{"x":"216.00","y":"372.64"},{"x":"80.81","y":"392.50"}],"confidence":{"state":"pre-added","who":["user:ICTAR"],"prob":1},"fields":{},"normalizations":{"n_31":{"source":{"name":"LichenNames","id":"cadarb","url":null},"recName":"","confidence":{"state":"pre-added","who":["user:ICTAR"],"prob":1}}}},{"classId":"e_47","part":"s15v1","offsets":[{"start":923,"text":"theseregionsgreatestabundancewas at low altitudesclose to the coast wherenutrient input from skuasoccurred.Similarly at C. Crozier maximum abundancewas around the periphery of the penguinrookery, especiallywherenesting skauswerecommon. Theywereabsentwithin the rookery where salt levels and mechanical dis- turbancewere high. At higher altitudes, in both regions,most occurrenceswereof small, sparsely scatteredBuellia and Caloplaca. A contrasting distribution was clearly seenwith the folioseand fruticose species"}],"coordinates":[{"x":"92.25","y":"475.23"},{"x":"119.77","y":"624.25"}],"confidence":{"state":"pre-added","who":["user:ICTAR"],"prob":1},"fields":{},"normalizations":{}},{"classId":"e_7","part":"s15v1","offsets":[{"start":1440,"text":"Usnea antarctica"}],"coordinates":[],"confidence":{"state":"pre-added","who":["ml:dpeker"],"prob":0.9592},"fields":{},"normalizations":{"n_31":{"source":{"name":"LichenNames","id":"usanta","url":null},"recName":"Usnea antarctica","confidence":{"state":"pre-added","who":["ml:dpeker"],"prob":0.9592}}}},{"classId":"e_7","part":"s15v1","offsets":[{"start":1461,"text":"Umbilicaria aprina"}],"coordinates":[],"confidence":{"state":"pre-added","who":["ml:dpeker"],"prob":0.9648},"fields":{},"normalizations":{"n_31":{"source":{"name":"LichenNames","id":"umapri","url":null},"recName":"Umbilicaria aprina","confidence":{"state":"pre-added","who":["ml:dpeker"],"prob":0.9648}}}},{"classId":"e_4","part":"s15v1","offsets":[{"start":1511,"text":"C. Royds"}],"coordinates":[{"x":"162.00","y":"641.73"},{"x":"204.53","y":"649.00"}],"confidence":{"state":"pre-added","who":["user:ICTAR"],"prob":1},"fields":{},"normalizations":{"n_34":{"source":{"name":"GeoNamesSCAR","id":"131005","url":null},"recName":"","confidence":{"state":"pre-added","who":["user:ICTAR"],"prob":1}}}},{"classId":"e_4","part":"s15v1","offsets":[{"start":1524,"text":"Crozier"}],"coordinates":[{"x":"225.75","y":"641.73"},{"x":"260.01","y":"649.00"}],"confidence":{"state":"pre-added","who":["user:ICTAR"],"prob":1},"fields":{},"normalizations":{"n_34":{"source":{"name":"GeoNamesSCAR","id":"123976","url":null},"recName":"","confidence":{"state":"pre-added","who":["user:ICTAR"],"prob":1}}}},{"classId":"e_47","part":"s15v1","offsets":[{"start":1759,"text":"At C. Crozier U. antarctica was found in a southeastern zone stretchingfrom the coastal cliffs to a maxi- mum altitudeof about 300m. U. aprina wasmore restrictedandoccurredin the southernmostpart of the Usnea rangeexceptfor one isolatedrecord to the north. Thesetwo speciesappearedto be restricted to areasof minimum salt levels and nutrient input, although northern occurrences at C. Royds occurredin thevicinity of nestingskuas."}],"coordinates":[{"x":"475.49","y":"100.98"},{"x":"460.27","y":"237.25"}],"confidence":{"state":"pre-added","who":["user:ICTAR"],"prob":1},"fields":{},"normalizations":{}},{"classId":"e_4","part":"s15v1","offsets":[{"start":1762,"text":"C. Crozier"}],"coordinates":[{"x":"490.48","y":"100.98"},{"x":"318.50","y":"121.00"}],"confidence":{"state":"pre-added","who":["user:ICTAR"],"prob":1},"fields":{},"normalizations":{"n_34":{"source":{"name":"GeoNamesSCAR","id":"123976","url":null},"recName":"","confidence":{"state":"pre-added","who":["user:ICTAR"],"prob":1}}}},{"classId":"e_7","part":"s15v1","offsets":[{"start":1773,"text":"U. antarctica"}],"coordinates":[{"x":"320.25","y":"114.64"},{"x":"369.75","y":"121.00"}],"confidence":{"state":"pre-added","who":["user:ICTAR"],"prob":1},"fields":{},"normalizations":{"n_31":{"source":{"name":"LichenNames","id":"usanta","url":null},"recName":"","confidence":{"state":"pre-added","who":["user:ICTAR"],"prob":1}}}},{"classId":"e_7","part":"s15v1","offsets":[{"start":1892,"text":"U. aprina"}],"coordinates":[{"x":"416.25","y":"140.89"},{"x":"452.31","y":"147.25"}],"confidence":{"state":"pre-added","who":["user:ICTAR"],"prob":1},"fields":{},"normalizations":{"n_31":{"source":{"name":"LichenNames","id":"umapri","url":null},"recName":"","confidence":{"state":"pre-added","who":["user:ICTAR"],"prob":1}}}},{"classId":"e_47","part":"s15v1","offsets":[{"start":2267,"text":"that it was in theseareas that maximum accumulation of drift occurred, mostly on the downwind sides of boulders and knolls. It was in such microsites that the lichens were usually encountered."}],"coordinates":[{"x":"387.75","y":"256.23"},{"x":"416.70","y":"314.50"}],"confidence":{"state":"pre-added","who":["user:ICTAR"],"prob":1},"fields":{},"normalizations":{}},{"classId":"e_7","part":"s15v1","offsets":[{"start":3484,"text":"Usnea an- tarctica"}],"coordinates":[],"confidence":{"state":"pre-added","who":["ml:dpeker"],"prob":0.818},"fields":{},"normalizations":{"n_31":{"source":{"name":"LichenNames","id":"usanta","url":null},"recName":"Usnea antarctica","confidence":{"state":"pre-added","who":["ml:dpeker"],"prob":0.818}}}},{"classId":"e_7","part":"s16v1","offsets":[{"start":178,"text":"U. antarctica"}],"coordinates":[{"x":"200.25","y":"113.89"},{"x":"249.75","y":"120.25"}],"confidence":{"state":"pre-added","who":["user:ICTAR"],"prob":1},"fields":{},"normalizations":{"n_31":{"source":{"name":"LichenNames","id":"usanta","url":null},"recName":"","confidence":{"state":"pre-added","who":["user:ICTAR"],"prob":1}}}},{"classId":"e_4","part":"s16v1","offsets":[{"start":196,"text":"RossIs"}],"coordinates":[{"x":"50.25","y":"125.73"},{"x":"82.34","y":"133.00"}],"confidence":{"state":"pre-added","who":["user:ICTAR"],"prob":1},"fields":{},"normalizations":{"n_34":{"source":{"name":"GeoNamesSCAR","id":"130958","url":null},"recName":"","confidence":{"state":"pre-added","who":["user:ICTAR"],"prob":1}}}},{"classId":"e_1","part":"s16v1","offsets":[{"start":673,"text":"Bryum argenteum"}],"coordinates":[],"confidence":{"state":"pre-added","who":["ml:dpeker"],"prob":0.9558},"fields":{},"normalizations":{"n_32":{"source":{"name":"MossNames","id":"brarge","url":null},"recName":"Bryum argenteum","confidence":{"state":"pre-added","who":["ml:dpeker"],"prob":0.9558}}}},{"classId":"e_1","part":"s16v1","offsets":[{"start":690,"text":"B. antarcticum"}],"coordinates":[{"x":"123.00","y":"319.39"},{"x":"181.54","y":"325.75"}],"confidence":{"state":"pre-added","who":["user:ICTAR"],"prob":1},"fields":{},"normalizations":{"n_32":{"source":{"name":"MossNames","id":"branta","url":null},"recName":"","confidence":{"state":"pre-added","who":["user:ICTAR"],"prob":1}}}},{"classId":"e_1","part":"s16v1","offsets":[{"start":709,"text":"Sarconeu- rum glaciale"}],"coordinates":[],"confidence":{"state":"pre-added","who":["ml:dpeker"],"prob":0.8524},"fields":{},"normalizations":{"n_32":{"source":{"name":"MossNames","id":"sysarc","url":null},"recName":"Syntrichia sarconeurum","confidence":{"state":"pre-added","who":["ml:dpeker"],"prob":0.8524}}}},{"classId":"e_4","part":"s16v1","offsets":[{"start":753,"text":"Ross Is"}],"coordinates":[{"x":"206.24","y":"331.23"},{"x":"239.84","y":"338.50"}],"confidence":{"state":"pre-added","who":["user:ICTAR"],"prob":1},"fields":{},"normalizations":{"n_34":{"source":{"name":"GeoNamesSCAR","id":"130958","url":null},"recName":"","confidence":{"state":"pre-added","who":["user:ICTAR"],"prob":1}}}},{"classId":"e_47","part":"s16v1","offsets":[{"start":856,"text":"Similar to crustose lichens, mosses were into- lerant of high salt levelsin sea-sprayswept areas and penguinrookeries"}],"coordinates":[{"x":"40.50","y":"370.23"},{"x":"142.24","y":"403.00"}],"confidence":{"state":"pre-added","who":["user:ICTAR"],"prob":1},"fields":{},"normalizations":{}},{"classId":"e_4","part":"s16v1","offsets":[{"start":1139,"text":"Northern Rookery"}],"coordinates":[],"confidence":{"state":"pre-added","who":["ml:dpeker"],"prob":0.9592},"fields":{},"normalizations":{"n_52":{"source":{"name":"GeoNamesCustom","id":"CKL009","url":null},"recName":"Northern Rookery","confidence":{"state":"pre-added","who":["ml:dpeker"],"prob":0.9592}}}},{"classId":"e_47","part":"s16v1","offsets":[{"start":1231,"text":"Generally they wereon water-flushed substrata, particularly the relatively poorly drained mineral lines"}],"coordinates":[{"x":"88.50","y":"472.98"},{"x":"136.34","y":"506.50"}],"confidence":{"state":"pre-added","who":["user:ICTAR"],"prob":1},"fields":{},"normalizations":{}},{"classId":"e_4","part":"s16v1","offsets":[{"start":2445,"text":"Cape Bird"}],"coordinates":[],"confidence":{"state":"pre-added","who":["ml:dpeker"],"prob":0.9163},"fields":{},"normalizations":{"n_34":{"source":{"name":"GeoNamesSCAR","id":"122545","url":null},"recName":"Bird, Cape","confidence":{"state":"pre-added","who":["ml:dpeker"],"prob":0.9163}}}},{"classId":"e_4","part":"s16v1","offsets":[{"start":2591,"text":"Cape Bird"}],"coordinates":[],"confidence":{"state":"pre-added","who":["ml:dpeker"],"prob":0.9163},"fields":{},"normalizations":{"n_34":{"source":{"name":"GeoNamesSCAR","id":"122545","url":null},"recName":"Bird, Cape","confidence":{"state":"pre-added","who":["ml:dpeker"],"prob":0.9163}}}},{"classId":"e_4","part":"s17v1","offsets":[{"start":1619,"text":"Ross Island"}],"coordinates":[],"confidence":{"state":"pre-added","who":["ml:dpeker"],"prob":0.9349},"fields":{},"normalizations":{"n_34":{"source":{"name":"GeoNamesSCAR","id":"130958","url":null},"recName":"Ross Island","confidence":{"state":"pre-added","who":["ml:dpeker"],"prob":0.9349}}}},{"classId":"e_4","part":"s18v1","offsets":[{"start":1279,"text":"Taylor Valley"}],"coordinates":[],"confidence":{"state":"pre-added","who":["ml:dpeker"],"prob":0.9472},"fields":{},"normalizations":{"n_34":{"source":{"name":"GeoNamesSCAR","id":"132512","url":null},"recName":"Taylor Valley","confidence":{"state":"pre-added","who":["ml:dpeker"],"prob":0.9472}}}},{"classId":"e_4","part":"s18v1","offsets":[{"start":2680,"text":"Cape Royds"}],"coordinates":[],"confidence":{"state":"pre-added","who":["ml:dpeker"],"prob":0.9266},"fields":{},"normalizations":{"n_34":{"source":{"name":"GeoNamesSCAR","id":"131005","url":null},"recName":"Royds, Cape","confidence":{"state":"pre-added","who":["ml:dpeker"],"prob":0.9266}}}},{"classId":"e_4","part":"s18v1","offsets":[{"start":3053,"text":"Ross Island"}],"coordinates":[],"confidence":{"state":"pre-added","who":["ml:dpeker"],"prob":0.9349},"fields":{},"normalizations":{"n_34":{"source":{"name":"GeoNamesSCAR","id":"130958","url":null},"recName":"Ross Island","confidence":{"state":"pre-added","who":["ml:dpeker"],"prob":0.9349}}}},{"classId":"e_4","part":"s18v1","offsets":[{"start":4017,"text":"Alph River"}],"coordinates":[],"confidence":{"state":"pre-added","who":["ml:dpeker"],"prob":0.9266},"fields":{},"normalizations":{"n_34":{"source":{"name":"GeoNamesSCAR","id":"121733","url":null},"recName":"Alph River","confidence":{"state":"pre-added","who":["ml:dpeker"],"prob":0.9266}}}},{"classId":"e_4","part":"s18v1","offsets":[{"start":4749,"text":"McMurdo Ice Shelf"}],"coordinates":[],"confidence":{"state":"pre-added","who":["ml:dpeker"],"prob":0.9622},"fields":{},"normalizations":{"n_34":{"source":{"name":"GeoNamesSCAR","id":"128723","url":null},"recName":"McMurdo Ice Shelf","confidence":{"state":"pre-added","who":["ml:dpeker"],"prob":0.9622}}}},{"classId":"e_4","part":"s19v1","offsets":[{"start":73,"text":"McMurdo Sound"}],"coordinates":[],"confidence":{"state":"pre-added","who":["ml:dpeker"],"prob":0.9472},"fields":{},"normalizations":{"n_34":{"source":{"name":"GeoNamesSCAR","id":"128724","url":null},"recName":"McMurdo Sound","confidence":{"state":"pre-added","who":["ml:dpeker"],"prob":0.9472}}}},{"classId":"e_4","part":"s19v1","offsets":[{"start":1299,"text":"Ross Island"}],"coordinates":[],"confidence":{"state":"pre-added","who":["ml:dpeker"],"prob":0.9349},"fields":{},"normalizations":{"n_34":{"source":{"name":"GeoNamesSCAR","id":"130958","url":null},"recName":"Ross Island","confidence":{"state":"pre-added","who":["ml:dpeker"],"prob":0.9349}}}},{"classId":"e_4","part":"s19v1","offsets":[{"start":2672,"text":"Canada Glacier"}],"coordinates":[],"confidence":{"state":"pre-added","who":["ml:dpeker"],"prob":0.9518},"fields":{},"normalizations":{"n_34":{"source":{"name":"GeoNamesSCAR","id":"123257","url":null},"recName":"Canada Glacier","confidence":{"state":"pre-added","who":["ml:dpeker"],"prob":0.9518}}}},{"classId":"e_4","part":"s19v1","offsets":[{"start":2934,"text":"Ross Island"}],"coordinates":[],"confidence":{"state":"pre-added","who":["ml:dpeker"],"prob":0.9349},"fields":{},"normalizations":{"n_34":{"source":{"name":"GeoNamesSCAR","id":"130958","url":null},"recName":"Ross Island","confidence":{"state":"pre-added","who":["ml:dpeker"],"prob":0.9349}}}}],"relations":[{"classId":"r_18","type":"linked","directed":false,"entities":["s16v1|e_1|690,703","s16v1|e_4|753,759"],"confidence":{"state":"pre-added","who":["user:ICTAR"],"prob":1}},{"classId":"r_18","type":"linked","directed":false,"entities":["s16v1|e_1|709,730","s16v1|e_4|753,759"],"confidence":{"state":"pre-added","who":["user:ICTAR"],"prob":1}},{"classId":"r_18","type":"linked","directed":false,"entities":["s16v1|e_4|753,759","s16v1|e_1|673,687"],"confidence":{"state":"pre-added","who":["user:ICTAR"],"prob":1}},{"classId":"r_20","type":"linked","directed":false,"entities":["s15v1|e_4|63,70","s15v1|e_7|171,186"],"confidence":{"state":"pre-added","who":["user:ICTAR"],"prob":1}},{"classId":"r_20","type":"linked","directed":false,"entities":["s15v1|e_4|63,70","s15v1|e_7|212,229"],"confidence":{"state":"pre-added","who":["user:ICTAR"],"prob":1}},{"classId":"r_20","type":"linked","directed":false,"entities":["s15v1|e_4|79,88","s15v1|e_7|212,229"],"confidence":{"state":"pre-added","who":["user:ICTAR"],"prob":1}},{"classId":"r_20","type":"linked","directed":false,"entities":["s15v1|e_4|79,88","s15v1|e_7|171,186"],"confidence":{"state":"pre-added","who":["user:ICTAR"],"prob":1}},{"classId":"r_20","type":"linked","directed":false,"entities":["s15v1|e_7|341,347","s16v1|e_4|196,201"],"confidence":{"state":"pre-added","who":["user:ICTAR"],"prob":1}},{"classId":"r_20","type":"linked","directed":false,"entities":["s15v1|e_7|361,370","s16v1|e_4|196,201"],"confidence":{"state":"pre-added","who":["user:ICTAR"],"prob":1}},{"classId":"r_20","type":"linked","directed":false,"entities":["s15v1|e_7|386,394","s16v1|e_4|196,201"],"confidence":{"state":"pre-added","who":["user:ICTAR"],"prob":1}},{"classId":"r_20","type":"linked","directed":false,"entities":["s15v1|e_7|469,484","s16v1|e_4|196,201"],"confidence":{"state":"pre-added","who":["user:ICTAR"],"prob":1}},{"classId":"r_20","type":"linked","directed":false,"entities":["s15v1|e_7|570,590","s15v1|e_4|491,497"],"confidence":{"state":"pre-added","who":["user:ICTAR"],"prob":1}},{"classId":"r_20","type":"linked","directed":false,"entities":["s15v1|e_4|1511,1518","s15v1|e_7|1461,1478"],"confidence":{"state":"pre-added","who":["user:ICTAR"],"prob":1}},{"classId":"r_20","type":"linked","directed":false,"entities":["s15v1|e_4|1511,1518","s15v1|e_7|1440,1455"],"confidence":{"state":"pre-added","who":["user:ICTAR"],"prob":1}},{"classId":"r_20","type":"linked","directed":false,"entities":["s15v1|e_4|1524,1530","s15v1|e_7|1461,1478"],"confidence":{"state":"pre-added","who":["user:ICTAR"],"prob":1}},{"classId":"r_20","type":"linked","directed":false,"entities":["s15v1|e_4|1524,1530","s15v1|e_7|1440,1455"],"confidence":{"state":"pre-added","who":["user:ICTAR"],"prob":1}},{"classId":"r_20","type":"linked","directed":false,"entities":["s15v1|e_4|1762,1771","s15v1|e_7|1773,1785"],"confidence":{"state":"pre-added","who":["user:ICTAR"],"prob":1}},{"classId":"r_20","type":"linked","directed":false,"entities":["s16v1|e_7|178,190","s16v1|e_4|196,201"],"confidence":{"state":"pre-added","who":["user:ICTAR"],"prob":1}},{"classId":"r_20","type":"linked","directed":false,"entities":["s16v1|e_4|196,201","s14v1|e_7|3495,3517"],"confidence":{"state":"pre-added","who":["user:ICTAR"],"prob":1}},{"classId":"r_20","type":"linked","directed":false,"entities":["s16v1|e_4|196,201","s15v1|e_7|302,325"],"confidence":{"state":"pre-added","who":["user:ICTAR"],"prob":1}},{"classId":"r_20","type":"linked","directed":false,"entities":["s16v1|e_4|196,201","s15v1|e_7|350,358"],"confidence":{"state":"pre-added","who":["user:ICTAR"],"prob":1}},{"classId":"r_20","type":"linked","directed":false,"entities":["s16v1|e_4|196,201","s15v1|e_7|373,380"],"confidence":{"state":"pre-added","who":["user:ICTAR"],"prob":1}},{"classId":"r_20","type":"linked","directed":false,"entities":["s16v1|e_4|196,201","s15v1|e_7|433,450"],"confidence":{"state":"pre-added","who":["user:ICTAR"],"prob":1}},{"classId":"r_71","type":"linked","directed":false,"entities":["s5v1|e_4|106,116","s5v1|e_40|597,615"],"confidence":{"state":"pre-added","who":["user:ICTAR"],"prob":1}},{"classId":"r_71","type":"linked","directed":false,"entities":["s5v1|e_4|106,116","s5v1|e_40|683,691"],"confidence":{"state":"pre-added","who":["user:ICTAR"],"prob":1}},{"classId":"r_71","type":"linked","directed":false,"entities":["s5v1|e_40|569,579","s5v1|e_4|106,116"],"confidence":{"state":"pre-added","who":["user:ICTAR"],"prob":1}},{"classId":"r_71","type":"linked","directed":false,"entities":["s5v1|e_40|645,662","s5v1|e_4|106,116"],"confidence":{"state":"pre-added","who":["user:ICTAR"],"prob":1}},{"classId":"r_71","type":"linked","directed":false,"entities":["s5v1|e_40|711,732","s5v1|e_4|106,116"],"confidence":{"state":"pre-added","who":["user:ICTAR"],"prob":1}},{"classId":"r_71","type":"linked","directed":false,"entities":["s5v1|e_40|868,889","s5v1|e_4|106,116"],"confidence":{"state":"pre-added","who":["user:ICTAR"],"prob":1}},{"classId":"r_71","type":"linked","directed":false,"entities":["s5v1|e_40|903,915","s5v1|e_4|106,116"],"confidence":{"state":"pre-added","who":["user:ICTAR"],"prob":1}},{"classId":"r_71","type":"linked","directed":false,"entities":["s8v1|e_4|1420,1428","s8v1|e_40|1578,1588"],"confidence":{"state":"pre-added","who":["user:ICTAR"],"prob":1}},{"classId":"r_71","type":"linked","directed":false,"entities":["s8v1|e_4|1434,1441","s8v1|e_40|1578,1588"],"confidence":{"state":"pre-added","who":["user:ICTAR"],"prob":1}},{"classId":"r_71","type":"linked","directed":false,"entities":["s8v1|e_4|1450,1459","s8v1|e_40|1578,1588"],"confidence":{"state":"pre-added","who":["user:ICTAR"],"prob":1}},{"classId":"r_71","type":"linked","directed":false,"entities":["s8v1|e_40|2610,2631","s8v1|e_4|2523,2530"],"confidence":{"state":"pre-added","who":["user:ICTAR"],"prob":1}},{"classId":"r_71","type":"linked","directed":false,"entities":["s8v1|e_40|2610,2631","s8v1|e_4|2509,2517"],"confidence":{"state":"pre-added","who":["user:ICTAR"],"prob":1}},{"classId":"r_71","type":"linked","directed":false,"entities":["s8v1|e_40|2654,2666","s8v1|e_4|2523,2530"],"confidence":{"state":"pre-added","who":["user:ICTAR"],"prob":1}},{"classId":"r_71","type":"linked","directed":false,"entities":["s8v1|e_40|2654,2666","s8v1|e_4|2509,2517"],"confidence":{"state":"pre-added","who":["user:ICTAR"],"prob":1}},{"classId":"r_71","type":"linked","directed":false,"entities":["s12v1|e_40|980,999","s12v1|e_4|1079,1089"],"confidence":{"state":"pre-added","who":["user:ICTAR"],"prob":1}},{"classId":"r_71","type":"linked","directed":false,"entities":["s12v1|e_40|1002,1020","s12v1|e_4|1079,1089"],"confidence":{"state":"pre-added","who":["user:ICTAR"],"prob":1}},{"classId":"r_71","type":"linked","directed":false,"entities":["s12v1|e_40|2329,2339","s12v1|e_4|2246,2253"],"confidence":{"state":"pre-added","who":["user:ICTAR"],"prob":1}},{"classId":"r_71","type":"linked","directed":false,"entities":["s12v1|e_4|3739,3749","s12v1|e_40|3650,3660"],"confidence":{"state":"pre-added","who":["user:ICTAR"],"prob":1}},{"classId":"r_71","type":"linked","directed":false,"entities":["s13v1|e_4|2723,2731","s13v1|e_40|2824,2832"],"confidence":{"state":"pre-added","who":["user:ICTAR"],"prob":1}},{"classId":"r_71","type":"linked","directed":false,"entities":["s13v1|e_4|2723,2731","s13v1|e_40|2837,2849"],"confidence":{"state":"pre-added","who":["user:ICTAR"],"prob":1}},{"classId":"r_71","type":"linked","directed":false,"entities":["s13v1|e_4|2737,2744","s13v1|e_40|2824,2832"],"confidence":{"state":"pre-added","who":["user:ICTAR"],"prob":1}},{"classId":"r_71","type":"linked","directed":false,"entities":["s13v1|e_4|2737,2744","s13v1|e_40|2837,2849"],"confidence":{"state":"pre-added","who":["user:ICTAR"],"prob":1}},{"classId":"r_71","type":"linked","directed":false,"entities":["s13v1|e_4|2753,2763","s13v1|e_40|2824,2832"],"confidence":{"state":"pre-added","who":["user:ICTAR"],"prob":1}},{"classId":"r_71","type":"linked","directed":false,"entities":["s13v1|e_40|2837,2849","s13v1|e_4|2753,2763"],"confidence":{"state":"pre-added","who":["user:ICTAR"],"prob":1}},{"classId":"r_71","type":"linked","directed":false,"entities":["s14v1|e_4|733,739","s14v1|e_40|520,528"],"confidence":{"state":"pre-added","who":["user:ICTAR"],"prob":1}},{"classId":"r_72","type":"linked","directed":false,"entities":["s5v1|e_4|106,116","s5v1|e_41|307,322"],"confidence":{"state":"pre-added","who":["user:ICTAR"],"prob":1}},{"classId":"r_72","type":"linked","directed":false,"entities":["s5v1|e_4|106,116","s5v1|e_41|335,341"],"confidence":{"state":"pre-added","who":["user:ICTAR"],"prob":1}},{"classId":"r_72","type":"linked","directed":false,"entities":["s5v1|e_4|106,116","s5v1|e_41|378,386"],"confidence":{"state":"pre-added","who":["user:ICTAR"],"prob":1}},{"classId":"r_72","type":"linked","directed":false,"entities":["s5v1|e_4|106,116","s5v1|e_41|404,415"],"confidence":{"state":"pre-added","who":["user:ICTAR"],"prob":1}},{"classId":"r_72","type":"linked","directed":false,"entities":["s5v1|e_41|208,230","s5v1|e_4|106,116"],"confidence":{"state":"pre-added","who":["user:ICTAR"],"prob":1}},{"classId":"r_72","type":"linked","directed":false,"entities":["s5v1|e_41|257,276","s5v1|e_4|106,116"],"confidence":{"state":"pre-added","who":["user:ICTAR"],"prob":1}},{"classId":"r_72","type":"linked","directed":false,"entities":["s5v1|e_41|361,374","s5v1|e_4|106,116"],"confidence":{"state":"pre-added","who":["user:ICTAR"],"prob":1}},{"classId":"r_72","type":"linked","directed":false,"entities":["s5v1|e_41|389,402","s5v1|e_4|106,116"],"confidence":{"state":"pre-added","who":["user:ICTAR"],"prob":1}},{"classId":"r_72","type":"linked","directed":false,"entities":["s7v1|e_4|2747,2755","s7v1|e_41|2938,2953"],"confidence":{"state":"pre-added","who":["user:ICTAR"],"prob":1}},{"classId":"r_72","type":"linked","directed":false,"entities":["s7v1|e_4|2747,2755","s7v1|e_41|2959,2964"],"confidence":{"state":"pre-added","who":["user:ICTAR"],"prob":1}},{"classId":"r_72","type":"linked","directed":false,"entities":["s7v1|e_4|2761,2768","s7v1|e_41|2938,2953"],"confidence":{"state":"pre-added","who":["user:ICTAR"],"prob":1}},{"classId":"r_72","type":"linked","directed":false,"entities":["s7v1|e_4|2761,2768","s7v1|e_41|2959,2964"],"confidence":{"state":"pre-added","who":["user:ICTAR"],"prob":1}},{"classId":"r_72","type":"linked","directed":false,"entities":["s7v1|e_4|2761,2768","s7v1|e_41|3009,3031"],"confidence":{"state":"pre-added","who":["user:ICTAR"],"prob":1}},{"classId":"r_72","type":"linked","directed":false,"entities":["s7v1|e_4|2777,2786","s7v1|e_41|2938,2953"],"confidence":{"state":"pre-added","who":["user:ICTAR"],"prob":1}},{"classId":"r_72","type":"linked","directed":false,"entities":["s7v1|e_4|2777,2786","s7v1|e_41|2959,2964"],"confidence":{"state":"pre-added","who":["user:ICTAR"],"prob":1}},{"classId":"r_72","type":"linked","directed":false,"entities":["s7v1|e_4|2777,2786","s7v1|e_41|3009,3031"],"confidence":{"state":"pre-added","who":["user:ICTAR"],"prob":1}},{"classId":"r_72","type":"linked","directed":false,"entities":["s8v1|e_41|4,11","s8v1|e_4|92,98"],"confidence":{"state":"pre-added","who":["user:ICTAR"],"prob":1}},{"classId":"r_72","type":"linked","directed":false,"entities":["s8v1|e_4|220,227","s8v1|e_41|110,133"],"confidence":{"state":"pre-added","who":["user:ICTAR"],"prob":1}},{"classId":"r_72","type":"linked","directed":false,"entities":["s8v1|e_4|233,242","s8v1|e_41|110,133"],"confidence":{"state":"pre-added","who":["user:ICTAR"],"prob":1}},{"classId":"r_72","type":"linked","directed":false,"entities":["s9v1|e_41|414,429","s9v1|e_4|465,475"],"confidence":{"state":"pre-added","who":["user:ICTAR"],"prob":1}},{"classId":"r_72","type":"linked","directed":false,"entities":["s12v1|e_41|1157,1166","s12v1|e_4|1243,1249"],"confidence":{"state":"pre-added","who":["user:ICTAR"],"prob":1}},{"classId":"r_72","type":"linked","directed":false,"entities":["s12v1|e_4|1243,1249","s12v1|e_41|1172,1177"],"confidence":{"state":"pre-added","who":["user:ICTAR"],"prob":1}},{"classId":"r_72","type":"linked","directed":false,"entities":["s12v1|e_41|2309,2323","s12v1|e_4|2246,2253"],"confidence":{"state":"pre-added","who":["user:ICTAR"],"prob":1}},{"classId":"r_72","type":"linked","directed":false,"entities":["s12v1|e_41|2381,2394","s12v1|e_4|2246,2253"],"confidence":{"state":"pre-added","who":["user:ICTAR"],"prob":1}},{"classId":"r_72","type":"linked","directed":false,"entities":["s12v1|e_41|2397,2407","s12v1|e_4|2246,2253"],"confidence":{"state":"pre-added","who":["user:ICTAR"],"prob":1}},{"classId":"r_72","type":"linked","directed":false,"entities":["s12v1|e_41|2413,2424","s12v1|e_4|2246,2253"],"confidence":{"state":"pre-added","who":["user:ICTAR"],"prob":1}},{"classId":"r_72","type":"linked","directed":false,"entities":["s13v1|e_41|1591,1600","s13v1|e_4|1629,1638"],"confidence":{"state":"pre-added","who":["user:ICTAR"],"prob":1}},{"classId":"r_72","type":"linked","directed":false,"entities":["s13v1|e_4|2496,2504","s13v1|e_41|2457,2470"],"confidence":{"state":"pre-added","who":["user:ICTAR"],"prob":1}},{"classId":"r_72","type":"linked","directed":false,"entities":["s13v1|e_4|2510,2517","s13v1|e_41|2457,2470"],"confidence":{"state":"pre-added","who":["user:ICTAR"],"prob":1}},{"classId":"r_72","type":"linked","directed":false,"entities":["s13v1|e_4|2526,2535","s13v1|e_41|2457,2470"],"confidence":{"state":"pre-added","who":["user:ICTAR"],"prob":1}},{"classId":"r_72","type":"linked","directed":false,"entities":["s13v1|e_41|2597,2612","s13v1|e_4|2496,2504"],"confidence":{"state":"pre-added","who":["user:ICTAR"],"prob":1}},{"classId":"r_72","type":"linked","directed":false,"entities":["s13v1|e_41|2597,2612","s13v1|e_4|2510,2517"],"confidence":{"state":"pre-added","who":["user:ICTAR"],"prob":1}},{"classId":"r_72","type":"linked","directed":false,"entities":["s13v1|e_41|2597,2612","s13v1|e_4|2526,2535"],"confidence":{"state":"pre-added","who":["user:ICTAR"],"prob":1}}]}