{"annotatable":{"parts":["s1v1","s2v1","s3v1","s4v1","s5v1","s6v1","s7v1","s8v1","s9v1","s10v1"]},"anncomplete":true,"sources":[],"metas":{"m_14":{"value":true,"confidence":{"state":"pre-added","who":["user:ICTAR"],"prob":1}},"m_16":{"value":"North Victoria Land","confidence":{"state":"pre-added","who":["user:ICTAR"],"prob":1}},"m_76":{"value":true,"confidence":{"state":"pre-added","who":["user:charlesklee"],"prob":1}}},"entities":[{"classId":"e_4","part":"s1v1","offsets":[{"start":2274,"text":"Cape Hallett"}],"coordinates":[],"confidence":{"state":"pre-added","who":["ml:dpeker"],"prob":0.9416},"fields":{},"normalizations":{"n_34":{"source":{"name":"GeoNamesSCAR","id":"126118","url":null},"recName":"Hallett, Cape","confidence":{"state":"pre-added","who":["ml:dpeker"],"prob":0.9416}}}},{"classId":"e_4","part":"s1v1","offsets":[{"start":2402,"text":"Cape Hallett"}],"coordinates":[],"confidence":{"state":"pre-added","who":["ml:dpeker"],"prob":0.9416},"fields":{},"normalizations":{"n_34":{"source":{"name":"GeoNamesSCAR","id":"126118","url":null},"recName":"Hallett, Cape","confidence":{"state":"pre-added","who":["ml:dpeker"],"prob":0.9416}}}},{"classId":"e_4","part":"s1v1","offsets":[{"start":2602,"text":"Hallett Station"}],"coordinates":[],"confidence":{"state":"pre-added","who":["ml:dpeker"],"prob":0.9558},"fields":{},"normalizations":{"n_34":{"source":{"name":"GeoNamesSCAR","id":"113459","url":null},"recName":"Hallett Station","confidence":{"state":"pre-added","who":["ml:dpeker"],"prob":0.9558}}}},{"classId":"e_4","part":"s1v1","offsets":[{"start":2807,"text":"Cape Hallett"}],"coordinates":[],"confidence":{"state":"pre-added","who":["ml:dpeker"],"prob":0.9416},"fields":{},"normalizations":{"n_34":{"source":{"name":"GeoNamesSCAR","id":"126118","url":null},"recName":"Hallett, Cape","confidence":{"state":"pre-added","who":["ml:dpeker"],"prob":0.9416}}}},{"classId":"e_4","part":"s1v1","offsets":[{"start":3759,"text":"Cape Hallett"}],"coordinates":[],"confidence":{"state":"pre-added","who":["ml:dpeker"],"prob":0.9416},"fields":{},"normalizations":{"n_34":{"source":{"name":"GeoNamesSCAR","id":"126118","url":null},"recName":"Hallett, Cape","confidence":{"state":"pre-added","who":["ml:dpeker"],"prob":0.9416}}}},{"classId":"e_39","part":"s1v1","offsets":[{"start":3936,"text":"Cryptopygus cisantarcticus"}],"coordinates":[],"confidence":{"state":"pre-added","who":["ml:dpeker"],"prob":0.9778},"fields":{},"normalizations":{"n_44":{"source":{"name":"SpringtailNames","id":"Crcisa","url":null},"recName":"Cryptopygus cisantarcticus","confidence":{"state":"pre-added","who":["ml:dpeker"],"prob":0.9778}}}},{"classId":"e_39","part":"s1v1","offsets":[{"start":3964,"text":"Friesea grisea"}],"coordinates":[],"confidence":{"state":"pre-added","who":["ml:dpeker"],"prob":0.9518},"fields":{},"normalizations":{"n_44":{"source":{"name":"SpringtailNames","id":"Frgris","url":null},"recName":"Friesea grisea","confidence":{"state":"pre-added","who":["ml:dpeker"],"prob":0.9518}}}},{"classId":"e_39","part":"s1v1","offsets":[{"start":3983,"text":"Isotoma klovstadi"}],"coordinates":[],"confidence":{"state":"pre-added","who":["ml:dpeker"],"prob":0.9622},"fields":{},"normalizations":{"n_44":{"source":{"name":"SpringtailNames","id":"Isklov","url":null},"recName":"Isotoma klovstadi","confidence":{"state":"pre-added","who":["ml:dpeker"],"prob":0.9622}}}},{"classId":"e_38","part":"s1v1","offsets":[{"start":4018,"text":"Coccorhagidia gressitti"}],"coordinates":[],"confidence":{"state":"pre-added","who":["ml:dpeker"],"prob":0.9741},"fields":{},"normalizations":{"n_43":{"source":{"name":"MiteNames","id":"Cogres","url":null},"recName":"Coccorhagidia gressitti","confidence":{"state":"pre-added","who":["ml:dpeker"],"prob":0.9741}}}},{"classId":"e_38","part":"s1v1","offsets":[{"start":4043,"text":"Eupodes wisei"}],"coordinates":[],"confidence":{"state":"pre-added","who":["ml:dpeker"],"prob":0.9472},"fields":{},"normalizations":{"n_43":{"source":{"name":"MiteNames","id":"Euwise","url":null},"recName":"Eupodes wisei","confidence":{"state":"pre-added","who":["ml:dpeker"],"prob":0.9472}}}},{"classId":"e_38","part":"s1v1","offsets":[{"start":4058,"text":"Maudheimia petronia"}],"coordinates":[],"confidence":{"state":"pre-added","who":["ml:dpeker"],"prob":0.9671},"fields":{},"normalizations":{"n_43":{"source":{"name":"MiteNames","id":"Mapetr","url":null},"recName":"Maudheimia petronia","confidence":{"state":"pre-added","who":["ml:dpeker"],"prob":0.9671}}}},{"classId":"e_38","part":"s1v1","offsets":[{"start":4079,"text":"Nanorchestes sp"}],"coordinates":[],"confidence":{"state":"pre-added","who":["ml:dpeker"],"prob":0.917},"fields":{},"normalizations":{"n_43":{"source":{"name":"MiteNames","id":"Nanosp","url":null},"recName":"Nanorchestes sp.","confidence":{"state":"pre-added","who":["ml:dpeker"],"prob":0.917}}}},{"classId":"e_38","part":"s1v1","offsets":[{"start":4097,"text":"Stereotydeus belli"}],"coordinates":[],"confidence":{"state":"pre-added","who":["ml:dpeker"],"prob":0.9648},"fields":{},"normalizations":{"n_43":{"source":{"name":"MiteNames","id":"Stbell","url":null},"recName":"Stereotydeus belli","confidence":{"state":"pre-added","who":["ml:dpeker"],"prob":0.9648}}}},{"classId":"e_38","part":"s1v1","offsets":[{"start":4117,"text":"S. punctatus"}],"coordinates":[],"confidence":{"state":"pre-added","who":["ml:dpeker"],"prob":0.9416},"fields":{},"normalizations":{"n_43":{"source":{"name":"MiteNames","id":"Stpunc","url":null},"recName":"Stereotydeus punctatus","confidence":{"state":"pre-added","who":["ml:dpeker"],"prob":0.9416}}}},{"classId":"e_38","part":"s1v1","offsets":[{"start":4131,"text":"Tydeus setsukoae"}],"coordinates":[],"confidence":{"state":"pre-added","who":["ml:dpeker"],"prob":0.9592},"fields":{},"normalizations":{"n_43":{"source":{"name":"MiteNames","id":"Tysets","url":null},"recName":"Tydeus setsukoae","confidence":{"state":"pre-added","who":["ml:dpeker"],"prob":0.9592}}}},{"classId":"e_38","part":"s1v1","offsets":[{"start":4152,"text":"T. wadei"}],"coordinates":[],"confidence":{"state":"pre-added","who":["ml:dpeker"],"prob":0.9031},"fields":{},"normalizations":{"n_43":{"source":{"name":"MiteNames","id":"Tywade","url":null},"recName":"Tydeus wadei","confidence":{"state":"pre-added","who":["ml:dpeker"],"prob":0.9031}}}},{"classId":"e_4","part":"s2v1","offsets":[{"start":282,"text":"Cape Hallett"}],"coordinates":[],"confidence":{"state":"pre-added","who":["ml:dpeker"],"prob":0.9416},"fields":{},"normalizations":{"n_34":{"source":{"name":"GeoNamesSCAR","id":"126118","url":null},"recName":"Hallett, Cape","confidence":{"state":"pre-added","who":["ml:dpeker"],"prob":0.9416}}}},{"classId":"e_4","part":"s2v1","offsets":[{"start":457,"text":"Cape Hallett"}],"coordinates":[],"confidence":{"state":"pre-added","who":["ml:dpeker"],"prob":0.9416},"fields":{},"normalizations":{"n_34":{"source":{"name":"GeoNamesSCAR","id":"126118","url":null},"recName":"Hallett, Cape","confidence":{"state":"pre-added","who":["ml:dpeker"],"prob":0.9416}}}},{"classId":"e_39","part":"s2v1","offsets":[{"start":876,"text":"Isotoma klovstadi"}],"coordinates":[],"confidence":{"state":"pre-added","who":["ml:dpeker"],"prob":0.9622},"fields":{},"normalizations":{"n_44":{"source":{"name":"SpringtailNames","id":"Isklov","url":null},"recName":"Isotoma klovstadi","confidence":{"state":"pre-added","who":["ml:dpeker"],"prob":0.9622}}}},{"classId":"e_4","part":"s2v1","offsets":[{"start":933,"text":"Cape Hallett"}],"coordinates":[],"confidence":{"state":"pre-added","who":["ml:dpeker"],"prob":0.9416},"fields":{},"normalizations":{"n_34":{"source":{"name":"GeoNamesSCAR","id":"126118","url":null},"recName":"Hallett, Cape","confidence":{"state":"pre-added","who":["ml:dpeker"],"prob":0.9416}}}},{"classId":"e_4","part":"s2v1","offsets":[{"start":1077,"text":"Cape Hallett"}],"coordinates":[],"confidence":{"state":"pre-added","who":["ml:dpeker"],"prob":0.9416},"fields":{},"normalizations":{"n_34":{"source":{"name":"GeoNamesSCAR","id":"126118","url":null},"recName":"Hallett, Cape","confidence":{"state":"pre-added","who":["ml:dpeker"],"prob":0.9416}}}},{"classId":"e_4","part":"s2v1","offsets":[{"start":1094,"text":"Possession Island"}],"coordinates":[],"confidence":{"state":"pre-added","who":["ml:dpeker"],"prob":0.9622},"fields":{},"normalizations":{"n_34":{"source":{"name":"GeoNamesSCAR","id":"130286","url":null},"recName":"Possession Island","confidence":{"state":"pre-added","who":["ml:dpeker"],"prob":0.9622}}}},{"classId":"e_4","part":"s2v1","offsets":[{"start":1185,"text":"Possession Island"}],"coordinates":[],"confidence":{"state":"pre-added","who":["ml:dpeker"],"prob":0.9622},"fields":{},"normalizations":{"n_34":{"source":{"name":"GeoNamesSCAR","id":"130286","url":null},"recName":"Possession Island","confidence":{"state":"pre-added","who":["ml:dpeker"],"prob":0.9622}}}},{"classId":"e_4","part":"s2v1","offsets":[{"start":1250,"text":"Cape Hallett"}],"coordinates":[],"confidence":{"state":"pre-added","who":["ml:dpeker"],"prob":0.9416},"fields":{},"normalizations":{"n_34":{"source":{"name":"GeoNamesSCAR","id":"126118","url":null},"recName":"Hallett, Cape","confidence":{"state":"pre-added","who":["ml:dpeker"],"prob":0.9416}}}},{"classId":"e_4","part":"s2v1","offsets":[{"start":1326,"text":"Hallett Peninsula"}],"coordinates":[],"confidence":{"state":"pre-added","who":["ml:dpeker"],"prob":0.9622},"fields":{},"normalizations":{"n_34":{"source":{"name":"GeoNamesSCAR","id":"126116","url":null},"recName":"Hallett Peninsula","confidence":{"state":"pre-added","who":["ml:dpeker"],"prob":0.9622}}}},{"classId":"e_4","part":"s2v1","offsets":[{"start":1382,"text":"Cape Hallett"}],"coordinates":[],"confidence":{"state":"pre-added","who":["ml:dpeker"],"prob":0.9416},"fields":{},"normalizations":{"n_34":{"source":{"name":"GeoNamesSCAR","id":"126118","url":null},"recName":"Hallett, Cape","confidence":{"state":"pre-added","who":["ml:dpeker"],"prob":0.9416}}}},{"classId":"e_4","part":"s2v1","offsets":[{"start":1405,"text":"Seabee Hook"}],"coordinates":[],"confidence":{"state":"pre-added","who":["ml:dpeker"],"prob":0.9349},"fields":{},"normalizations":{"n_34":{"source":{"name":"GeoNamesSCAR","id":"131367","url":null},"recName":"Seabee Hook","confidence":{"state":"pre-added","who":["ml:dpeker"],"prob":0.9349}}}},{"classId":"e_4","part":"s2v1","offsets":[{"start":1492,"text":"Seabee Hook"}],"coordinates":[],"confidence":{"state":"pre-added","who":["ml:dpeker"],"prob":0.9349},"fields":{},"normalizations":{"n_34":{"source":{"name":"GeoNamesSCAR","id":"131367","url":null},"recName":"Seabee Hook","confidence":{"state":"pre-added","who":["ml:dpeker"],"prob":0.9349}}}},{"classId":"e_4","part":"s2v1","offsets":[{"start":1617,"text":"Seabee Hook"}],"coordinates":[],"confidence":{"state":"pre-added","who":["ml:dpeker"],"prob":0.9349},"fields":{},"normalizations":{"n_34":{"source":{"name":"GeoNamesSCAR","id":"131367","url":null},"recName":"Seabee Hook","confidence":{"state":"pre-added","who":["ml:dpeker"],"prob":0.9349}}}},{"classId":"e_4","part":"s2v1","offsets":[{"start":1706,"text":"Cape Hallett"}],"coordinates":[],"confidence":{"state":"pre-added","who":["ml:dpeker"],"prob":0.9416},"fields":{},"normalizations":{"n_34":{"source":{"name":"GeoNamesSCAR","id":"126118","url":null},"recName":"Hallett, Cape","confidence":{"state":"pre-added","who":["ml:dpeker"],"prob":0.9416}}}},{"classId":"e_4","part":"s2v1","offsets":[{"start":1763,"text":"Cape Hallett"}],"coordinates":[],"confidence":{"state":"pre-added","who":["ml:dpeker"],"prob":0.9416},"fields":{},"normalizations":{"n_34":{"source":{"name":"GeoNamesSCAR","id":"126118","url":null},"recName":"Hallett, Cape","confidence":{"state":"pre-added","who":["ml:dpeker"],"prob":0.9416}}}},{"classId":"e_5","part":"s2v1","offsets":[{"start":1776,"text":"(72.318°S, 170.211°E"}],"coordinates":[{"x":"369.02","y":"457.26"},{"x":"457.55","y":"463.83"}],"confidence":{"state":"pre-added","who":["user:ICTAR"],"prob":1},"fields":{},"normalizations":{}},{"classId":"e_4","part":"s2v1","offsets":[{"start":1870,"text":"Cape Hallett"}],"coordinates":[],"confidence":{"state":"pre-added","who":["ml:dpeker"],"prob":0.9416},"fields":{},"normalizations":{"n_34":{"source":{"name":"GeoNamesSCAR","id":"126118","url":null},"recName":"Hallett, Cape","confidence":{"state":"pre-added","who":["ml:dpeker"],"prob":0.9416}}}},{"classId":"e_40","part":"s2v1","offsets":[{"start":2225,"text":"Ulothrix sp."}],"coordinates":[{"x":"337.63","y":"571.23"},{"x":"386.54","y":"577.83"}],"confidence":{"state":"pre-added","who":["user:ICTAR"],"prob":1},"fields":{},"normalizations":{"n_75":{"source":{"name":"AlgaeNames","id":"ulotsp","url":null},"recName":"","confidence":{"state":"pre-added","who":["user:charlesklee"],"prob":1}}}},{"classId":"e_4","part":"s2v1","offsets":[{"start":2881,"text":"Cape Hallett"}],"coordinates":[],"confidence":{"state":"pre-added","who":["ml:dpeker"],"prob":0.9416},"fields":{},"normalizations":{"n_34":{"source":{"name":"GeoNamesSCAR","id":"126118","url":null},"recName":"Hallett, Cape","confidence":{"state":"pre-added","who":["ml:dpeker"],"prob":0.9416}}}},{"classId":"e_41","part":"s3v1","offsets":[{"start":166,"text":"Nostoc commune"}],"coordinates":[{"x":"85.71","y":"97.45"},{"x":"156.56","y":"104.05"}],"confidence":{"state":"pre-added","who":["user:ICTAR"],"prob":1},"fields":{},"normalizations":{"n_55":{"source":{"name":"CyanobacteriaNames","id":"nocomm","url":null},"recName":"","confidence":{"state":"pre-added","who":["user:charlesklee"],"prob":1}}}},{"classId":"e_40","part":"s3v1","offsets":[{"start":222,"text":"Prasiola crispa"}],"coordinates":[{"x":"112.94","y":"109.45"},{"x":"177.28","y":"116.05"}],"confidence":{"state":"pre-added","who":["user:ICTAR"],"prob":1},"fields":{},"normalizations":{"n_75":{"source":{"name":"AlgaeNames","id":"prcris","url":null},"recName":"","confidence":{"state":"pre-added","who":["user:charlesklee"],"prob":1}}}},{"classId":"e_1","part":"s3v1","offsets":[{"start":495,"text":"Bryum argenteum"}],"coordinates":[],"confidence":{"state":"pre-added","who":["ml:dpeker"],"prob":0.9558},"fields":{},"normalizations":{"n_32":{"source":{"name":"MossNames","id":"Brarge","url":null},"recName":"Bryum argenteum","confidence":{"state":"pre-added","who":["ml:dpeker"],"prob":0.9558}}}},{"classId":"e_7","part":"s3v1","offsets":[{"start":650,"text":"Xanthoria mawsonii"}],"coordinates":[],"confidence":{"state":"pre-added","who":["ml:dpeker"],"prob":0.9648},"fields":{},"normalizations":{"n_31":{"source":{"name":"LichenNames","id":"Xabore","url":null},"recName":"Xanthomendoza borealis","confidence":{"state":"pre-added","who":["ml:dpeker"],"prob":0.9648}}}},{"classId":"e_7","part":"s3v1","offsets":[{"start":679,"text":"Buellia frigida"}],"coordinates":[],"confidence":{"state":"pre-added","who":["ml:dpeker"],"prob":0.9558},"fields":{},"normalizations":{"n_31":{"source":{"name":"LichenNames","id":"Bufrig","url":null},"recName":"Buellia frigida","confidence":{"state":"pre-added","who":["ml:dpeker"],"prob":0.9558}}}},{"classId":"e_7","part":"s3v1","offsets":[{"start":1406,"text":"X. mawsonii"}],"coordinates":[{"x":"228.29","y":"391.45"},{"x":"278.31","y":"398.05"}],"confidence":{"state":"pre-added","who":["user:ICTAR"],"prob":1},"fields":{},"normalizations":{"n_31":{"source":{"name":"LichenNames","id":"Xabore","url":null},"recName":"","confidence":{"state":"pre-added","who":["user:ICTAR"],"prob":1}}}},{"classId":"e_7","part":"s3v1","offsets":[{"start":1419,"text":"B. frigida"}],"coordinates":[{"x":"61.79","y":"403.45"},{"x":"101.92","y":"410.05"}],"confidence":{"state":"pre-added","who":["user:ICTAR"],"prob":1},"fields":{},"normalizations":{"n_31":{"source":{"name":"LichenNames","id":"Bufrig","url":null},"recName":"","confidence":{"state":"pre-added","who":["user:ICTAR"],"prob":1}}}},{"classId":"e_7","part":"s3v1","offsets":[{"start":1431,"text":"Parmelia sp."}],"coordinates":[{"x":"108.70","y":"403.45"},{"x":"161.58","y":"410.05"}],"confidence":{"state":"pre-added","who":["user:ICTAR"],"prob":1},"fields":{},"normalizations":{"n_31":{"source":{"name":"LichenNames","id":"parmsp","url":null},"recName":"","confidence":{"state":"pre-added","who":["user:charlesklee"],"prob":1}}}},{"classId":"e_7","part":"s3v1","offsets":[{"start":1445,"text":"Rinodina sp."}],"coordinates":[{"x":"168.37","y":"403.45"},{"x":"220.71","y":"410.05"}],"confidence":{"state":"pre-added","who":["user:ICTAR"],"prob":1},"fields":{},"normalizations":{"n_31":{"source":{"name":"LichenNames","id":"rinosp","url":null},"recName":"","confidence":{"state":"pre-added","who":["user:charlesklee"],"prob":1}}}},{"classId":"e_7","part":"s3v1","offsets":[{"start":1459,"text":"Polycauliona sp."}],"coordinates":[{"x":"227.49","y":"403.45"},{"x":"73.18","y":"422.05"}],"confidence":{"state":"pre-added","who":["user:ICTAR"],"prob":1},"fields":{},"normalizations":{"n_31":{"source":{"name":"LichenNames","id":"polysp","url":null},"recName":"","confidence":{"state":"pre-added","who":["user:charlesklee"],"prob":1}}}},{"classId":"e_7","part":"s3v1","offsets":[{"start":1477,"text":"Umbilicaria sp."}],"coordinates":[{"x":"79.99","y":"415.45"},{"x":"144.57","y":"422.05"}],"confidence":{"state":"pre-added","who":["user:ICTAR"],"prob":1},"fields":{},"normalizations":{"n_31":{"source":{"name":"LichenNames","id":"umbisp","url":null},"recName":"","confidence":{"state":"pre-added","who":["user:charlesklee"],"prob":1}}}},{"classId":"e_7","part":"s3v1","offsets":[{"start":1494,"text":"Lecidea sp."}],"coordinates":[{"x":"151.38","y":"415.45"},{"x":"198.73","y":"422.05"}],"confidence":{"state":"pre-added","who":["user:charlesklee"],"prob":1},"fields":{},"normalizations":{"n_31":{"source":{"name":"LichenNames","id":"lecisp","url":null},"recName":"","confidence":{"state":"pre-added","who":["user:charlesklee"],"prob":1}}}},{"classId":"e_7","part":"s3v1","offsets":[{"start":1507,"text":"Lecanora sp."}],"coordinates":[{"x":"205.54","y":"415.45"},{"x":"259.57","y":"422.05"}],"confidence":{"state":"pre-added","who":["user:ICTAR"],"prob":1},"fields":{},"normalizations":{"n_31":{"source":{"name":"LichenNames","id":"lecasp","url":null},"recName":"","confidence":{"state":"pre-added","who":["user:charlesklee"],"prob":1}}}},{"classId":"e_7","part":"s3v1","offsets":[{"start":1525,"text":"Caloplaca sp."}],"coordinates":[{"x":"61.79","y":"427.45"},{"x":"116.97","y":"434.05"}],"confidence":{"state":"pre-added","who":["user:ICTAR"],"prob":1},"fields":{},"normalizations":{"n_31":{"source":{"name":"LichenNames","id":"calosp","url":null},"recName":"","confidence":{"state":"pre-added","who":["user:charlesklee"],"prob":1}}}},{"classId":"e_4","part":"s3v1","offsets":[{"start":1564,"text":"Cape Hallett"}],"coordinates":[],"confidence":{"state":"pre-added","who":["ml:dpeker"],"prob":0.9416},"fields":{},"normalizations":{"n_34":{"source":{"name":"GeoNamesSCAR","id":"126118","url":null},"recName":"Hallett, Cape","confidence":{"state":"pre-added","who":["ml:dpeker"],"prob":0.9416}}}},{"classId":"e_4","part":"s3v1","offsets":[{"start":1614,"text":"Seabee Hook"}],"coordinates":[],"confidence":{"state":"pre-added","who":["ml:dpeker"],"prob":0.9349},"fields":{},"normalizations":{"n_34":{"source":{"name":"GeoNamesSCAR","id":"131367","url":null},"recName":"Seabee Hook","confidence":{"state":"pre-added","who":["ml:dpeker"],"prob":0.9349}}}},{"classId":"e_4","part":"s3v1","offsets":[{"start":2035,"text":"Hallett Peninsula"}],"coordinates":[],"confidence":{"state":"pre-added","who":["ml:dpeker"],"prob":0.9622},"fields":{},"normalizations":{"n_34":{"source":{"name":"GeoNamesSCAR","id":"126116","url":null},"recName":"Hallett Peninsula","confidence":{"state":"pre-added","who":["ml:dpeker"],"prob":0.9622}}}},{"classId":"e_4","part":"s3v1","offsets":[{"start":3997,"text":"Cape Hallett"}],"coordinates":[],"confidence":{"state":"pre-added","who":["ml:dpeker"],"prob":0.9416},"fields":{},"normalizations":{"n_34":{"source":{"name":"GeoNamesSCAR","id":"126118","url":null},"recName":"Hallett, Cape","confidence":{"state":"pre-added","who":["ml:dpeker"],"prob":0.9416}}}},{"classId":"e_7","part":"s3v1","offsets":[{"start":4655,"text":"Buellia frigida"}],"coordinates":[],"confidence":{"state":"pre-added","who":["ml:dpeker"],"prob":0.9558},"fields":{},"normalizations":{"n_31":{"source":{"name":"LichenNames","id":"Bufrig","url":null},"recName":"Buellia frigida","confidence":{"state":"pre-added","who":["ml:dpeker"],"prob":0.9558}}}},{"classId":"e_7","part":"s3v1","offsets":[{"start":4671,"text":"Buellia sp."}],"coordinates":[{"x":"304.82","y":"324.11"},{"x":"338.74","y":"329.40"}],"confidence":{"state":"pre-added","who":["user:ICTAR"],"prob":1},"fields":{},"normalizations":{"n_31":{"source":{"name":"LichenNames","id":"buelsp","url":null},"recName":"","confidence":{"state":"pre-added","who":["user:charlesklee"],"prob":1}}}},{"classId":"e_4","part":"s4v1","offsets":[{"start":2232,"text":"days"}],"coordinates":[],"confidence":{"state":"pre-added","who":["ml:dpeker"],"prob":0.4836},"fields":{},"normalizations":{"n_34":{"source":{"name":"GeoNamesSCAR","id":"124046","url":null},"recName":"Dais","confidence":{"state":"pre-added","who":["ml:dpeker"],"prob":0.4836}}}},{"classId":"e_4","part":"s4v1","offsets":[{"start":2962,"text":"Cape Hallett"}],"coordinates":[],"confidence":{"state":"pre-added","who":["ml:dpeker"],"prob":0.9416},"fields":{},"normalizations":{"n_34":{"source":{"name":"GeoNamesSCAR","id":"126118","url":null},"recName":"Hallett, Cape","confidence":{"state":"pre-added","who":["ml:dpeker"],"prob":0.9416}}}},{"classId":"e_38","part":"s4v1","offsets":[{"start":4338,"text":"S. punctatus"}],"coordinates":[],"confidence":{"state":"pre-added","who":["ml:dpeker"],"prob":0.9416},"fields":{},"normalizations":{"n_43":{"source":{"name":"MiteNames","id":"Stpunc","url":null},"recName":"Stereotydeus punctatus","confidence":{"state":"pre-added","who":["ml:dpeker"],"prob":0.9416}}}},{"classId":"e_4","part":"s5v1","offsets":[{"start":566,"text":"Cape Hallett"}],"coordinates":[],"confidence":{"state":"pre-added","who":["ml:dpeker"],"prob":0.9416},"fields":{},"normalizations":{"n_34":{"source":{"name":"GeoNamesSCAR","id":"126118","url":null},"recName":"Hallett, Cape","confidence":{"state":"pre-added","who":["ml:dpeker"],"prob":0.9416}}}},{"classId":"e_4","part":"s5v1","offsets":[{"start":884,"text":"Cape Hallett"}],"coordinates":[],"confidence":{"state":"pre-added","who":["ml:dpeker"],"prob":0.9416},"fields":{},"normalizations":{"n_34":{"source":{"name":"GeoNamesSCAR","id":"126118","url":null},"recName":"Hallett, Cape","confidence":{"state":"pre-added","who":["ml:dpeker"],"prob":0.9416}}}},{"classId":"e_38","part":"s5v1","offsets":[{"start":1390,"text":"Maudheimia petronia"}],"coordinates":[],"confidence":{"state":"pre-added","who":["ml:dpeker"],"prob":0.9671},"fields":{},"normalizations":{"n_43":{"source":{"name":"MiteNames","id":"Mapetr","url":null},"recName":"Maudheimia petronia","confidence":{"state":"pre-added","who":["ml:dpeker"],"prob":0.9671}}}},{"classId":"e_38","part":"s5v1","offsets":[{"start":1482,"text":"Coccorhagidia gressitti"}],"coordinates":[],"confidence":{"state":"pre-added","who":["ml:dpeker"],"prob":0.9741},"fields":{},"normalizations":{"n_43":{"source":{"name":"MiteNames","id":"Cogres","url":null},"recName":"Coccorhagidia gressitti","confidence":{"state":"pre-added","who":["ml:dpeker"],"prob":0.9741}}}},{"classId":"e_38","part":"s5v1","offsets":[{"start":1578,"text":"Eupodes wisei"}],"coordinates":[],"confidence":{"state":"pre-added","who":["ml:dpeker"],"prob":0.9472},"fields":{},"normalizations":{"n_43":{"source":{"name":"MiteNames","id":"Euwise","url":null},"recName":"Eupodes wisei","confidence":{"state":"pre-added","who":["ml:dpeker"],"prob":0.9472}}}},{"classId":"e_38","part":"s5v1","offsets":[{"start":1676,"text":"Nanorchestes sp"}],"coordinates":[],"confidence":{"state":"pre-added","who":["ml:dpeker"],"prob":0.917},"fields":{},"normalizations":{"n_43":{"source":{"name":"MiteNames","id":"Nanosp","url":null},"recName":"Nanorchestes sp.","confidence":{"state":"pre-added","who":["ml:dpeker"],"prob":0.917}}}},{"classId":"e_38","part":"s5v1","offsets":[{"start":1762,"text":"Stereotydeus belli"}],"coordinates":[],"confidence":{"state":"pre-added","who":["ml:dpeker"],"prob":0.9648},"fields":{},"normalizations":{"n_43":{"source":{"name":"MiteNames","id":"Stbell","url":null},"recName":"Stereotydeus belli","confidence":{"state":"pre-added","who":["ml:dpeker"],"prob":0.9648}}}},{"classId":"e_38","part":"s5v1","offsets":[{"start":1848,"text":"Stereotydeus punctatus"}],"coordinates":[],"confidence":{"state":"pre-added","who":["ml:dpeker"],"prob":0.9726},"fields":{},"normalizations":{"n_43":{"source":{"name":"MiteNames","id":"Stpunc","url":null},"recName":"Stereotydeus punctatus","confidence":{"state":"pre-added","who":["ml:dpeker"],"prob":0.9726}}}},{"classId":"e_38","part":"s5v1","offsets":[{"start":1935,"text":"Tydeus setsukoae"}],"coordinates":[],"confidence":{"state":"pre-added","who":["ml:dpeker"],"prob":0.9592},"fields":{},"normalizations":{"n_43":{"source":{"name":"MiteNames","id":"Tysets","url":null},"recName":"Tydeus setsukoae","confidence":{"state":"pre-added","who":["ml:dpeker"],"prob":0.9592}}}},{"classId":"e_38","part":"s5v1","offsets":[{"start":2019,"text":"Tydeus wadei"}],"coordinates":[],"confidence":{"state":"pre-added","who":["ml:dpeker"],"prob":0.9416},"fields":{},"normalizations":{"n_43":{"source":{"name":"MiteNames","id":"Tywade","url":null},"recName":"Tydeus wadei","confidence":{"state":"pre-added","who":["ml:dpeker"],"prob":0.9416}}}},{"classId":"e_39","part":"s5v1","offsets":[{"start":2094,"text":"Cryptopygus cisantarcticus"}],"coordinates":[],"confidence":{"state":"pre-added","who":["ml:dpeker"],"prob":0.9778},"fields":{},"normalizations":{"n_44":{"source":{"name":"SpringtailNames","id":"Crcisa","url":null},"recName":"Cryptopygus cisantarcticus","confidence":{"state":"pre-added","who":["ml:dpeker"],"prob":0.9778}}}},{"classId":"e_39","part":"s5v1","offsets":[{"start":2185,"text":"Isotoma klovstadi"}],"coordinates":[],"confidence":{"state":"pre-added","who":["ml:dpeker"],"prob":0.9622},"fields":{},"normalizations":{"n_44":{"source":{"name":"SpringtailNames","id":"Isklov","url":null},"recName":"Isotoma klovstadi","confidence":{"state":"pre-added","who":["ml:dpeker"],"prob":0.9622}}}},{"classId":"e_39","part":"s5v1","offsets":[{"start":2282,"text":"Friesea grisea"}],"coordinates":[],"confidence":{"state":"pre-added","who":["ml:dpeker"],"prob":0.9518},"fields":{},"normalizations":{"n_44":{"source":{"name":"SpringtailNames","id":"Frgris","url":null},"recName":"Friesea grisea","confidence":{"state":"pre-added","who":["ml:dpeker"],"prob":0.9518}}}},{"classId":"e_4","part":"s6v1","offsets":[{"start":371,"text":"Cape Hallett"}],"coordinates":[],"confidence":{"state":"pre-added","who":["ml:dpeker"],"prob":0.9416},"fields":{},"normalizations":{"n_34":{"source":{"name":"GeoNamesSCAR","id":"126118","url":null},"recName":"Hallett, Cape","confidence":{"state":"pre-added","who":["ml:dpeker"],"prob":0.9416}}}},{"classId":"e_39","part":"s6v1","offsets":[{"start":938,"text":"C. cisantarcticus"}],"coordinates":[],"confidence":{"state":"pre-added","who":["ml:dpeker"],"prob":0.9622},"fields":{},"normalizations":{"n_44":{"source":{"name":"SpringtailNames","id":"Crcisa","url":null},"recName":"Cryptopygus cisantarcticus","confidence":{"state":"pre-added","who":["ml:dpeker"],"prob":0.9622}}}},{"classId":"e_4","part":"s6v1","offsets":[{"start":1153,"text":"Seabee Hook"}],"coordinates":[],"confidence":{"state":"pre-added","who":["ml:dpeker"],"prob":0.9349},"fields":{},"normalizations":{"n_34":{"source":{"name":"GeoNamesSCAR","id":"131367","url":null},"recName":"Seabee Hook","confidence":{"state":"pre-added","who":["ml:dpeker"],"prob":0.9349}}}},{"classId":"e_7","part":"s6v1","offsets":[{"start":1323,"text":"Usnea antarctica"}],"coordinates":[],"confidence":{"state":"pre-added","who":["ml:dpeker"],"prob":0.9592},"fields":{},"normalizations":{"n_31":{"source":{"name":"LichenNames","id":"Usanta","url":null},"recName":"Usnea antarctica","confidence":{"state":"pre-added","who":["ml:dpeker"],"prob":0.9592}}}},{"classId":"e_38","part":"s6v1","offsets":[{"start":1437,"text":"Coccorhagidia gressitti"}],"coordinates":[],"confidence":{"state":"pre-added","who":["ml:dpeker"],"prob":0.9741},"fields":{},"normalizations":{"n_43":{"source":{"name":"MiteNames","id":"Cogres","url":null},"recName":"Coccorhagidia gressitti","confidence":{"state":"pre-added","who":["ml:dpeker"],"prob":0.9741}}}},{"classId":"e_38","part":"s6v1","offsets":[{"start":1462,"text":"Nanorchestes sp"}],"coordinates":[],"confidence":{"state":"pre-added","who":["ml:dpeker"],"prob":0.917},"fields":{},"normalizations":{"n_43":{"source":{"name":"MiteNames","id":"Nanosp","url":null},"recName":"Nanorchestes sp.","confidence":{"state":"pre-added","who":["ml:dpeker"],"prob":0.917}}}},{"classId":"e_38","part":"s6v1","offsets":[{"start":1483,"text":"Stereotydeus punctatus"}],"coordinates":[],"confidence":{"state":"pre-added","who":["ml:dpeker"],"prob":0.9726},"fields":{},"normalizations":{"n_43":{"source":{"name":"MiteNames","id":"Stpunc","url":null},"recName":"Stereotydeus punctatus","confidence":{"state":"pre-added","who":["ml:dpeker"],"prob":0.9726}}}},{"classId":"e_39","part":"s6v1","offsets":[{"start":1526,"text":"Cryptopygus cisantarcticus"}],"coordinates":[],"confidence":{"state":"pre-added","who":["ml:dpeker"],"prob":0.9778},"fields":{},"normalizations":{"n_44":{"source":{"name":"SpringtailNames","id":"Crcisa","url":null},"recName":"Cryptopygus cisantarcticus","confidence":{"state":"pre-added","who":["ml:dpeker"],"prob":0.9778}}}},{"classId":"e_39","part":"s6v1","offsets":[{"start":1749,"text":"Friesea grisea"}],"coordinates":[],"confidence":{"state":"pre-added","who":["ml:dpeker"],"prob":0.9518},"fields":{},"normalizations":{"n_44":{"source":{"name":"SpringtailNames","id":"Frgris","url":null},"recName":"Friesea grisea","confidence":{"state":"pre-added","who":["ml:dpeker"],"prob":0.9518}}}},{"classId":"e_39","part":"s6v1","offsets":[{"start":1856,"text":"Isotoma klovstadi"}],"coordinates":[],"confidence":{"state":"pre-added","who":["ml:dpeker"],"prob":0.9622},"fields":{},"normalizations":{"n_44":{"source":{"name":"SpringtailNames","id":"Isklov","url":null},"recName":"Isotoma klovstadi","confidence":{"state":"pre-added","who":["ml:dpeker"],"prob":0.9622}}}},{"classId":"e_39","part":"s6v1","offsets":[{"start":2123,"text":"Isotoma klovstadi"}],"coordinates":[],"confidence":{"state":"pre-added","who":["ml:dpeker"],"prob":0.9622},"fields":{},"normalizations":{"n_44":{"source":{"name":"SpringtailNames","id":"Isklov","url":null},"recName":"Isotoma klovstadi","confidence":{"state":"pre-added","who":["ml:dpeker"],"prob":0.9622}}}},{"classId":"e_39","part":"s6v1","offsets":[{"start":2145,"text":"C. cisantarcticus"}],"coordinates":[],"confidence":{"state":"pre-added","who":["ml:dpeker"],"prob":0.9622},"fields":{},"normalizations":{"n_44":{"source":{"name":"SpringtailNames","id":"Crcisa","url":null},"recName":"Cryptopygus cisantarcticus","confidence":{"state":"pre-added","who":["ml:dpeker"],"prob":0.9622}}}},{"classId":"e_39","part":"s6v1","offsets":[{"start":2381,"text":"C. cisantarcticus"}],"coordinates":[],"confidence":{"state":"pre-added","who":["ml:dpeker"],"prob":0.9622},"fields":{},"normalizations":{"n_44":{"source":{"name":"SpringtailNames","id":"Crcisa","url":null},"recName":"Cryptopygus cisantarcticus","confidence":{"state":"pre-added","who":["ml:dpeker"],"prob":0.9622}}}},{"classId":"e_38","part":"s6v1","offsets":[{"start":2431,"text":"Stereotydeus belli"}],"coordinates":[],"confidence":{"state":"pre-added","who":["ml:dpeker"],"prob":0.9648},"fields":{},"normalizations":{"n_43":{"source":{"name":"MiteNames","id":"Stbell","url":null},"recName":"Stereotydeus belli","confidence":{"state":"pre-added","who":["ml:dpeker"],"prob":0.9648}}}},{"classId":"e_38","part":"s6v1","offsets":[{"start":2546,"text":"S. punctatus"}],"coordinates":[],"confidence":{"state":"pre-added","who":["ml:dpeker"],"prob":0.9416},"fields":{},"normalizations":{"n_43":{"source":{"name":"MiteNames","id":"Stpunc","url":null},"recName":"Stereotydeus punctatus","confidence":{"state":"pre-added","who":["ml:dpeker"],"prob":0.9416}}}},{"classId":"e_38","part":"s6v1","offsets":[{"start":2618,"text":"Tydeus setsukoae"}],"coordinates":[],"confidence":{"state":"pre-added","who":["ml:dpeker"],"prob":0.9592},"fields":{},"normalizations":{"n_43":{"source":{"name":"MiteNames","id":"Tysets","url":null},"recName":"Tydeus setsukoae","confidence":{"state":"pre-added","who":["ml:dpeker"],"prob":0.9592}}}},{"classId":"e_38","part":"s6v1","offsets":[{"start":2733,"text":"T. wadei"}],"coordinates":[],"confidence":{"state":"pre-added","who":["ml:dpeker"],"prob":0.9031},"fields":{},"normalizations":{"n_43":{"source":{"name":"MiteNames","id":"Tywade","url":null},"recName":"Tydeus wadei","confidence":{"state":"pre-added","who":["ml:dpeker"],"prob":0.9031}}}},{"classId":"e_38","part":"s6v1","offsets":[{"start":2877,"text":"Eupodes wisei"}],"coordinates":[],"confidence":{"state":"pre-added","who":["ml:dpeker"],"prob":0.9472},"fields":{},"normalizations":{"n_43":{"source":{"name":"MiteNames","id":"Euwise","url":null},"recName":"Eupodes wisei","confidence":{"state":"pre-added","who":["ml:dpeker"],"prob":0.9472}}}},{"classId":"e_4","part":"s6v1","offsets":[{"start":2970,"text":"Cape Hallett"}],"coordinates":[],"confidence":{"state":"pre-added","who":["ml:dpeker"],"prob":0.9416},"fields":{},"normalizations":{"n_34":{"source":{"name":"GeoNamesSCAR","id":"126118","url":null},"recName":"Hallett, Cape","confidence":{"state":"pre-added","who":["ml:dpeker"],"prob":0.9416}}}},{"classId":"e_38","part":"s6v1","offsets":[{"start":2984,"text":"Maudheimia petronia"}],"coordinates":[],"confidence":{"state":"pre-added","who":["ml:dpeker"],"prob":0.9671},"fields":{},"normalizations":{"n_43":{"source":{"name":"MiteNames","id":"Mapetr","url":null},"recName":"Maudheimia petronia","confidence":{"state":"pre-added","who":["ml:dpeker"],"prob":0.9671}}}},{"classId":"e_38","part":"s6v1","offsets":[{"start":3181,"text":"E. wisei"}],"coordinates":[],"confidence":{"state":"pre-added","who":["ml:dpeker"],"prob":0.9031},"fields":{},"normalizations":{"n_43":{"source":{"name":"MiteNames","id":"Euwise","url":null},"recName":"Eupodes wisei","confidence":{"state":"pre-added","who":["ml:dpeker"],"prob":0.9031}}}},{"classId":"e_39","part":"s6v1","offsets":[{"start":3671,"text":"Cryptopygus cisantarcticus"}],"coordinates":[],"confidence":{"state":"pre-added","who":["ml:dpeker"],"prob":0.9778},"fields":{},"normalizations":{"n_44":{"source":{"name":"SpringtailNames","id":"Crcisa","url":null},"recName":"Cryptopygus cisantarcticus","confidence":{"state":"pre-added","who":["ml:dpeker"],"prob":0.9778}}}},{"classId":"e_38","part":"s6v1","offsets":[{"start":3708,"text":"Eupodes wisei"}],"coordinates":[],"confidence":{"state":"pre-added","who":["ml:dpeker"],"prob":0.9472},"fields":{},"normalizations":{"n_43":{"source":{"name":"MiteNames","id":"Euwise","url":null},"recName":"Eupodes wisei","confidence":{"state":"pre-added","who":["ml:dpeker"],"prob":0.9472}}}},{"classId":"e_39","part":"s6v1","offsets":[{"start":3732,"text":"Friesea grisea"}],"coordinates":[],"confidence":{"state":"pre-added","who":["ml:dpeker"],"prob":0.9518},"fields":{},"normalizations":{"n_44":{"source":{"name":"SpringtailNames","id":"Frgris","url":null},"recName":"Friesea grisea","confidence":{"state":"pre-added","who":["ml:dpeker"],"prob":0.9518}}}},{"classId":"e_39","part":"s6v1","offsets":[{"start":3757,"text":"Isotoma klovstadi"}],"coordinates":[],"confidence":{"state":"pre-added","who":["ml:dpeker"],"prob":0.9622},"fields":{},"normalizations":{"n_44":{"source":{"name":"SpringtailNames","id":"Isklov","url":null},"recName":"Isotoma klovstadi","confidence":{"state":"pre-added","who":["ml:dpeker"],"prob":0.9622}}}},{"classId":"e_38","part":"s6v1","offsets":[{"start":3785,"text":"Maudheimia petronia"}],"coordinates":[],"confidence":{"state":"pre-added","who":["ml:dpeker"],"prob":0.9671},"fields":{},"normalizations":{"n_43":{"source":{"name":"MiteNames","id":"Mapetr","url":null},"recName":"Maudheimia petronia","confidence":{"state":"pre-added","who":["ml:dpeker"],"prob":0.9671}}}},{"classId":"e_38","part":"s6v1","offsets":[{"start":3815,"text":"Nanorchestes sp"}],"coordinates":[],"confidence":{"state":"pre-added","who":["ml:dpeker"],"prob":0.917},"fields":{},"normalizations":{"n_43":{"source":{"name":"MiteNames","id":"Nanosp","url":null},"recName":"Nanorchestes sp.","confidence":{"state":"pre-added","who":["ml:dpeker"],"prob":0.917}}}},{"classId":"e_38","part":"s6v1","offsets":[{"start":3842,"text":"Stereotydeus punctatus"}],"coordinates":[],"confidence":{"state":"pre-added","who":["ml:dpeker"],"prob":0.9726},"fields":{},"normalizations":{"n_43":{"source":{"name":"MiteNames","id":"Stpunc","url":null},"recName":"Stereotydeus punctatus","confidence":{"state":"pre-added","who":["ml:dpeker"],"prob":0.9726}}}},{"classId":"e_38","part":"s6v1","offsets":[{"start":3875,"text":"Tydeus setsukoae"}],"coordinates":[],"confidence":{"state":"pre-added","who":["ml:dpeker"],"prob":0.9592},"fields":{},"normalizations":{"n_43":{"source":{"name":"MiteNames","id":"Tysets","url":null},"recName":"Tydeus setsukoae","confidence":{"state":"pre-added","who":["ml:dpeker"],"prob":0.9592}}}},{"classId":"e_7","part":"s6v1","offsets":[{"start":4550,"text":"Buellia frigida"}],"coordinates":[],"confidence":{"state":"pre-added","who":["ml:dpeker"],"prob":0.9558},"fields":{},"normalizations":{"n_31":{"source":{"name":"LichenNames","id":"Bufrig","url":null},"recName":"Buellia frigida","confidence":{"state":"pre-added","who":["ml:dpeker"],"prob":0.9558}}}},{"classId":"e_38","part":"s7v1","offsets":[{"start":4,"text":"M. petronia"}],"coordinates":[],"confidence":{"state":"pre-added","who":["ml:dpeker"],"prob":0.9349},"fields":{},"normalizations":{"n_43":{"source":{"name":"MiteNames","id":"Mapetr","url":null},"recName":"Maudheimia petronia","confidence":{"state":"pre-added","who":["ml:dpeker"],"prob":0.9349}}}},{"classId":"e_38","part":"s7v1","offsets":[{"start":57,"text":"Stereotydeus belli"}],"coordinates":[],"confidence":{"state":"pre-added","who":["ml:dpeker"],"prob":0.9648},"fields":{},"normalizations":{"n_43":{"source":{"name":"MiteNames","id":"Stbell","url":null},"recName":"Stereotydeus belli","confidence":{"state":"pre-added","who":["ml:dpeker"],"prob":0.9648}}}},{"classId":"e_39","part":"s7v1","offsets":[{"start":749,"text":"C. cisantarcticus"}],"coordinates":[{"x":"308.15","y":"85.45"},{"x":"380.80","y":"92.05"}],"confidence":{"state":"pre-added","who":["user:ICTAR"],"prob":1},"fields":{},"normalizations":{"n_44":{"source":{"name":"SpringtailNames","id":"Crcisa","url":null},"recName":"","confidence":{"state":"pre-added","who":["user:ICTAR"],"prob":1}}}},{"classId":"e_39","part":"s7v1","offsets":[{"start":768,"text":"F. grisea"}],"coordinates":[],"confidence":{"state":"pre-added","who":["ml:dpeker"],"prob":0.9163},"fields":{},"normalizations":{"n_44":{"source":{"name":"SpringtailNames","id":"Frgris","url":null},"recName":"Friesea grisea","confidence":{"state":"pre-added","who":["ml:dpeker"],"prob":0.9163}}}},{"classId":"e_38","part":"s7v1","offsets":[{"start":779,"text":"S. belli"}],"coordinates":[],"confidence":{"state":"pre-added","who":["ml:dpeker"],"prob":0.9031},"fields":{},"normalizations":{"n_43":{"source":{"name":"MiteNames","id":"Stbell","url":null},"recName":"Stereotydeus belli","confidence":{"state":"pre-added","who":["ml:dpeker"],"prob":0.9031}}}},{"classId":"e_38","part":"s7v1","offsets":[{"start":789,"text":"E. wisei"}],"coordinates":[],"confidence":{"state":"pre-added","who":["ml:dpeker"],"prob":0.9031},"fields":{},"normalizations":{"n_43":{"source":{"name":"MiteNames","id":"Euwise","url":null},"recName":"Eupodes wisei","confidence":{"state":"pre-added","who":["ml:dpeker"],"prob":0.9031}}}},{"classId":"e_38","part":"s7v1","offsets":[{"start":802,"text":"T. setsukoae"}],"coordinates":[],"confidence":{"state":"pre-added","who":["ml:dpeker"],"prob":0.9416},"fields":{},"normalizations":{"n_43":{"source":{"name":"MiteNames","id":"Tysets","url":null},"recName":"Tydeus setsukoae","confidence":{"state":"pre-added","who":["ml:dpeker"],"prob":0.9416}}}},{"classId":"e_39","part":"s7v1","offsets":[{"start":1238,"text":"F. grisea"}],"coordinates":[],"confidence":{"state":"pre-added","who":["ml:dpeker"],"prob":0.9163},"fields":{},"normalizations":{"n_44":{"source":{"name":"SpringtailNames","id":"Frgris","url":null},"recName":"Friesea grisea","confidence":{"state":"pre-added","who":["ml:dpeker"],"prob":0.9163}}}},{"classId":"e_38","part":"s7v1","offsets":[{"start":1249,"text":"T. setsukoae"}],"coordinates":[],"confidence":{"state":"pre-added","who":["ml:dpeker"],"prob":0.9416},"fields":{},"normalizations":{"n_43":{"source":{"name":"MiteNames","id":"Tysets","url":null},"recName":"Tydeus setsukoae","confidence":{"state":"pre-added","who":["ml:dpeker"],"prob":0.9416}}}},{"classId":"e_38","part":"s7v1","offsets":[{"start":1266,"text":"E. wisei"}],"coordinates":[],"confidence":{"state":"pre-added","who":["ml:dpeker"],"prob":0.9031},"fields":{},"normalizations":{"n_43":{"source":{"name":"MiteNames","id":"Euwise","url":null},"recName":"Eupodes wisei","confidence":{"state":"pre-added","who":["ml:dpeker"],"prob":0.9031}}}},{"classId":"e_39","part":"s7v1","offsets":[{"start":1381,"text":"C. cisantarcticus"}],"coordinates":[],"confidence":{"state":"pre-added","who":["ml:dpeker"],"prob":0.9622},"fields":{},"normalizations":{"n_44":{"source":{"name":"SpringtailNames","id":"Crcisa","url":null},"recName":"Cryptopygus cisantarcticus","confidence":{"state":"pre-added","who":["ml:dpeker"],"prob":0.9622}}}},{"classId":"e_38","part":"s7v1","offsets":[{"start":1403,"text":"S. belli"}],"coordinates":[],"confidence":{"state":"pre-added","who":["ml:dpeker"],"prob":0.9031},"fields":{},"normalizations":{"n_43":{"source":{"name":"MiteNames","id":"Stbell","url":null},"recName":"Stereotydeus belli","confidence":{"state":"pre-added","who":["ml:dpeker"],"prob":0.9031}}}},{"classId":"e_39","part":"s7v1","offsets":[{"start":1414,"text":"Isotoma klovstadi"}],"coordinates":[],"confidence":{"state":"pre-added","who":["ml:dpeker"],"prob":0.9622},"fields":{},"normalizations":{"n_44":{"source":{"name":"SpringtailNames","id":"Isklov","url":null},"recName":"Isotoma klovstadi","confidence":{"state":"pre-added","who":["ml:dpeker"],"prob":0.9622}}}},{"classId":"e_38","part":"s7v1","offsets":[{"start":1436,"text":"M. petronia"}],"coordinates":[],"confidence":{"state":"pre-added","who":["ml:dpeker"],"prob":0.9349},"fields":{},"normalizations":{"n_43":{"source":{"name":"MiteNames","id":"Mapetr","url":null},"recName":"Maudheimia petronia","confidence":{"state":"pre-added","who":["ml:dpeker"],"prob":0.9349}}}},{"classId":"e_38","part":"s7v1","offsets":[{"start":1661,"text":"Nanorchestes sp"}],"coordinates":[],"confidence":{"state":"pre-added","who":["ml:dpeker"],"prob":0.917},"fields":{},"normalizations":{"n_43":{"source":{"name":"MiteNames","id":"Nanosp","url":null},"recName":"Nanorchestes sp.","confidence":{"state":"pre-added","who":["ml:dpeker"],"prob":0.917}}}},{"classId":"e_4","part":"s7v1","offsets":[{"start":1742,"text":"Cape Hallett"}],"coordinates":[],"confidence":{"state":"pre-added","who":["ml:dpeker"],"prob":0.9416},"fields":{},"normalizations":{"n_34":{"source":{"name":"GeoNamesSCAR","id":"126118","url":null},"recName":"Hallett, Cape","confidence":{"state":"pre-added","who":["ml:dpeker"],"prob":0.9416}}}},{"classId":"e_38","part":"s7v1","offsets":[{"start":1929,"text":"Stereotydeus punctatus"}],"coordinates":[],"confidence":{"state":"pre-added","who":["ml:dpeker"],"prob":0.9726},"fields":{},"normalizations":{"n_43":{"source":{"name":"MiteNames","id":"Stpunc","url":null},"recName":"Stereotydeus punctatus","confidence":{"state":"pre-added","who":["ml:dpeker"],"prob":0.9726}}}},{"classId":"e_38","part":"s7v1","offsets":[{"start":1991,"text":"S. belli"}],"coordinates":[],"confidence":{"state":"pre-added","who":["ml:dpeker"],"prob":0.9031},"fields":{},"normalizations":{"n_43":{"source":{"name":"MiteNames","id":"Stbell","url":null},"recName":"Stereotydeus belli","confidence":{"state":"pre-added","who":["ml:dpeker"],"prob":0.9031}}}},{"classId":"e_4","part":"s7v1","offsets":[{"start":2036,"text":"Cape Hallett"}],"coordinates":[],"confidence":{"state":"pre-added","who":["ml:dpeker"],"prob":0.9416},"fields":{},"normalizations":{"n_34":{"source":{"name":"GeoNamesSCAR","id":"126118","url":null},"recName":"Hallett, Cape","confidence":{"state":"pre-added","who":["ml:dpeker"],"prob":0.9416}}}},{"classId":"e_4","part":"s7v1","offsets":[{"start":2107,"text":"Cape Hallett"}],"coordinates":[],"confidence":{"state":"pre-added","who":["ml:dpeker"],"prob":0.9416},"fields":{},"normalizations":{"n_34":{"source":{"name":"GeoNamesSCAR","id":"126118","url":null},"recName":"Hallett, Cape","confidence":{"state":"pre-added","who":["ml:dpeker"],"prob":0.9416}}}},{"classId":"e_38","part":"s7v1","offsets":[{"start":2136,"text":"Coccorhagidia gressitti"}],"coordinates":[],"confidence":{"state":"pre-added","who":["ml:dpeker"],"prob":0.9741},"fields":{},"normalizations":{"n_43":{"source":{"name":"MiteNames","id":"Cogres","url":null},"recName":"Coccorhagidia gressitti","confidence":{"state":"pre-added","who":["ml:dpeker"],"prob":0.9741}}}},{"classId":"e_38","part":"s7v1","offsets":[{"start":2164,"text":"Eupodes wisei"}],"coordinates":[],"confidence":{"state":"pre-added","who":["ml:dpeker"],"prob":0.9472},"fields":{},"normalizations":{"n_43":{"source":{"name":"MiteNames","id":"Euwise","url":null},"recName":"Eupodes wisei","confidence":{"state":"pre-added","who":["ml:dpeker"],"prob":0.9472}}}},{"classId":"e_4","part":"s7v1","offsets":[{"start":2209,"text":"Cape Hallett"}],"coordinates":[],"confidence":{"state":"pre-added","who":["ml:dpeker"],"prob":0.9416},"fields":{},"normalizations":{"n_34":{"source":{"name":"GeoNamesSCAR","id":"126118","url":null},"recName":"Hallett, Cape","confidence":{"state":"pre-added","who":["ml:dpeker"],"prob":0.9416}}}},{"classId":"e_38","part":"s7v1","offsets":[{"start":2270,"text":"Nanorchestes sp"}],"coordinates":[],"confidence":{"state":"pre-added","who":["ml:dpeker"],"prob":0.917},"fields":{},"normalizations":{"n_43":{"source":{"name":"MiteNames","id":"Nanosp","url":null},"recName":"Nanorchestes sp.","confidence":{"state":"pre-added","who":["ml:dpeker"],"prob":0.917}}}},{"classId":"e_4","part":"s7v1","offsets":[{"start":2465,"text":"Cape Hallett"}],"coordinates":[],"confidence":{"state":"pre-added","who":["ml:dpeker"],"prob":0.9416},"fields":{},"normalizations":{"n_34":{"source":{"name":"GeoNamesSCAR","id":"126118","url":null},"recName":"Hallett, Cape","confidence":{"state":"pre-added","who":["ml:dpeker"],"prob":0.9416}}}},{"classId":"e_4","part":"s7v1","offsets":[{"start":2691,"text":"Cape Adare"}],"coordinates":[],"confidence":{"state":"pre-added","who":["ml:dpeker"],"prob":0.9266},"fields":{},"normalizations":{"n_34":{"source":{"name":"GeoNamesSCAR","id":"121591","url":null},"recName":"Adare, Cape","confidence":{"state":"pre-added","who":["ml:dpeker"],"prob":0.9266}}}},{"classId":"e_4","part":"s7v1","offsets":[{"start":2706,"text":"Possession Island"}],"coordinates":[],"confidence":{"state":"pre-added","who":["ml:dpeker"],"prob":0.9622},"fields":{},"normalizations":{"n_34":{"source":{"name":"GeoNamesSCAR","id":"130286","url":null},"recName":"Possession Island","confidence":{"state":"pre-added","who":["ml:dpeker"],"prob":0.9622}}}},{"classId":"e_38","part":"s7v1","offsets":[{"start":3065,"text":"S. punctatus"}],"coordinates":[],"confidence":{"state":"pre-added","who":["ml:dpeker"],"prob":0.9416},"fields":{},"normalizations":{"n_43":{"source":{"name":"MiteNames","id":"Stpunc","url":null},"recName":"Stereotydeus punctatus","confidence":{"state":"pre-added","who":["ml:dpeker"],"prob":0.9416}}}},{"classId":"e_38","part":"s7v1","offsets":[{"start":3100,"text":"S. belli"}],"coordinates":[],"confidence":{"state":"pre-added","who":["ml:dpeker"],"prob":0.9031},"fields":{},"normalizations":{"n_43":{"source":{"name":"MiteNames","id":"Stbell","url":null},"recName":"Stereotydeus belli","confidence":{"state":"pre-added","who":["ml:dpeker"],"prob":0.9031}}}},{"classId":"e_4","part":"s7v1","offsets":[{"start":3347,"text":"Cape Hallett"}],"coordinates":[],"confidence":{"state":"pre-added","who":["ml:dpeker"],"prob":0.9416},"fields":{},"normalizations":{"n_34":{"source":{"name":"GeoNamesSCAR","id":"126118","url":null},"recName":"Hallett, Cape","confidence":{"state":"pre-added","who":["ml:dpeker"],"prob":0.9416}}}},{"classId":"e_4","part":"s7v1","offsets":[{"start":3528,"text":"Possession Islands"}],"coordinates":[],"confidence":{"state":"pre-added","who":["ml:dpeker"],"prob":0.9088},"fields":{},"normalizations":{"n_34":{"source":{"name":"GeoNamesSCAR","id":"130286","url":null},"recName":"Possession Island","confidence":{"state":"pre-added","who":["ml:dpeker"],"prob":0.9088}}}},{"classId":"e_39","part":"s7v1","offsets":[{"start":4024,"text":"Cryptopygus cisantarcticus"}],"coordinates":[],"confidence":{"state":"pre-added","who":["ml:dpeker"],"prob":0.9778},"fields":{},"normalizations":{"n_44":{"source":{"name":"SpringtailNames","id":"Crcisa","url":null},"recName":"Cryptopygus cisantarcticus","confidence":{"state":"pre-added","who":["ml:dpeker"],"prob":0.9778}}}},{"classId":"e_38","part":"s7v1","offsets":[{"start":4061,"text":"Coccorhagidia gressitti"}],"coordinates":[],"confidence":{"state":"pre-added","who":["ml:dpeker"],"prob":0.9741},"fields":{},"normalizations":{"n_43":{"source":{"name":"MiteNames","id":"Cogres","url":null},"recName":"Coccorhagidia gressitti","confidence":{"state":"pre-added","who":["ml:dpeker"],"prob":0.9741}}}},{"classId":"e_39","part":"s7v1","offsets":[{"start":4095,"text":"Friesea grisea"}],"coordinates":[],"confidence":{"state":"pre-added","who":["ml:dpeker"],"prob":0.9518},"fields":{},"normalizations":{"n_44":{"source":{"name":"SpringtailNames","id":"Frgris","url":null},"recName":"Friesea grisea","confidence":{"state":"pre-added","who":["ml:dpeker"],"prob":0.9518}}}},{"classId":"e_39","part":"s7v1","offsets":[{"start":4120,"text":"Isotoma klovstadi"}],"coordinates":[],"confidence":{"state":"pre-added","who":["ml:dpeker"],"prob":0.9622},"fields":{},"normalizations":{"n_44":{"source":{"name":"SpringtailNames","id":"Isklov","url":null},"recName":"Isotoma klovstadi","confidence":{"state":"pre-added","who":["ml:dpeker"],"prob":0.9622}}}},{"classId":"e_38","part":"s7v1","offsets":[{"start":4148,"text":"Maudheimia petronia"}],"coordinates":[],"confidence":{"state":"pre-added","who":["ml:dpeker"],"prob":0.9671},"fields":{},"normalizations":{"n_43":{"source":{"name":"MiteNames","id":"Mapetr","url":null},"recName":"Maudheimia petronia","confidence":{"state":"pre-added","who":["ml:dpeker"],"prob":0.9671}}}},{"classId":"e_38","part":"s7v1","offsets":[{"start":4177,"text":"Nanorchestes sp"}],"coordinates":[],"confidence":{"state":"pre-added","who":["ml:dpeker"],"prob":0.917},"fields":{},"normalizations":{"n_43":{"source":{"name":"MiteNames","id":"Nanosp","url":null},"recName":"Nanorchestes sp.","confidence":{"state":"pre-added","who":["ml:dpeker"],"prob":0.917}}}},{"classId":"e_38","part":"s7v1","offsets":[{"start":4204,"text":"Stereotydeus belli"}],"coordinates":[],"confidence":{"state":"pre-added","who":["ml:dpeker"],"prob":0.9648},"fields":{},"normalizations":{"n_43":{"source":{"name":"MiteNames","id":"Stbell","url":null},"recName":"Stereotydeus belli","confidence":{"state":"pre-added","who":["ml:dpeker"],"prob":0.9648}}}},{"classId":"e_38","part":"s7v1","offsets":[{"start":4233,"text":"Stereotydeus punctatus"}],"coordinates":[],"confidence":{"state":"pre-added","who":["ml:dpeker"],"prob":0.9726},"fields":{},"normalizations":{"n_43":{"source":{"name":"MiteNames","id":"Stpunc","url":null},"recName":"Stereotydeus punctatus","confidence":{"state":"pre-added","who":["ml:dpeker"],"prob":0.9726}}}},{"classId":"e_38","part":"s7v1","offsets":[{"start":4266,"text":"Tydeus setsukoae"}],"coordinates":[],"confidence":{"state":"pre-added","who":["ml:dpeker"],"prob":0.9592},"fields":{},"normalizations":{"n_43":{"source":{"name":"MiteNames","id":"Tysets","url":null},"recName":"Tydeus setsukoae","confidence":{"state":"pre-added","who":["ml:dpeker"],"prob":0.9592}}}},{"classId":"e_4","part":"s8v1","offsets":[{"start":0,"text":"Cape Hallett"}],"coordinates":[],"confidence":{"state":"pre-added","who":["ml:dpeker"],"prob":0.9416},"fields":{},"normalizations":{"n_34":{"source":{"name":"GeoNamesSCAR","id":"126118","url":null},"recName":"Hallett, Cape","confidence":{"state":"pre-added","who":["ml:dpeker"],"prob":0.9416}}}},{"classId":"e_4","part":"s8v1","offsets":[{"start":138,"text":"Cape Bird"}],"coordinates":[],"confidence":{"state":"pre-added","who":["ml:dpeker"],"prob":0.9163},"fields":{},"normalizations":{"n_34":{"source":{"name":"GeoNamesSCAR","id":"122545","url":null},"recName":"Bird, Cape","confidence":{"state":"pre-added","who":["ml:dpeker"],"prob":0.9163}}}},{"classId":"e_4","part":"s8v1","offsets":[{"start":152,"text":"Ross Island"}],"coordinates":[],"confidence":{"state":"pre-added","who":["ml:dpeker"],"prob":0.9349},"fields":{},"normalizations":{"n_34":{"source":{"name":"GeoNamesSCAR","id":"130958","url":null},"recName":"Ross Island","confidence":{"state":"pre-added","who":["ml:dpeker"],"prob":0.9349}}}},{"classId":"e_38","part":"s8v1","offsets":[{"start":664,"text":"S. belli"}],"coordinates":[],"confidence":{"state":"pre-added","who":["ml:dpeker"],"prob":0.9031},"fields":{},"normalizations":{"n_43":{"source":{"name":"MiteNames","id":"Stbell","url":null},"recName":"Stereotydeus belli","confidence":{"state":"pre-added","who":["ml:dpeker"],"prob":0.9031}}}},{"classId":"e_4","part":"s8v1","offsets":[{"start":928,"text":"Cape Hallett"}],"coordinates":[],"confidence":{"state":"pre-added","who":["ml:dpeker"],"prob":0.9416},"fields":{},"normalizations":{"n_34":{"source":{"name":"GeoNamesSCAR","id":"126118","url":null},"recName":"Hallett, Cape","confidence":{"state":"pre-added","who":["ml:dpeker"],"prob":0.9416}}}},{"classId":"e_38","part":"s8v1","offsets":[{"start":1015,"text":"C. gressitti"}],"coordinates":[],"confidence":{"state":"pre-added","who":["ml:dpeker"],"prob":0.9416},"fields":{},"normalizations":{"n_43":{"source":{"name":"MiteNames","id":"Cogres","url":null},"recName":"Coccorhagidia gressitti","confidence":{"state":"pre-added","who":["ml:dpeker"],"prob":0.9416}}}},{"classId":"e_39","part":"s8v1","offsets":[{"start":1160,"text":"Isotoma klovstadi"}],"coordinates":[],"confidence":{"state":"pre-added","who":["ml:dpeker"],"prob":0.9622},"fields":{},"normalizations":{"n_44":{"source":{"name":"SpringtailNames","id":"Isklov","url":null},"recName":"Isotoma klovstadi","confidence":{"state":"pre-added","who":["ml:dpeker"],"prob":0.9622}}}},{"classId":"e_4","part":"s8v1","offsets":[{"start":1417,"text":"Cape Hallett"}],"coordinates":[],"confidence":{"state":"pre-added","who":["ml:dpeker"],"prob":0.9416},"fields":{},"normalizations":{"n_34":{"source":{"name":"GeoNamesSCAR","id":"126118","url":null},"recName":"Hallett, Cape","confidence":{"state":"pre-added","who":["ml:dpeker"],"prob":0.9416}}}},{"classId":"e_7","part":"s8v1","offsets":[{"start":1607,"text":"Usnea antarctica"}],"coordinates":[],"confidence":{"state":"pre-added","who":["ml:dpeker"],"prob":0.9592},"fields":{},"normalizations":{"n_31":{"source":{"name":"LichenNames","id":"Usanta","url":null},"recName":"Usnea antarctica","confidence":{"state":"pre-added","who":["ml:dpeker"],"prob":0.9592}}}},{"classId":"e_4","part":"s8v1","offsets":[{"start":1938,"text":"Cape Hallett"}],"coordinates":[],"confidence":{"state":"pre-added","who":["ml:dpeker"],"prob":0.9416},"fields":{},"normalizations":{"n_34":{"source":{"name":"GeoNamesSCAR","id":"126118","url":null},"recName":"Hallett, Cape","confidence":{"state":"pre-added","who":["ml:dpeker"],"prob":0.9416}}}},{"classId":"e_7","part":"s8v1","offsets":[{"start":2518,"text":"X. mawsonii"}],"coordinates":[{"x":"482.04","y":"421.19"},{"x":"533.94","y":"427.79"}],"confidence":{"state":"pre-added","who":["user:ICTAR"],"prob":1},"fields":{},"normalizations":{"n_31":{"source":{"name":"LichenNames","id":"Xabore","url":null},"recName":"","confidence":{"state":"pre-added","who":["user:ICTAR"],"prob":1}}}},{"classId":"e_7","part":"s8v1","offsets":[{"start":2534,"text":"B. frigidia"}],"coordinates":[{"x":"314.46","y":"433.19"},{"x":"355.87","y":"439.79"}],"confidence":{"state":"pre-added","who":["user:ICTAR"],"prob":1},"fields":{},"normalizations":{"n_31":{"source":{"name":"LichenNames","id":"Bufrig","url":null},"recName":"","confidence":{"state":"pre-added","who":["user:ICTAR"],"prob":1}}}},{"classId":"e_38","part":"s8v1","offsets":[{"start":2584,"text":"M. petronia"}],"coordinates":[],"confidence":{"state":"pre-added","who":["ml:dpeker"],"prob":0.9349},"fields":{},"normalizations":{"n_43":{"source":{"name":"MiteNames","id":"Mapetr","url":null},"recName":"Maudheimia petronia","confidence":{"state":"pre-added","who":["ml:dpeker"],"prob":0.9349}}}},{"classId":"e_4","part":"s8v1","offsets":[{"start":2643,"text":"Cape Hallett"}],"coordinates":[],"confidence":{"state":"pre-added","who":["ml:dpeker"],"prob":0.9416},"fields":{},"normalizations":{"n_34":{"source":{"name":"GeoNamesSCAR","id":"126118","url":null},"recName":"Hallett, Cape","confidence":{"state":"pre-added","who":["ml:dpeker"],"prob":0.9416}}}},{"classId":"e_39","part":"s8v1","offsets":[{"start":2661,"text":"I. klovstadi"}],"coordinates":[],"confidence":{"state":"pre-added","who":["ml:dpeker"],"prob":0.9416},"fields":{},"normalizations":{"n_44":{"source":{"name":"SpringtailNames","id":"Isklov","url":null},"recName":"Isotoma klovstadi","confidence":{"state":"pre-added","who":["ml:dpeker"],"prob":0.9416}}}},{"classId":"e_47","part":"s8v1","offsets":[{"start":2750,"text":"Of interest here is that M. petronia was not found in association with fruticose lichens,"}],"coordinates":[{"x":"461.02","y":"469.22"},{"x":"345.29","y":"499.79"}],"confidence":{"state":"pre-added","who":["user:ICTAR"],"prob":1},"fields":{},"normalizations":{}},{"classId":"e_38","part":"s8v1","offsets":[{"start":2775,"text":"M. petronia"}],"coordinates":[],"confidence":{"state":"pre-added","who":["ml:dpeker"],"prob":0.9349},"fields":{},"normalizations":{"n_43":{"source":{"name":"MiteNames","id":"Mapetr","url":null},"recName":"Maudheimia petronia","confidence":{"state":"pre-added","who":["ml:dpeker"],"prob":0.9349}}}},{"classId":"e_4","part":"s8v1","offsets":[{"start":3503,"text":"Cape Hallett"}],"coordinates":[],"confidence":{"state":"pre-added","who":["ml:dpeker"],"prob":0.9416},"fields":{},"normalizations":{"n_34":{"source":{"name":"GeoNamesSCAR","id":"126118","url":null},"recName":"Hallett, Cape","confidence":{"state":"pre-added","who":["ml:dpeker"],"prob":0.9416}}}},{"classId":"e_4","part":"s8v1","offsets":[{"start":3672,"text":"Cape Bird"}],"coordinates":[],"confidence":{"state":"pre-added","who":["ml:dpeker"],"prob":0.9163},"fields":{},"normalizations":{"n_34":{"source":{"name":"GeoNamesSCAR","id":"122545","url":null},"recName":"Bird, Cape","confidence":{"state":"pre-added","who":["ml:dpeker"],"prob":0.9163}}}},{"classId":"e_4","part":"s8v1","offsets":[{"start":3975,"text":"Cape Hallett"}],"coordinates":[],"confidence":{"state":"pre-added","who":["ml:dpeker"],"prob":0.9416},"fields":{},"normalizations":{"n_34":{"source":{"name":"GeoNamesSCAR","id":"126118","url":null},"recName":"Hallett, Cape","confidence":{"state":"pre-added","who":["ml:dpeker"],"prob":0.9416}}}},{"classId":"e_4","part":"s9v1","offsets":[{"start":951,"text":"Cape Hallett"}],"coordinates":[],"confidence":{"state":"pre-added","who":["ml:dpeker"],"prob":0.9416},"fields":{},"normalizations":{"n_34":{"source":{"name":"GeoNamesSCAR","id":"126118","url":null},"recName":"Hallett, Cape","confidence":{"state":"pre-added","who":["ml:dpeker"],"prob":0.9416}}}},{"classId":"e_39","part":"s9v1","offsets":[{"start":1058,"text":"C. cisantarcticus"}],"coordinates":[],"confidence":{"state":"pre-added","who":["ml:dpeker"],"prob":0.9622},"fields":{},"normalizations":{"n_44":{"source":{"name":"SpringtailNames","id":"Crcisa","url":null},"recName":"Cryptopygus cisantarcticus","confidence":{"state":"pre-added","who":["ml:dpeker"],"prob":0.9622}}}},{"classId":"e_4","part":"s9v1","offsets":[{"start":1377,"text":"Cape Hallett"}],"coordinates":[],"confidence":{"state":"pre-added","who":["ml:dpeker"],"prob":0.9416},"fields":{},"normalizations":{"n_34":{"source":{"name":"GeoNamesSCAR","id":"126118","url":null},"recName":"Hallett, Cape","confidence":{"state":"pre-added","who":["ml:dpeker"],"prob":0.9416}}}},{"classId":"e_4","part":"s9v1","offsets":[{"start":1706,"text":"Cape Hallett"}],"coordinates":[],"confidence":{"state":"pre-added","who":["ml:dpeker"],"prob":0.9416},"fields":{},"normalizations":{"n_34":{"source":{"name":"GeoNamesSCAR","id":"126118","url":null},"recName":"Hallett, Cape","confidence":{"state":"pre-added","who":["ml:dpeker"],"prob":0.9416}}}},{"classId":"e_4","part":"s9v1","offsets":[{"start":1824,"text":"Cape Hallett"}],"coordinates":[],"confidence":{"state":"pre-added","who":["ml:dpeker"],"prob":0.9416},"fields":{},"normalizations":{"n_34":{"source":{"name":"GeoNamesSCAR","id":"126118","url":null},"recName":"Hallett, Cape","confidence":{"state":"pre-added","who":["ml:dpeker"],"prob":0.9416}}}},{"classId":"e_4","part":"s9v1","offsets":[{"start":2263,"text":"Cape Hallett"}],"coordinates":[],"confidence":{"state":"pre-added","who":["ml:dpeker"],"prob":0.9416},"fields":{},"normalizations":{"n_34":{"source":{"name":"GeoNamesSCAR","id":"126118","url":null},"recName":"Hallett, Cape","confidence":{"state":"pre-added","who":["ml:dpeker"],"prob":0.9416}}}},{"classId":"e_4","part":"s9v1","offsets":[{"start":2912,"text":"Cape\n\nHallett"}],"coordinates":[],"confidence":{"state":"pre-added","who":["ml:dpeker"],"prob":0.7967},"fields":{},"normalizations":{"n_34":{"source":{"name":"GeoNamesSCAR","id":"126118","url":null},"recName":"Hallett, Cape","confidence":{"state":"pre-added","who":["ml:dpeker"],"prob":0.7967}}}},{"classId":"e_4","part":"s9v1","offsets":[{"start":3076,"text":"Cape Hallett"}],"coordinates":[],"confidence":{"state":"pre-added","who":["ml:dpeker"],"prob":0.9416},"fields":{},"normalizations":{"n_34":{"source":{"name":"GeoNamesSCAR","id":"126118","url":null},"recName":"Hallett, Cape","confidence":{"state":"pre-added","who":["ml:dpeker"],"prob":0.9416}}}},{"classId":"e_4","part":"s9v1","offsets":[{"start":3406,"text":"Cape Hallett"}],"coordinates":[],"confidence":{"state":"pre-added","who":["ml:dpeker"],"prob":0.9416},"fields":{},"normalizations":{"n_34":{"source":{"name":"GeoNamesSCAR","id":"126118","url":null},"recName":"Hallett, Cape","confidence":{"state":"pre-added","who":["ml:dpeker"],"prob":0.9416}}}},{"classId":"e_39","part":"s9v1","offsets":[{"start":5750,"text":"Isotoma klovstadi"}],"coordinates":[],"confidence":{"state":"pre-added","who":["ml:dpeker"],"prob":0.9622},"fields":{},"normalizations":{"n_44":{"source":{"name":"SpringtailNames","id":"Isklov","url":null},"recName":"Isotoma klovstadi","confidence":{"state":"pre-added","who":["ml:dpeker"],"prob":0.9622}}}},{"classId":"e_4","part":"s10v1","offsets":[{"start":533,"text":"McMurdo Dry Valleys"}],"coordinates":[],"confidence":{"state":"pre-added","who":["ml:dpeker"],"prob":0.9671},"fields":{},"normalizations":{"n_34":{"source":{"name":"GeoNamesSCAR","id":"113892","url":null},"recName":"McMurdo Dry Valleys","confidence":{"state":"pre-added","who":["ml:dpeker"],"prob":0.9671}}}},{"classId":"e_4","part":"s10v1","offsets":[{"start":674,"text":"Cape Hallett"}],"coordinates":[],"confidence":{"state":"pre-added","who":["ml:dpeker"],"prob":0.9416},"fields":{},"normalizations":{"n_34":{"source":{"name":"GeoNamesSCAR","id":"126118","url":null},"recName":"Hallett, Cape","confidence":{"state":"pre-added","who":["ml:dpeker"],"prob":0.9416}}}},{"classId":"e_4","part":"s10v1","offsets":[{"start":2032,"text":"Cape Hallett"}],"coordinates":[],"confidence":{"state":"pre-added","who":["ml:dpeker"],"prob":0.9416},"fields":{},"normalizations":{"n_34":{"source":{"name":"GeoNamesSCAR","id":"126118","url":null},"recName":"Hallett, Cape","confidence":{"state":"pre-added","who":["ml:dpeker"],"prob":0.9416}}}},{"classId":"e_4","part":"s10v1","offsets":[{"start":2394,"text":"Hallett Station"}],"coordinates":[],"confidence":{"state":"pre-added","who":["ml:dpeker"],"prob":0.9558},"fields":{},"normalizations":{"n_34":{"source":{"name":"GeoNamesSCAR","id":"113459","url":null},"recName":"Hallett Station","confidence":{"state":"pre-added","who":["ml:dpeker"],"prob":0.9558}}}},{"classId":"e_4","part":"s10v1","offsets":[{"start":2724,"text":"Spit"}],"coordinates":[],"confidence":{"state":"pre-added","who":["ml:dpeker"],"prob":0.7737},"fields":{},"normalizations":{"n_34":{"source":{"name":"GeoNamesSCAR","id":"114439","url":null},"recName":"Spit","confidence":{"state":"pre-added","who":["ml:dpeker"],"prob":0.7737}}}},{"classId":"e_4","part":"s10v1","offsets":[{"start":2729,"text":"Cape Hallett"}],"coordinates":[],"confidence":{"state":"pre-added","who":["ml:dpeker"],"prob":0.9416},"fields":{},"normalizations":{"n_34":{"source":{"name":"GeoNamesSCAR","id":"126118","url":null},"recName":"Hallett, Cape","confidence":{"state":"pre-added","who":["ml:dpeker"],"prob":0.9416}}}},{"classId":"e_4","part":"s10v1","offsets":[{"start":2828,"text":"Hallett Station"}],"coordinates":[],"confidence":{"state":"pre-added","who":["ml:dpeker"],"prob":0.9558},"fields":{},"normalizations":{"n_34":{"source":{"name":"GeoNamesSCAR","id":"113459","url":null},"recName":"Hallett Station","confidence":{"state":"pre-added","who":["ml:dpeker"],"prob":0.9558}}}},{"classId":"e_4","part":"s10v1","offsets":[{"start":3164,"text":"Cape Bird"}],"coordinates":[],"confidence":{"state":"pre-added","who":["ml:dpeker"],"prob":0.9163},"fields":{},"normalizations":{"n_34":{"source":{"name":"GeoNamesSCAR","id":"122545","url":null},"recName":"Bird, Cape","confidence":{"state":"pre-added","who":["ml:dpeker"],"prob":0.9163}}}},{"classId":"e_4","part":"s10v1","offsets":[{"start":3175,"text":"Ross Island"}],"coordinates":[],"confidence":{"state":"pre-added","who":["ml:dpeker"],"prob":0.9349},"fields":{},"normalizations":{"n_34":{"source":{"name":"GeoNamesSCAR","id":"130958","url":null},"recName":"Ross Island","confidence":{"state":"pre-added","who":["ml:dpeker"],"prob":0.9349}}}},{"classId":"e_4","part":"s10v1","offsets":[{"start":3468,"text":"Keble Valley"}],"coordinates":[],"confidence":{"state":"pre-added","who":["ml:dpeker"],"prob":0.9416},"fields":{},"normalizations":{"n_34":{"source":{"name":"GeoNamesSCAR","id":"134157","url":null},"recName":"Keble Valley","confidence":{"state":"pre-added","who":["ml:dpeker"],"prob":0.9416}}}},{"classId":"e_4","part":"s10v1","offsets":[{"start":3482,"text":"Ross Island"}],"coordinates":[],"confidence":{"state":"pre-added","who":["ml:dpeker"],"prob":0.9349},"fields":{},"normalizations":{"n_34":{"source":{"name":"GeoNamesSCAR","id":"130958","url":null},"recName":"Ross Island","confidence":{"state":"pre-added","who":["ml:dpeker"],"prob":0.9349}}}},{"classId":"e_4","part":"s10v1","offsets":[{"start":3647,"text":"Ross Island"}],"coordinates":[],"confidence":{"state":"pre-added","who":["ml:dpeker"],"prob":0.9349},"fields":{},"normalizations":{"n_34":{"source":{"name":"GeoNamesSCAR","id":"130958","url":null},"recName":"Ross Island","confidence":{"state":"pre-added","who":["ml:dpeker"],"prob":0.9349}}}},{"classId":"e_4","part":"s10v1","offsets":[{"start":3854,"text":"Cape Hallett"}],"coordinates":[],"confidence":{"state":"pre-added","who":["ml:dpeker"],"prob":0.9416},"fields":{},"normalizations":{"n_34":{"source":{"name":"GeoNamesSCAR","id":"126118","url":null},"recName":"Hallett, Cape","confidence":{"state":"pre-added","who":["ml:dpeker"],"prob":0.9416}}}},{"classId":"e_4","part":"s10v1","offsets":[{"start":4074,"text":"Cape Hallett"}],"coordinates":[],"confidence":{"state":"pre-added","who":["ml:dpeker"],"prob":0.9416},"fields":{},"normalizations":{"n_34":{"source":{"name":"GeoNamesSCAR","id":"126118","url":null},"recName":"Hallett, Cape","confidence":{"state":"pre-added","who":["ml:dpeker"],"prob":0.9416}}}},{"classId":"e_38","part":"s10v1","offsets":[{"start":5332,"text":"Maudheimia petronia"}],"coordinates":[],"confidence":{"state":"pre-added","who":["ml:dpeker"],"prob":0.9671},"fields":{},"normalizations":{"n_43":{"source":{"name":"MiteNames","id":"Mapetr","url":null},"recName":"Maudheimia petronia","confidence":{"state":"pre-added","who":["ml:dpeker"],"prob":0.9671}}}},{"classId":"e_4","part":"s10v1","offsets":[{"start":5587,"text":"Cape Hallett"}],"coordinates":[],"confidence":{"state":"pre-added","who":["ml:dpeker"],"prob":0.9416},"fields":{},"normalizations":{"n_34":{"source":{"name":"GeoNamesSCAR","id":"126118","url":null},"recName":"Hallett, Cape","confidence":{"state":"pre-added","who":["ml:dpeker"],"prob":0.9416}}}}],"relations":[{"classId":"r_18","type":"linked","directed":false,"entities":["s2v1|e_4|1870,1881","s3v1|e_1|495,509"],"confidence":{"state":"pre-added","who":["user:ICTAR"],"prob":1}},{"classId":"r_20","type":"linked","directed":false,"entities":["s2v1|e_4|1870,1881","s3v1|e_7|650,667"],"confidence":{"state":"pre-added","who":["user:ICTAR"],"prob":1}},{"classId":"r_20","type":"linked","directed":false,"entities":["s2v1|e_4|1870,1881","s3v1|e_7|679,693"],"confidence":{"state":"pre-added","who":["user:ICTAR"],"prob":1}},{"classId":"r_20","type":"linked","directed":false,"entities":["s2v1|e_4|1870,1881","s3v1|e_7|1419,1428"],"confidence":{"state":"pre-added","who":["user:ICTAR"],"prob":1}},{"classId":"r_20","type":"linked","directed":false,"entities":["s2v1|e_4|1870,1881","s3v1|e_7|1406,1416"],"confidence":{"state":"pre-added","who":["user:ICTAR"],"prob":1}},{"classId":"r_20","type":"linked","directed":false,"entities":["s2v1|e_4|1870,1881","s3v1|e_7|1431,1442"],"confidence":{"state":"pre-added","who":["user:ICTAR"],"prob":1}},{"classId":"r_20","type":"linked","directed":false,"entities":["s2v1|e_4|1870,1881","s3v1|e_7|1445,1456"],"confidence":{"state":"pre-added","who":["user:ICTAR"],"prob":1}},{"classId":"r_20","type":"linked","directed":false,"entities":["s2v1|e_4|1870,1881","s3v1|e_7|1459,1474"],"confidence":{"state":"pre-added","who":["user:ICTAR"],"prob":1}},{"classId":"r_20","type":"linked","directed":false,"entities":["s2v1|e_4|1870,1881","s3v1|e_7|1477,1491"],"confidence":{"state":"pre-added","who":["user:ICTAR"],"prob":1}},{"classId":"r_20","type":"linked","directed":false,"entities":["s2v1|e_4|1870,1881","s3v1|e_7|1507,1518"],"confidence":{"state":"pre-added","who":["user:ICTAR"],"prob":1}},{"classId":"r_20","type":"linked","directed":false,"entities":["s3v1|e_7|1525,1537","s2v1|e_4|1870,1881"],"confidence":{"state":"pre-added","who":["user:ICTAR"],"prob":1}},{"classId":"r_20","type":"linked","directed":false,"entities":["s3v1|e_7|4655,4669","s3v1|e_4|3997,4008"],"confidence":{"state":"pre-added","who":["user:ICTAR"],"prob":1}},{"classId":"r_20","type":"linked","directed":false,"entities":["s3v1|e_7|4671,4681","s3v1|e_4|3997,4008"],"confidence":{"state":"pre-added","who":["user:ICTAR"],"prob":1}},{"classId":"r_20","type":"linked","directed":false,"entities":["s6v1|e_7|1323,1338","s6v1|e_4|1153,1163"],"confidence":{"state":"pre-added","who":["user:ICTAR"],"prob":1}},{"classId":"r_20","type":"linked","directed":false,"entities":["s8v1|e_7|1607,1622","s8v1|e_4|1417,1428"],"confidence":{"state":"pre-added","who":["user:ICTAR"],"prob":1}},{"classId":"r_20","type":"linked","directed":false,"entities":["s8v1|e_7|2518,2528","s8v1|e_4|2643,2654"],"confidence":{"state":"pre-added","who":["user:ICTAR"],"prob":1}},{"classId":"r_20","type":"linked","directed":false,"entities":["s8v1|e_7|2534,2544","s8v1|e_4|2643,2654"],"confidence":{"state":"pre-added","who":["user:ICTAR"],"prob":1}},{"classId":"r_45","type":"linked","directed":false,"entities":["s1v1|e_38|4018,4040","s1v1|e_4|3759,3770"],"confidence":{"state":"pre-added","who":["user:ICTAR"],"prob":1}},{"classId":"r_45","type":"linked","directed":false,"entities":["s1v1|e_38|4043,4055","s1v1|e_4|3759,3770"],"confidence":{"state":"pre-added","who":["user:ICTAR"],"prob":1}},{"classId":"r_45","type":"linked","directed":false,"entities":["s1v1|e_38|4058,4076","s1v1|e_4|3759,3770"],"confidence":{"state":"pre-added","who":["user:ICTAR"],"prob":1}},{"classId":"r_45","type":"linked","directed":false,"entities":["s1v1|e_38|4079,4093","s1v1|e_4|3759,3770"],"confidence":{"state":"pre-added","who":["user:ICTAR"],"prob":1}},{"classId":"r_45","type":"linked","directed":false,"entities":["s1v1|e_38|4097,4114","s1v1|e_4|3759,3770"],"confidence":{"state":"pre-added","who":["user:ICTAR"],"prob":1}},{"classId":"r_45","type":"linked","directed":false,"entities":["s1v1|e_38|4117,4128","s1v1|e_4|3759,3770"],"confidence":{"state":"pre-added","who":["user:ICTAR"],"prob":1}},{"classId":"r_45","type":"linked","directed":false,"entities":["s1v1|e_38|4131,4146","s1v1|e_4|3759,3770"],"confidence":{"state":"pre-added","who":["user:ICTAR"],"prob":1}},{"classId":"r_45","type":"linked","directed":false,"entities":["s1v1|e_38|4152,4159","s1v1|e_4|3759,3770"],"confidence":{"state":"pre-added","who":["user:ICTAR"],"prob":1}},{"classId":"r_45","type":"linked","directed":false,"entities":["s5v1|e_4|884,895","s5v1|e_38|1482,1504"],"confidence":{"state":"pre-added","who":["user:ICTAR"],"prob":1}},{"classId":"r_45","type":"linked","directed":false,"entities":["s5v1|e_4|884,895","s5v1|e_38|1848,1869"],"confidence":{"state":"pre-added","who":["user:ICTAR"],"prob":1}},{"classId":"r_45","type":"linked","directed":false,"entities":["s5v1|e_38|1578,1590","s5v1|e_4|884,895"],"confidence":{"state":"pre-added","who":["user:ICTAR"],"prob":1}},{"classId":"r_45","type":"linked","directed":false,"entities":["s5v1|e_38|1676,1690","s5v1|e_4|884,895"],"confidence":{"state":"pre-added","who":["user:ICTAR"],"prob":1}},{"classId":"r_45","type":"linked","directed":false,"entities":["s5v1|e_38|1762,1779","s5v1|e_4|884,895"],"confidence":{"state":"pre-added","who":["user:ICTAR"],"prob":1}},{"classId":"r_45","type":"linked","directed":false,"entities":["s5v1|e_38|1935,1950","s5v1|e_4|884,895"],"confidence":{"state":"pre-added","who":["user:ICTAR"],"prob":1}},{"classId":"r_45","type":"linked","directed":false,"entities":["s5v1|e_38|2019,2030","s5v1|e_4|884,895"],"confidence":{"state":"pre-added","who":["user:ICTAR"],"prob":1}},{"classId":"r_45","type":"linked","directed":false,"entities":["s6v1|e_38|1437,1459","s6v1|e_4|1153,1163"],"confidence":{"state":"pre-added","who":["user:ICTAR"],"prob":1}},{"classId":"r_45","type":"linked","directed":false,"entities":["s6v1|e_38|1462,1476","s6v1|e_4|1153,1163"],"confidence":{"state":"pre-added","who":["user:ICTAR"],"prob":1}},{"classId":"r_45","type":"linked","directed":false,"entities":["s6v1|e_38|1483,1504","s6v1|e_4|1153,1163"],"confidence":{"state":"pre-added","who":["user:ICTAR"],"prob":1}},{"classId":"r_45","type":"linked","directed":false,"entities":["s6v1|e_4|2970,2981","s6v1|e_38|2984,3002"],"confidence":{"state":"pre-added","who":["user:ICTAR"],"prob":1}},{"classId":"r_45","type":"linked","directed":false,"entities":["s7v1|e_4|1742,1753","s7v1|e_38|1661,1675"],"confidence":{"state":"pre-added","who":["user:ICTAR"],"prob":1}},{"classId":"r_45","type":"linked","directed":false,"entities":["s7v1|e_38|2136,2158","s7v1|e_4|2209,2220"],"confidence":{"state":"pre-added","who":["user:ICTAR"],"prob":1}},{"classId":"r_45","type":"linked","directed":false,"entities":["s7v1|e_38|2164,2176","s7v1|e_4|2209,2220"],"confidence":{"state":"pre-added","who":["user:ICTAR"],"prob":1}},{"classId":"r_45","type":"linked","directed":false,"entities":["s7v1|e_4|2209,2220","s7v1|e_38|2270,2284"],"confidence":{"state":"pre-added","who":["user:ICTAR"],"prob":1}},{"classId":"r_45","type":"linked","directed":false,"entities":["s8v1|e_38|2584,2594","s8v1|e_4|2643,2654"],"confidence":{"state":"pre-added","who":["user:ICTAR"],"prob":1}},{"classId":"r_46","type":"linked","directed":false,"entities":["s1v1|e_39|3936,3961","s1v1|e_4|3759,3770"],"confidence":{"state":"pre-added","who":["user:ICTAR"],"prob":1}},{"classId":"r_46","type":"linked","directed":false,"entities":["s1v1|e_39|3964,3977","s1v1|e_4|3759,3770"],"confidence":{"state":"pre-added","who":["user:ICTAR"],"prob":1}},{"classId":"r_46","type":"linked","directed":false,"entities":["s1v1|e_39|3983,3999","s1v1|e_4|3759,3770"],"confidence":{"state":"pre-added","who":["user:ICTAR"],"prob":1}},{"classId":"r_46","type":"linked","directed":false,"entities":["s2v1|e_39|876,892","s2v1|e_4|933,944"],"confidence":{"state":"pre-added","who":["user:ICTAR"],"prob":1}},{"classId":"r_46","type":"linked","directed":false,"entities":["s5v1|e_39|2094,2119","s5v1|e_4|884,895"],"confidence":{"state":"pre-added","who":["user:ICTAR"],"prob":1}},{"classId":"r_46","type":"linked","directed":false,"entities":["s5v1|e_39|2185,2201","s5v1|e_4|884,895"],"confidence":{"state":"pre-added","who":["user:ICTAR"],"prob":1}},{"classId":"r_46","type":"linked","directed":false,"entities":["s5v1|e_39|2282,2295","s5v1|e_4|884,895"],"confidence":{"state":"pre-added","who":["user:ICTAR"],"prob":1}},{"classId":"r_46","type":"linked","directed":false,"entities":["s6v1|e_39|938,954","s6v1|e_4|371,382"],"confidence":{"state":"pre-added","who":["user:ICTAR"],"prob":1}},{"classId":"r_60","type":"linked","directed":false,"entities":["s1v1|e_38|4018,4040","s2v1|e_5|1776,1795"],"confidence":{"state":"pre-added","who":["user:ICTAR"],"prob":1}},{"classId":"r_60","type":"linked","directed":false,"entities":["s1v1|e_38|4097,4114","s2v1|e_5|1776,1795"],"confidence":{"state":"pre-added","who":["user:ICTAR"],"prob":1}},{"classId":"r_60","type":"linked","directed":false,"entities":["s1v1|e_38|4117,4128","s2v1|e_5|1776,1795"],"confidence":{"state":"pre-added","who":["user:ICTAR"],"prob":1}},{"classId":"r_60","type":"linked","directed":false,"entities":["s1v1|e_38|4152,4159","s2v1|e_5|1776,1795"],"confidence":{"state":"pre-added","who":["user:ICTAR"],"prob":1}},{"classId":"r_60","type":"linked","directed":false,"entities":["s2v1|e_5|1776,1795","s5v1|e_38|1390,1408"],"confidence":{"state":"pre-added","who":["user:ICTAR"],"prob":1}},{"classId":"r_60","type":"linked","directed":false,"entities":["s2v1|e_5|1776,1795","s1v1|e_38|4043,4055"],"confidence":{"state":"pre-added","who":["user:ICTAR"],"prob":1}},{"classId":"r_60","type":"linked","directed":false,"entities":["s2v1|e_5|1776,1795","s1v1|e_38|4079,4093"],"confidence":{"state":"pre-added","who":["user:ICTAR"],"prob":1}},{"classId":"r_60","type":"linked","directed":false,"entities":["s2v1|e_5|1776,1795","s1v1|e_38|4131,4146"],"confidence":{"state":"pre-added","who":["user:ICTAR"],"prob":1}},{"classId":"r_61","type":"linked","directed":false,"entities":["s1v1|e_39|3983,3999","s2v1|e_5|1776,1795"],"confidence":{"state":"pre-added","who":["user:ICTAR"],"prob":1}},{"classId":"r_61","type":"linked","directed":false,"entities":["s2v1|e_5|1776,1795","s1v1|e_39|3936,3961"],"confidence":{"state":"pre-added","who":["user:ICTAR"],"prob":1}},{"classId":"r_61","type":"linked","directed":false,"entities":["s2v1|e_5|1776,1795","s1v1|e_39|3964,3977"],"confidence":{"state":"pre-added","who":["user:ICTAR"],"prob":1}},{"classId":"r_71","type":"linked","directed":false,"entities":["s2v1|e_4|1870,1881","s2v1|e_40|2225,2236"],"confidence":{"state":"pre-added","who":["user:ICTAR"],"prob":1}},{"classId":"r_71","type":"linked","directed":false,"entities":["s2v1|e_4|1870,1881","s3v1|e_40|222,236"],"confidence":{"state":"pre-added","who":["user:ICTAR"],"prob":1}},{"classId":"r_72","type":"linked","directed":false,"entities":["s2v1|e_4|1870,1881","s3v1|e_41|166,179"],"confidence":{"state":"pre-added","who":["user:ICTAR"],"prob":1}}]}