{"annotatable":{"parts":["s1v1","s2v1","s3v1","s4v1","s5v1","s6v1"]},"anncomplete":true,"sources":[],"metas":{"m_14":{"value":true,"confidence":{"state":"pre-added","who":["user:ICTAR"],"prob":1}},"m_16":{"value":"South Victoria Land","confidence":{"state":"pre-added","who":["user:ICTAR"],"prob":1}},"m_76":{"value":true,"confidence":{"state":"pre-added","who":["user:charlesklee"],"prob":1}}},"entities":[{"classId":"e_4","part":"s1v1","offsets":[{"start":102,"text":"Canada Glacier"}],"coordinates":[],"confidence":{"state":"pre-added","who":["ml:dpeker"],"prob":0.9518},"fields":{},"normalizations":{"n_34":{"source":{"name":"GeoNamesSCAR","id":"123257","url":null},"recName":"Canada Glacier","confidence":{"state":"pre-added","who":["ml:dpeker"],"prob":0.9518}}}},{"classId":"e_4","part":"s1v1","offsets":[{"start":605,"text":"Canada  Glacier"}],"coordinates":[],"confidence":{"state":"pre-added","who":["ml:dpeker"],"prob":0.8249},"fields":{},"normalizations":{"n_34":{"source":{"name":"GeoNamesSCAR","id":"123257","url":null},"recName":"Canada Glacier","confidence":{"state":"pre-added","who":["ml:dpeker"],"prob":0.8249}}}},{"classId":"e_4","part":"s1v1","offsets":[{"start":2272,"text":"Ross Ice Shelf"}],"coordinates":[],"confidence":{"state":"pre-added","who":["ml:dpeker"],"prob":0.9518},"fields":{},"normalizations":{"n_34":{"source":{"name":"GeoNamesSCAR","id":"130957","url":null},"recName":"Ross Ice Shelf","confidence":{"state":"pre-added","who":["ml:dpeker"],"prob":0.9518}}}},{"classId":"e_4","part":"s1v1","offsets":[{"start":2535,"text":"Canada  Glacier"}],"coordinates":[],"confidence":{"state":"pre-added","who":["ml:dpeker"],"prob":0.8249},"fields":{},"normalizations":{"n_34":{"source":{"name":"GeoNamesSCAR","id":"123257","url":null},"recName":"Canada Glacier","confidence":{"state":"pre-added","who":["ml:dpeker"],"prob":0.8249}}}},{"classId":"e_4","part":"s1v1","offsets":[{"start":2804,"text":"Site of Special Scientific Interest (S.S.S.I) No. 12"}],"coordinates":[{"x":"414.12","y":"391.04"},{"x":"368.55","y":"407.44"}],"confidence":{"state":"pre-added","who":["user:ICTAR"],"prob":1},"fields":{},"normalizations":{"n_34":{"source":{"name":"GeoNamesSCAR","id":"112928","url":null},"recName":"","confidence":{"state":"pre-added","who":["user:charlesklee"],"prob":1}}}},{"classId":"e_4","part":"s1v1","offsets":[{"start":2913,"text":"Canada  Glacier"}],"coordinates":[],"confidence":{"state":"pre-added","who":["ml:dpeker"],"prob":0.8249},"fields":{},"normalizations":{"n_34":{"source":{"name":"GeoNamesSCAR","id":"123257","url":null},"recName":"Canada Glacier","confidence":{"state":"pre-added","who":["ml:dpeker"],"prob":0.8249}}}},{"classId":"e_4","part":"s1v1","offsets":[{"start":3136,"text":"Canada  Glacier"}],"coordinates":[],"confidence":{"state":"pre-added","who":["ml:dpeker"],"prob":0.8249},"fields":{},"normalizations":{"n_34":{"source":{"name":"GeoNamesSCAR","id":"123257","url":null},"recName":"Canada Glacier","confidence":{"state":"pre-added","who":["ml:dpeker"],"prob":0.8249}}}},{"classId":"e_41","part":"s1v1","offsets":[{"start":4425,"text":"Nostoc spp."}],"coordinates":[{"x":"322.92","y":"723.15"},{"x":"373.81","y":"728.56"}],"confidence":{"state":"pre-added","who":["user:ICTAR"],"prob":1},"fields":{},"normalizations":{"n_55":{"source":{"name":"CyanobacteriaNames","id":"nostsp","url":null},"recName":"","confidence":{"state":"pre-added","who":["user:ICTAR"],"prob":1}}}},{"classId":"e_1","part":"s1v1","offsets":[{"start":4467,"text":"Bryum argenteum"}],"coordinates":[],"confidence":{"state":"pre-added","who":["ml:dpeker"],"prob":0.9558},"fields":{},"normalizations":{"n_32":{"source":{"name":"MossNames","id":"Brarge","url":null},"recName":"Bryum argenteum","confidence":{"state":"pre-added","who":["ml:dpeker"],"prob":0.9558}}}},{"classId":"e_1","part":"s2v1","offsets":[{"start":70,"text":"B. argenteum"}],"coordinates":[{"x":"230.04","y":"65.83"},{"x":"282.56","y":"71.24"}],"confidence":{"state":"pre-added","who":["user:ICTAR"],"prob":1},"fields":{},"normalizations":{"n_32":{"source":{"name":"MossNames","id":"Brarge","url":null},"recName":"","confidence":{"state":"pre-added","who":["user:ICTAR"],"prob":1}}}},{"classId":"e_1","part":"s2v1","offsets":[{"start":89,"text":"Pottia heimii"}],"coordinates":[{"x":"54.60","y":"76.87"},{"x":"106.61","y":"82.28"}],"confidence":{"state":"pre-added","who":["user:ICTAR"],"prob":1},"fields":{},"normalizations":{"n_32":{"source":{"name":"MossNames","id":"Heheim","url":null},"recName":"","confidence":{"state":"pre-added","who":["user:ICTAR"],"prob":1}}}},{"classId":"e_1","part":"s2v1","offsets":[{"start":269,"text":"P. heimii."}],"coordinates":[{"x":"143.40","y":"99.19"},{"x":"183.67","y":"104.60"}],"confidence":{"state":"pre-added","who":["user:ICTAR"],"prob":1},"fields":{},"normalizations":{"n_32":{"source":{"name":"MossNames","id":"Heheim","url":null},"recName":"","confidence":{"state":"pre-added","who":["user:ICTAR"],"prob":1}}}},{"classId":"e_1","part":"s2v1","offsets":[{"start":372,"text":"P. heimii"}],"coordinates":[{"x":"206.04","y":"110.23"},{"x":"240.66","y":"115.64"}],"confidence":{"state":"pre-added","who":["user:ICTAR"],"prob":1},"fields":{},"normalizations":{"n_32":{"source":{"name":"MossNames","id":"Heheim","url":null},"recName":"","confidence":{"state":"pre-added","who":["user:ICTAR"],"prob":1}}}},{"classId":"e_4","part":"s2v1","offsets":[{"start":2591,"text":"days"}],"coordinates":[],"confidence":{"state":"pre-added","who":["ml:dpeker"],"prob":0.4836},"fields":{},"normalizations":{"n_34":{"source":{"name":"GeoNamesSCAR","id":"124046","url":null},"recName":"Dais","confidence":{"state":"pre-added","who":["ml:dpeker"],"prob":0.4836}}}},{"classId":"e_4","part":"s3v1","offsets":[{"start":494,"text":"Day"}],"coordinates":[],"confidence":{"state":"pre-added","who":["ml:dpeker"],"prob":0.3413},"fields":{},"normalizations":{"n_34":{"source":{"name":"GeoNamesSCAR","id":"124046","url":null},"recName":"Dais","confidence":{"state":"pre-added","who":["ml:dpeker"],"prob":0.3413}}}},{"classId":"e_4","part":"s3v1","offsets":[{"start":1195,"text":"Site of Special Scientific Interest No. 12"}],"coordinates":[{"x":"167.56","y":"339.47"},{"x":"69.66","y":"354.64"}],"confidence":{"state":"pre-added","who":["user:ICTAR"],"prob":1},"fields":{},"normalizations":{"n_34":{"source":{"name":"GeoNamesSCAR","id":"112928","url":null},"recName":"","confidence":{"state":"pre-added","who":["user:charlesklee"],"prob":1}}}},{"classId":"e_49","part":"s3v1","offsets":[{"start":1436,"text":"Philodina sp."}],"coordinates":[{"x":"216.76","y":"412.94"},{"x":"262.79","y":"418.48"}],"confidence":{"state":"pre-added","who":["user:ICTAR"],"prob":1},"fields":{},"normalizations":{"n_53":{"source":{"name":"RotiferNames","id":"philsp","url":null},"recName":"","confidence":{"state":"pre-added","who":["user:charlesklee"],"prob":1}}}},{"classId":"e_49","part":"s3v1","offsets":[{"start":1450,"text":"Habrotrocha sp."}],"coordinates":[{"x":"216.76","y":"422.54"},{"x":"274.55","y":"428.08"}],"confidence":{"state":"pre-added","who":["user:ICTAR"],"prob":1},"fields":{},"normalizations":{"n_53":{"source":{"name":"RotiferNames","id":"habrsp","url":null},"recName":"","confidence":{"state":"pre-added","who":["user:charlesklee"],"prob":1}}}},{"classId":"e_49","part":"s3v1","offsets":[{"start":1466,"text":"Epiphanes sp."}],"coordinates":[{"x":"217.00","y":"432.14"},{"x":"265.43","y":"437.68"}],"confidence":{"state":"pre-added","who":["user:ICTAR"],"prob":1},"fields":{},"normalizations":{"n_53":{"source":{"name":"RotiferNames","id":"epipsp","url":null},"recName":"","confidence":{"state":"pre-added","who":["user:charlesklee"],"prob":1}}}},{"classId":"e_2","part":"s3v1","offsets":[{"start":1480,"text":"Plectus spp"}],"coordinates":[],"confidence":{"state":"pre-added","who":["ml:dpeker"],"prob":0.8842},"fields":{},"normalizations":{"n_33":{"source":{"name":"NematodeNames","id":"Plecsp","url":null},"recName":"Plectus spp.","confidence":{"state":"pre-added","who":["ml:dpeker"],"prob":0.8842}}}},{"classId":"e_48","part":"s3v1","offsets":[{"start":1493,"text":"Macrobiotus spp."}],"coordinates":[{"x":"217.24","y":"451.10"},{"x":"278.42","y":"456.64"}],"confidence":{"state":"pre-added","who":["user:ICTAR"],"prob":1},"fields":{},"normalizations":{"n_51":{"source":{"name":"TardigradeNames","id":"macrsp","url":null},"recName":"","confidence":{"state":"pre-added","who":["user:charlesklee"],"prob":1}}}},{"classId":"e_38","part":"s3v1","offsets":[{"start":1510,"text":"Stereotydeus spp."}],"coordinates":[{"x":"216.76","y":"460.94"},{"x":"278.42","y":"466.48"}],"confidence":{"state":"pre-added","who":["user:ICTAR"],"prob":1},"fields":{},"normalizations":{"n_43":{"source":{"name":"MiteNames","id":"Stersp","url":null},"recName":"","confidence":{"state":"pre-added","who":["user:ICTAR"],"prob":1}}}},{"classId":"e_1","part":"s3v1","offsets":[{"start":1664,"text":"Bryum argenteum"}],"coordinates":[],"confidence":{"state":"pre-added","who":["ml:dpeker"],"prob":0.9558},"fields":{},"normalizations":{"n_32":{"source":{"name":"MossNames","id":"Brarge","url":null},"recName":"Bryum argenteum","confidence":{"state":"pre-added","who":["ml:dpeker"],"prob":0.9558}}}},{"classId":"e_4","part":"s3v1","offsets":[{"start":2132,"text":"days"}],"coordinates":[],"confidence":{"state":"pre-added","who":["ml:dpeker"],"prob":0.4836},"fields":{},"normalizations":{"n_34":{"source":{"name":"GeoNamesSCAR","id":"124046","url":null},"recName":"Dais","confidence":{"state":"pre-added","who":["ml:dpeker"],"prob":0.4836}}}},{"classId":"e_38","part":"s3v1","offsets":[{"start":2338,"text":"Stereotydeus mollis"}],"coordinates":[],"confidence":{"state":"pre-added","who":["ml:dpeker"],"prob":0.9671},"fields":{},"normalizations":{"n_43":{"source":{"name":"MiteNames","id":"Stmoll","url":null},"recName":"Stereotydeus mollis","confidence":{"state":"pre-added","who":["ml:dpeker"],"prob":0.9671}}}},{"classId":"e_4","part":"s3v1","offsets":[{"start":2368,"text":"Canada  Glacier"}],"coordinates":[],"confidence":{"state":"pre-added","who":["ml:dpeker"],"prob":0.8249},"fields":{},"normalizations":{"n_34":{"source":{"name":"GeoNamesSCAR","id":"123257","url":null},"recName":"Canada Glacier","confidence":{"state":"pre-added","who":["ml:dpeker"],"prob":0.8249}}}},{"classId":"e_4","part":"s3v1","offsets":[{"start":2671,"text":"Howa r d  Glaciers"}],"coordinates":[],"confidence":{"state":"pre-added","who":["ml:dpeker"],"prob":0.5817},"fields":{},"normalizations":{"n_34":{"source":{"name":"GeoNamesSCAR","id":"126761","url":null},"recName":"Howard Glacier","confidence":{"state":"pre-added","who":["ml:dpeker"],"prob":0.5817}}}},{"classId":"e_4","part":"s4v1","offsets":[{"start":2135,"text":"Canada  Glacier"}],"coordinates":[],"confidence":{"state":"pre-added","who":["ml:dpeker"],"prob":0.8249},"fields":{},"normalizations":{"n_34":{"source":{"name":"GeoNamesSCAR","id":"123257","url":null},"recName":"Canada Glacier","confidence":{"state":"pre-added","who":["ml:dpeker"],"prob":0.8249}}}},{"classId":"e_4","part":"s4v1","offsets":[{"start":2335,"text":"Ross Island"}],"coordinates":[],"confidence":{"state":"pre-added","who":["ml:dpeker"],"prob":0.9349},"fields":{},"normalizations":{"n_34":{"source":{"name":"GeoNamesSCAR","id":"130958","url":null},"recName":"Ross Island","confidence":{"state":"pre-added","who":["ml:dpeker"],"prob":0.9349}}}},{"classId":"e_4","part":"s4v1","offsets":[{"start":2872,"text":"Lake Fryxell"}],"coordinates":[],"confidence":{"state":"pre-added","who":["ml:dpeker"],"prob":0.9416},"fields":{},"normalizations":{"n_34":{"source":{"name":"GeoNamesSCAR","id":"125440","url":null},"recName":"Fryxell, Lake","confidence":{"state":"pre-added","who":["ml:dpeker"],"prob":0.9416}}}},{"classId":"e_4","part":"s4v1","offsets":[{"start":3468,"text":"Canada  Glacier"}],"coordinates":[],"confidence":{"state":"pre-added","who":["ml:dpeker"],"prob":0.8249},"fields":{},"normalizations":{"n_34":{"source":{"name":"GeoNamesSCAR","id":"123257","url":null},"recName":"Canada Glacier","confidence":{"state":"pre-added","who":["ml:dpeker"],"prob":0.8249}}}},{"classId":"e_4","part":"s4v1","offsets":[{"start":3637,"text":"Taylor  Valley"}],"coordinates":[],"confidence":{"state":"pre-added","who":["ml:dpeker"],"prob":0.8118},"fields":{},"normalizations":{"n_34":{"source":{"name":"GeoNamesSCAR","id":"132512","url":null},"recName":"Taylor Valley","confidence":{"state":"pre-added","who":["ml:dpeker"],"prob":0.8118}}}},{"classId":"e_4","part":"s4v1","offsets":[{"start":4099,"text":"Ross Island"}],"coordinates":[],"confidence":{"state":"pre-added","who":["ml:dpeker"],"prob":0.9349},"fields":{},"normalizations":{"n_34":{"source":{"name":"GeoNamesSCAR","id":"130958","url":null},"recName":"Ross Island","confidence":{"state":"pre-added","who":["ml:dpeker"],"prob":0.9349}}}},{"classId":"e_4","part":"s4v1","offsets":[{"start":4112,"text":"McMu r do  Dry  Valleys"}],"coordinates":[],"confidence":{"state":"pre-added","who":["ml:dpeker"],"prob":0.6307},"fields":{},"normalizations":{"n_34":{"source":{"name":"GeoNamesSCAR","id":"113892","url":null},"recName":"McMurdo Dry Valleys","confidence":{"state":"pre-added","who":["ml:dpeker"],"prob":0.6307}}}},{"classId":"e_4","part":"s5v1","offsets":[{"start":1571,"text":"Ross  Ice Shelf"}],"coordinates":[],"confidence":{"state":"pre-added","who":["ml:dpeker"],"prob":0.8249},"fields":{},"normalizations":{"n_34":{"source":{"name":"GeoNamesSCAR","id":"130957","url":null},"recName":"Ross Ice Shelf","confidence":{"state":"pre-added","who":["ml:dpeker"],"prob":0.8249}}}},{"classId":"e_47","part":"s5v1","offsets":[{"start":3640,"text":"We t t er  zones  of  the Fryxell  flush had  significantly higher  numbe r s  of  nema t odes  t han  the driest zone."}],"coordinates":[{"x":"57.60","y":"642.03"},{"x":"272.51","y":"658.16"}],"confidence":{"state":"pre-added","who":["user:ICTAR"],"prob":1},"fields":{},"normalizations":{}},{"classId":"e_4","part":"s5v1","offsets":[{"start":3807,"text":"M c Mu r do  Sound"}],"coordinates":[],"confidence":{"state":"pre-added","who":["ml:dpeker"],"prob":0.421},"fields":{},"normalizations":{"n_34":{"source":{"name":"GeoNamesSCAR","id":"128724","url":null},"recName":"McMurdo Sound","confidence":{"state":"pre-added","who":["ml:dpeker"],"prob":0.421}}}},{"classId":"e_47","part":"s5v1","offsets":[{"start":4014,"text":"algal samples  con t a i ned  grea t er  numbe r s  of  nema t odes  t han  moss  sam-  ples."}],"coordinates":[{"x":"227.28","y":"697.23"},{"x":"59.84","y":"724.16"}],"confidence":{"state":"pre-added","who":["user:ICTAR"],"prob":1},"fields":{},"normalizations":{}},{"classId":"e_4","part":"s5v1","offsets":[{"start":5190,"text":"McMurdo Sound"}],"coordinates":[],"confidence":{"state":"pre-added","who":["ml:dpeker"],"prob":0.9472},"fields":{},"normalizations":{"n_34":{"source":{"name":"GeoNamesSCAR","id":"128724","url":null},"recName":"McMurdo Sound","confidence":{"state":"pre-added","who":["ml:dpeker"],"prob":0.9472}}}},{"classId":"e_4","part":"s6v1","offsets":[{"start":311,"text":"Canada Glacier"}],"coordinates":[],"confidence":{"state":"pre-added","who":["ml:dpeker"],"prob":0.9518},"fields":{},"normalizations":{"n_34":{"source":{"name":"GeoNamesSCAR","id":"123257","url":null},"recName":"Canada Glacier","confidence":{"state":"pre-added","who":["ml:dpeker"],"prob":0.9518}}}},{"classId":"e_38","part":"s6v1","offsets":[{"start":695,"text":"Stereotydeus mollis"}],"coordinates":[],"confidence":{"state":"pre-added","who":["ml:dpeker"],"prob":0.9671},"fields":{},"normalizations":{"n_43":{"source":{"name":"MiteNames","id":"Stmoll","url":null},"recName":"Stereotydeus mollis","confidence":{"state":"pre-added","who":["ml:dpeker"],"prob":0.9671}}}},{"classId":"e_4","part":"s6v1","offsets":[{"start":882,"text":"Ross Ice Shelf"}],"coordinates":[],"confidence":{"state":"pre-added","who":["ml:dpeker"],"prob":0.9518},"fields":{},"normalizations":{"n_34":{"source":{"name":"GeoNamesSCAR","id":"130957","url":null},"recName":"Ross Ice Shelf","confidence":{"state":"pre-added","who":["ml:dpeker"],"prob":0.9518}}}},{"classId":"e_4","part":"s6v1","offsets":[{"start":1171,"text":"McMurdo Sound"}],"coordinates":[],"confidence":{"state":"pre-added","who":["ml:dpeker"],"prob":0.9472},"fields":{},"normalizations":{"n_34":{"source":{"name":"GeoNamesSCAR","id":"128724","url":null},"recName":"McMurdo Sound","confidence":{"state":"pre-added","who":["ml:dpeker"],"prob":0.9472}}}},{"classId":"e_4","part":"s6v1","offsets":[{"start":1657,"text":"McMurdo Sound"}],"coordinates":[],"confidence":{"state":"pre-added","who":["ml:dpeker"],"prob":0.9472},"fields":{},"normalizations":{"n_34":{"source":{"name":"GeoNamesSCAR","id":"128724","url":null},"recName":"McMurdo Sound","confidence":{"state":"pre-added","who":["ml:dpeker"],"prob":0.9472}}}}],"relations":[{"classId":"r_18","type":"linked","directed":false,"entities":["s1v1|e_4|2804,2855","s1v1|e_1|4467,4481"],"confidence":{"state":"pre-added","who":["user:ICTAR"],"prob":1}},{"classId":"r_18","type":"linked","directed":false,"entities":["s1v1|e_4|2804,2855","s2v1|e_1|70,81"],"confidence":{"state":"pre-added","who":["user:ICTAR"],"prob":1}},{"classId":"r_18","type":"linked","directed":false,"entities":["s1v1|e_4|2804,2855","s2v1|e_1|269,278"],"confidence":{"state":"pre-added","who":["user:ICTAR"],"prob":1}},{"classId":"r_18","type":"linked","directed":false,"entities":["s1v1|e_4|2913,2927","s2v1|e_1|89,101"],"confidence":{"state":"pre-added","who":["user:ICTAR"],"prob":1}},{"classId":"r_18","type":"linked","directed":false,"entities":["s1v1|e_4|2913,2927","s2v1|e_1|372,380"],"confidence":{"state":"pre-added","who":["user:ICTAR"],"prob":1}},{"classId":"r_18","type":"linked","directed":false,"entities":["s1v1|e_1|4467,4481","s1v1|e_4|2913,2927"],"confidence":{"state":"pre-added","who":["user:ICTAR"],"prob":1}},{"classId":"r_18","type":"linked","directed":false,"entities":["s2v1|e_1|70,81","s1v1|e_4|2913,2927"],"confidence":{"state":"pre-added","who":["user:ICTAR"],"prob":1}},{"classId":"r_18","type":"linked","directed":false,"entities":["s2v1|e_1|89,101","s1v1|e_4|2804,2855"],"confidence":{"state":"pre-added","who":["user:ICTAR"],"prob":1}},{"classId":"r_18","type":"linked","directed":false,"entities":["s2v1|e_1|269,278","s1v1|e_4|2913,2927"],"confidence":{"state":"pre-added","who":["user:ICTAR"],"prob":1}},{"classId":"r_18","type":"linked","directed":false,"entities":["s2v1|e_1|372,380","s1v1|e_4|2804,2855"],"confidence":{"state":"pre-added","who":["user:ICTAR"],"prob":1}},{"classId":"r_22","type":"linked","directed":false,"entities":["s3v1|e_4|1195,1236","s3v1|e_2|1480,1490"],"confidence":{"state":"pre-added","who":["user:ICTAR"],"prob":1}},{"classId":"r_45","type":"linked","directed":false,"entities":["s3v1|e_4|1195,1236","s3v1|e_38|1510,1526"],"confidence":{"state":"pre-added","who":["user:ICTAR"],"prob":1}},{"classId":"r_45","type":"linked","directed":false,"entities":["s3v1|e_38|2338,2356","s3v1|e_4|2368,2382"],"confidence":{"state":"pre-added","who":["user:ICTAR"],"prob":1}},{"classId":"r_58","type":"linked","directed":false,"entities":["s3v1|e_4|1195,1236","s3v1|e_48|1493,1508"],"confidence":{"state":"pre-added","who":["user:ICTAR"],"prob":1}},{"classId":"r_59","type":"linked","directed":false,"entities":["s3v1|e_4|1195,1236","s3v1|e_49|1436,1448"],"confidence":{"state":"pre-added","who":["user:ICTAR"],"prob":1}},{"classId":"r_59","type":"linked","directed":false,"entities":["s3v1|e_4|1195,1236","s3v1|e_49|1450,1464"],"confidence":{"state":"pre-added","who":["user:ICTAR"],"prob":1}},{"classId":"r_59","type":"linked","directed":false,"entities":["s3v1|e_4|1195,1236","s3v1|e_49|1466,1478"],"confidence":{"state":"pre-added","who":["user:ICTAR"],"prob":1}},{"classId":"r_72","type":"linked","directed":false,"entities":["s1v1|e_4|2804,2855","s1v1|e_41|4425,4435"],"confidence":{"state":"pre-added","who":["user:ICTAR"],"prob":1}},{"classId":"r_72","type":"linked","directed":false,"entities":["s1v1|e_41|4425,4435","s1v1|e_4|2913,2927"],"confidence":{"state":"pre-added","who":["user:ICTAR"],"prob":1}}]}