{"annotatable":{"parts":["s1v1","s2v1","s3v1","s4v1","s5v1","s6v1","s7v1","s8v1","s9v1","s10v1","s11v1","s12v1"]},"anncomplete":true,"sources":[],"metas":{"m_10":{"value":true,"confidence":{"state":"pre-added","who":["user:ICTAR"],"prob":1}},"m_9":{"value":false,"confidence":{"state":"pre-added","who":["user:ICTAR"],"prob":1}},"m_11":{"value":false,"confidence":{"state":"pre-added","who":["user:ICTAR"],"prob":1}},"m_14":{"value":true,"confidence":{"state":"pre-added","who":["user:ICTAR"],"prob":1}},"m_16":{"value":"Transantarctic Mountains","confidence":{"state":"pre-added","who":["user:ICTAR"],"prob":1}}},"entities":[{"classId":"e_2","part":"s1v1","offsets":[{"start":88,"text":"Scottnema lindsayae"}],"coordinates":[],"confidence":{"state":"pre-added","who":["ml:dpeker"],"prob":0.9671},"fields":{},"normalizations":{"n_33":{"source":{"name":"NematodeNames","id":"Sclind","url":null},"recName":"Scottnema lindsayae","confidence":{"state":"pre-added","who":["ml:dpeker"],"prob":0.9671}}}},{"classId":"e_4","part":"s1v1","offsets":[{"start":2704,"text":"Darwin Glacier"}],"coordinates":[],"confidence":{"state":"pre-added","who":["ml:dpeker"],"prob":0.9518},"fields":{},"normalizations":{"n_34":{"source":{"name":"GeoNames","id":"124112","url":null},"recName":"Darwin Glacier","confidence":{"state":"pre-added","who":["ml:dpeker"],"prob":0.9518}}}},{"classId":"e_4","part":"s1v1","offsets":[{"start":3054,"text":"Darwin Glacier"}],"coordinates":[],"confidence":{"state":"pre-added","who":["ml:dpeker"],"prob":0.9518},"fields":{},"normalizations":{"n_34":{"source":{"name":"GeoNames","id":"124112","url":null},"recName":"Darwin Glacier","confidence":{"state":"pre-added","who":["ml:dpeker"],"prob":0.9518}}}},{"classId":"e_2","part":"s1v1","offsets":[{"start":3171,"text":"Scottnema lindsayae"}],"coordinates":[],"confidence":{"state":"pre-added","who":["ml:dpeker"],"prob":0.9671},"fields":{},"normalizations":{"n_33":{"source":{"name":"NematodeNames","id":"Sclind","url":null},"recName":"Scottnema lindsayae","confidence":{"state":"pre-added","who":["ml:dpeker"],"prob":0.9671}}}},{"classId":"e_4","part":"s1v1","offsets":[{"start":3910,"text":"Darwin Glacier"}],"coordinates":[],"confidence":{"state":"pre-added","who":["ml:dpeker"],"prob":0.9518},"fields":{},"normalizations":{"n_34":{"source":{"name":"GeoNames","id":"124112","url":null},"recName":"Darwin Glacier","confidence":{"state":"pre-added","who":["ml:dpeker"],"prob":0.9518}}}},{"classId":"e_2","part":"s2v1","offsets":[{"start":125,"text":"Scottnema lindsayae"}],"coordinates":[],"confidence":{"state":"pre-added","who":["ml:dpeker"],"prob":0.9671},"fields":{},"normalizations":{"n_33":{"source":{"name":"NematodeNames","id":"Sclind","url":null},"recName":"Scottnema lindsayae","confidence":{"state":"pre-added","who":["ml:dpeker"],"prob":0.9671}}}},{"classId":"e_4","part":"s2v1","offsets":[{"start":222,"text":"McMurdo Dry Valleys"}],"coordinates":[],"confidence":{"state":"pre-added","who":["ml:dpeker"],"prob":0.9671},"fields":{},"normalizations":{"n_34":{"source":{"name":"GeoNames","id":"113892","url":null},"recName":"McMurdo Dry Valleys","confidence":{"state":"pre-added","who":["ml:dpeker"],"prob":0.9671}}}},{"classId":"e_4","part":"s2v1","offsets":[{"start":563,"text":"McMurdo Dry  Valleys"}],"coordinates":[],"confidence":{"state":"pre-added","who":["ml:dpeker"],"prob":0.8704},"fields":{},"normalizations":{"n_34":{"source":{"name":"GeoNames","id":"113892","url":null},"recName":"McMurdo Dry Valleys","confidence":{"state":"pre-added","who":["ml:dpeker"],"prob":0.8704}}}},{"classId":"e_4","part":"s2v1","offsets":[{"start":937,"text":"Dar- win Mountains"}],"coordinates":[],"confidence":{"state":"pre-added","who":["ml:dpeker"],"prob":0.818},"fields":{},"normalizations":{"n_34":{"source":{"name":"GeoNames","id":"1673","url":null},"recName":"Darwin Mountains","confidence":{"state":"pre-added","who":["ml:dpeker"],"prob":0.818}}}},{"classId":"e_4","part":"s2v1","offsets":[{"start":1084,"text":"Darwin Mountains"}],"coordinates":[],"confidence":{"state":"pre-added","who":["ml:dpeker"],"prob":0.9592},"fields":{},"normalizations":{"n_34":{"source":{"name":"GeoNames","id":"1673","url":null},"recName":"Darwin Mountains","confidence":{"state":"pre-added","who":["ml:dpeker"],"prob":0.9592}}}},{"classId":"e_4","part":"s2v1","offsets":[{"start":1368,"text":"Darwin Glacier"}],"coordinates":[],"confidence":{"state":"pre-added","who":["ml:dpeker"],"prob":0.9518},"fields":{},"normalizations":{"n_34":{"source":{"name":"GeoNames","id":"124112","url":null},"recName":"Darwin Glacier","confidence":{"state":"pre-added","who":["ml:dpeker"],"prob":0.9518}}}},{"classId":"e_4","part":"s2v1","offsets":[{"start":1524,"text":"Darwin Glaciers"}],"coordinates":[],"confidence":{"state":"pre-added","who":["ml:dpeker"],"prob":0.8884},"fields":{},"normalizations":{"n_34":{"source":{"name":"GeoNames","id":"124112","url":null},"recName":"Darwin Glacier","confidence":{"state":"pre-added","who":["ml:dpeker"],"prob":0.8884}}}},{"classId":"e_4","part":"s2v1","offsets":[{"start":1670,"text":"Darwin Glacier"}],"coordinates":[],"confidence":{"state":"pre-added","who":["ml:dpeker"],"prob":0.9518},"fields":{},"normalizations":{"n_34":{"source":{"name":"GeoNames","id":"124112","url":null},"recName":"Darwin Glacier","confidence":{"state":"pre-added","who":["ml:dpeker"],"prob":0.9518}}}},{"classId":"e_4","part":"s2v1","offsets":[{"start":4529,"text":"Diamond Hill"}],"coordinates":[],"confidence":{"state":"pre-added","who":["ml:dpeker"],"prob":0.8851},"fields":{},"normalizations":{"n_34":{"source":{"name":"GeoNames","id":"717","url":null},"recName":"Diamond Hill","confidence":{"state":"pre-added","who":["ml:dpeker"],"prob":0.8851}}}},{"classId":"e_4","part":"s2v1","offsets":[{"start":4642,"text":"Darwin Glacier"}],"coordinates":[],"confidence":{"state":"pre-added","who":["ml:dpeker"],"prob":0.9518},"fields":{},"normalizations":{"n_34":{"source":{"name":"GeoNames","id":"124112","url":null},"recName":"Darwin Glacier","confidence":{"state":"pre-added","who":["ml:dpeker"],"prob":0.9518}}}},{"classId":"e_4","part":"s2v1","offsets":[{"start":4748,"text":"Diamond Hill"}],"coordinates":[],"confidence":{"state":"pre-added","who":["ml:dpeker"],"prob":0.8851},"fields":{},"normalizations":{"n_34":{"source":{"name":"GeoNames","id":"717","url":null},"recName":"Diamond Hill","confidence":{"state":"pre-added","who":["ml:dpeker"],"prob":0.8851}}}},{"classId":"e_4","part":"s2v1","offsets":[{"start":5076,"text":"Darwin Glacier"}],"coordinates":[],"confidence":{"state":"pre-added","who":["ml:dpeker"],"prob":0.9518},"fields":{},"normalizations":{"n_34":{"source":{"name":"GeoNames","id":"124112","url":null},"recName":"Darwin Glacier","confidence":{"state":"pre-added","who":["ml:dpeker"],"prob":0.9518}}}},{"classId":"e_4","part":"s2v1","offsets":[{"start":5123,"text":"Diamond Hill"}],"coordinates":[],"confidence":{"state":"pre-added","who":["ml:dpeker"],"prob":0.8851},"fields":{},"normalizations":{"n_34":{"source":{"name":"GeoNames","id":"717","url":null},"recName":"Diamond Hill","confidence":{"state":"pre-added","who":["ml:dpeker"],"prob":0.8851}}}},{"classId":"e_4","part":"s2v1","offsets":[{"start":5174,"text":"Bartrum Basin"}],"coordinates":[{"x":"445.93","y":"589.71"},{"x":"504.60","y":"594.60"}],"confidence":{"state":"pre-added","who":["user:ICTAR"],"prob":1},"fields":{},"normalizations":{}},{"classId":"e_4","part":"s2v1","offsets":[{"start":5247,"text":"Brown Hills"}],"coordinates":[],"confidence":{"state":"pre-added","who":["ml:dpeker"],"prob":0.9349},"fields":{},"normalizations":{"n_34":{"source":{"name":"GeoNames","id":"693","url":null},"recName":"Brown Hills","confidence":{"state":"pre-added","who":["ml:dpeker"],"prob":0.9349}}}},{"classId":"e_4","part":"s2v1","offsets":[{"start":5305,"text":"moun- tain ranges"}],"coordinates":[],"confidence":{"state":"pre-added","who":["ml:dpeker"],"prob":0.5292},"fields":{},"normalizations":{"n_34":{"source":{"name":"GeoNames","id":"129157","url":null},"recName":"Mountaineer Range","confidence":{"state":"pre-added","who":["ml:dpeker"],"prob":0.5292}}}},{"classId":"e_4","part":"s2v1","offsets":[{"start":5345,"text":"Diamond Hill"}],"coordinates":[],"confidence":{"state":"pre-added","who":["ml:dpeker"],"prob":0.8851},"fields":{},"normalizations":{"n_34":{"source":{"name":"GeoNames","id":"717","url":null},"recName":"Diamond Hill","confidence":{"state":"pre-added","who":["ml:dpeker"],"prob":0.8851}}}},{"classId":"e_4","part":"s2v1","offsets":[{"start":5396,"text":"Transantarctic Mountains"}],"coordinates":[],"confidence":{"state":"pre-added","who":["ml:dpeker"],"prob":0.9754},"fields":{},"normalizations":{"n_34":{"source":{"name":"GeoNames","id":"132843","url":null},"recName":"Transantarctic Mountains","confidence":{"state":"pre-added","who":["ml:dpeker"],"prob":0.9754}}}},{"classId":"e_4","part":"s2v1","offsets":[{"start":5435,"text":"Ross Ice Shelf"}],"coordinates":[],"confidence":{"state":"pre-added","who":["ml:dpeker"],"prob":0.9518},"fields":{},"normalizations":{"n_34":{"source":{"name":"GeoNames","id":"130957","url":null},"recName":"Ross Ice Shelf","confidence":{"state":"pre-added","who":["ml:dpeker"],"prob":0.9518}}}},{"classId":"e_4","part":"s2v1","offsets":[{"start":5490,"text":"Darwin Glacier"}],"coordinates":[],"confidence":{"state":"pre-added","who":["ml:dpeker"],"prob":0.9518},"fields":{},"normalizations":{"n_34":{"source":{"name":"GeoNames","id":"124112","url":null},"recName":"Darwin Glacier","confidence":{"state":"pre-added","who":["ml:dpeker"],"prob":0.9518}}}},{"classId":"e_2","part":"s3v1","offsets":[{"start":149,"text":"Scottnema lindsayae"}],"coordinates":[],"confidence":{"state":"pre-added","who":["ml:dpeker"],"prob":0.9671},"fields":{},"normalizations":{"n_33":{"source":{"name":"NematodeNames","id":"Sclind","url":null},"recName":"Scottnema lindsayae","confidence":{"state":"pre-added","who":["ml:dpeker"],"prob":0.9671}}}},{"classId":"e_4","part":"s3v1","offsets":[{"start":368,"text":"Dia- mond Hill"}],"coordinates":[],"confidence":{"state":"pre-added","who":["ml:dpeker"],"prob":0.7634},"fields":{},"normalizations":{"n_34":{"source":{"name":"GeoNames","id":"717","url":null},"recName":"Diamond Hill","confidence":{"state":"pre-added","who":["ml:dpeker"],"prob":0.7634}}}},{"classId":"e_4","part":"s3v1","offsets":[{"start":521,"text":"Diamond Hill"}],"coordinates":[],"confidence":{"state":"pre-added","who":["ml:dpeker"],"prob":0.8851},"fields":{},"normalizations":{"n_34":{"source":{"name":"GeoNames","id":"717","url":null},"recName":"Diamond Hill","confidence":{"state":"pre-added","who":["ml:dpeker"],"prob":0.8851}}}},{"classId":"e_4","part":"s3v1","offsets":[{"start":793,"text":"Darwin Glaciers"}],"coordinates":[],"confidence":{"state":"pre-added","who":["ml:dpeker"],"prob":0.8884},"fields":{},"normalizations":{"n_34":{"source":{"name":"GeoNames","id":"124112","url":null},"recName":"Darwin Glacier","confidence":{"state":"pre-added","who":["ml:dpeker"],"prob":0.8884}}}},{"classId":"e_4","part":"s3v1","offsets":[{"start":1477,"text":"Diamond Hill"}],"coordinates":[],"confidence":{"state":"pre-added","who":["ml:dpeker"],"prob":0.8851},"fields":{},"normalizations":{"n_34":{"source":{"name":"GeoNames","id":"717","url":null},"recName":"Diamond Hill","confidence":{"state":"pre-added","who":["ml:dpeker"],"prob":0.8851}}}},{"classId":"e_4","part":"s3v1","offsets":[{"start":1502,"text":"Darwin Glacier"}],"coordinates":[],"confidence":{"state":"pre-added","who":["ml:dpeker"],"prob":0.9518},"fields":{},"normalizations":{"n_34":{"source":{"name":"GeoNames","id":"124112","url":null},"recName":"Darwin Glacier","confidence":{"state":"pre-added","who":["ml:dpeker"],"prob":0.9518}}}},{"classId":"e_4","part":"s3v1","offsets":[{"start":1746,"text":"Brown Hills"}],"coordinates":[],"confidence":{"state":"pre-added","who":["ml:dpeker"],"prob":0.9349},"fields":{},"normalizations":{"n_34":{"source":{"name":"GeoNames","id":"693","url":null},"recName":"Brown Hills","confidence":{"state":"pre-added","who":["ml:dpeker"],"prob":0.9349}}}},{"classId":"e_4","part":"s3v1","offsets":[{"start":1894,"text":"Bowling Green  Plateau"}],"coordinates":[],"confidence":{"state":"pre-added","who":["ml:dpeker"],"prob":0.8827},"fields":{},"normalizations":{"n_34":{"source":{"name":"GeoNames","id":"122809","url":null},"recName":"Bowling Green Plateau","confidence":{"state":"pre-added","who":["ml:dpeker"],"prob":0.8827}}}},{"classId":"e_4","part":"s3v1","offsets":[{"start":2095,"text":"Diamond Hill"}],"coordinates":[],"confidence":{"state":"pre-added","who":["ml:dpeker"],"prob":0.8851},"fields":{},"normalizations":{"n_34":{"source":{"name":"GeoNames","id":"717","url":null},"recName":"Diamond Hill","confidence":{"state":"pre-added","who":["ml:dpeker"],"prob":0.8851}}}},{"classId":"e_4","part":"s3v1","offsets":[{"start":2190,"text":"Darwin Glacier"}],"coordinates":[],"confidence":{"state":"pre-added","who":["ml:dpeker"],"prob":0.9518},"fields":{},"normalizations":{"n_34":{"source":{"name":"GeoNames","id":"124112","url":null},"recName":"Darwin Glacier","confidence":{"state":"pre-added","who":["ml:dpeker"],"prob":0.9518}}}},{"classId":"e_4","part":"s3v1","offsets":[{"start":2370,"text":"Diamond Hill"}],"coordinates":[],"confidence":{"state":"pre-added","who":["ml:dpeker"],"prob":0.8851},"fields":{},"normalizations":{"n_34":{"source":{"name":"GeoNames","id":"717","url":null},"recName":"Diamond Hill","confidence":{"state":"pre-added","who":["ml:dpeker"],"prob":0.8851}}}},{"classId":"e_4","part":"s3v1","offsets":[{"start":2487,"text":"Bartrum Basin"}],"coordinates":[{"x":"54.00","y":"446.56"},{"x":"98.32","y":"450.78"}],"confidence":{"state":"pre-added","who":["user:ICTAR"],"prob":1},"fields":{},"normalizations":{}},{"classId":"e_4","part":"s3v1","offsets":[{"start":2510,"text":"Diamond Hill"}],"coordinates":[],"confidence":{"state":"pre-added","who":["ml:dpeker"],"prob":0.8851},"fields":{},"normalizations":{"n_34":{"source":{"name":"GeoNames","id":"717","url":null},"recName":"Diamond Hill","confidence":{"state":"pre-added","who":["ml:dpeker"],"prob":0.8851}}}},{"classId":"e_4","part":"s3v1","offsets":[{"start":2524,"text":"DH"}],"coordinates":[],"confidence":{"state":"pre-added","who":["ml:dpeker"],"prob":0.8851},"fields":{},"normalizations":{"n_34":{"source":{"name":"GeoNames","id":"717","url":null},"recName":"Diamond Hill","confidence":{"state":"pre-added","who":["ml:dpeker"],"prob":0.8851}}}},{"classId":"e_4","part":"s3v1","offsets":[{"start":2549,"text":"Diamond Hill"}],"coordinates":[],"confidence":{"state":"pre-added","who":["ml:dpeker"],"prob":0.8851},"fields":{},"normalizations":{"n_34":{"source":{"name":"GeoNames","id":"717","url":null},"recName":"Diamond Hill","confidence":{"state":"pre-added","who":["ml:dpeker"],"prob":0.8851}}}},{"classId":"e_4","part":"s3v1","offsets":[{"start":2624,"text":"Darwin Glacier"}],"coordinates":[],"confidence":{"state":"pre-added","who":["ml:dpeker"],"prob":0.9518},"fields":{},"normalizations":{"n_34":{"source":{"name":"GeoNames","id":"124112","url":null},"recName":"Darwin Glacier","confidence":{"state":"pre-added","who":["ml:dpeker"],"prob":0.9518}}}},{"classId":"e_2","part":"s4v1","offsets":[{"start":125,"text":"Scottnema lindsayae"}],"coordinates":[],"confidence":{"state":"pre-added","who":["ml:dpeker"],"prob":0.9671},"fields":{},"normalizations":{"n_33":{"source":{"name":"NematodeNames","id":"Sclind","url":null},"recName":"Scottnema lindsayae","confidence":{"state":"pre-added","who":["ml:dpeker"],"prob":0.9671}}}},{"classId":"e_4","part":"s4v1","offsets":[{"start":569,"text":"Diamond Hill"}],"coordinates":[],"confidence":{"state":"pre-added","who":["ml:dpeker"],"prob":0.8851},"fields":{},"normalizations":{"n_34":{"source":{"name":"GeoNames","id":"717","url":null},"recName":"Diamond Hill","confidence":{"state":"pre-added","who":["ml:dpeker"],"prob":0.8851}}}},{"classId":"e_4","part":"s4v1","offsets":[{"start":1509,"text":"Scott Base"}],"coordinates":[],"confidence":{"state":"pre-added","who":["ml:dpeker"],"prob":0.9266},"fields":{},"normalizations":{"n_34":{"source":{"name":"GeoNames","id":"114326","url":null},"recName":"Scott Base","confidence":{"state":"pre-added","who":["ml:dpeker"],"prob":0.9266}}}},{"classId":"e_4","part":"s4v1","offsets":[{"start":2465,"text":"Ross Island"}],"coordinates":[],"confidence":{"state":"pre-added","who":["ml:dpeker"],"prob":0.9349},"fields":{},"normalizations":{"n_34":{"source":{"name":"GeoNames","id":"130958","url":null},"recName":"Ross Island","confidence":{"state":"pre-added","who":["ml:dpeker"],"prob":0.9349}}}},{"classId":"e_4","part":"s4v1","offsets":[{"start":5199,"text":"Diamond Hill"}],"coordinates":[],"confidence":{"state":"pre-added","who":["ml:dpeker"],"prob":0.8851},"fields":{},"normalizations":{"n_34":{"source":{"name":"GeoNames","id":"717","url":null},"recName":"Diamond Hill","confidence":{"state":"pre-added","who":["ml:dpeker"],"prob":0.8851}}}},{"classId":"e_4","part":"s4v1","offsets":[{"start":5418,"text":"Diamond Hill"}],"coordinates":[],"confidence":{"state":"pre-added","who":["ml:dpeker"],"prob":0.8851},"fields":{},"normalizations":{"n_34":{"source":{"name":"GeoNames","id":"717","url":null},"recName":"Diamond Hill","confidence":{"state":"pre-added","who":["ml:dpeker"],"prob":0.8851}}}},{"classId":"e_2","part":"s5v1","offsets":[{"start":149,"text":"Scottnema lindsayae"}],"coordinates":[],"confidence":{"state":"pre-added","who":["ml:dpeker"],"prob":0.9671},"fields":{},"normalizations":{"n_33":{"source":{"name":"NematodeNames","id":"Sclind","url":null},"recName":"Scottnema lindsayae","confidence":{"state":"pre-added","who":["ml:dpeker"],"prob":0.9671}}}},{"classId":"e_2","part":"s5v1","offsets":[{"start":557,"text":"Scottnema lindsayae"}],"coordinates":[],"confidence":{"state":"pre-added","who":["ml:dpeker"],"prob":0.9671},"fields":{},"normalizations":{"n_33":{"source":{"name":"NematodeNames","id":"Sclind","url":null},"recName":"Scottnema lindsayae","confidence":{"state":"pre-added","who":["ml:dpeker"],"prob":0.9671}}}},{"classId":"e_4","part":"s5v1","offsets":[{"start":720,"text":"Bartrum Basin"}],"coordinates":[{"x":"247.90","y":"240.71"},{"x":"76.01","y":"257.60"}],"confidence":{"state":"pre-added","who":["user:ICTAR"],"prob":1},"fields":{},"normalizations":{}},{"classId":"e_4","part":"s5v1","offsets":[{"start":993,"text":"Diamond Hill"}],"coordinates":[],"confidence":{"state":"pre-added","who":["ml:dpeker"],"prob":0.8851},"fields":{},"normalizations":{"n_34":{"source":{"name":"GeoNames","id":"717","url":null},"recName":"Diamond Hill","confidence":{"state":"pre-added","who":["ml:dpeker"],"prob":0.8851}}}},{"classId":"e_2","part":"s5v1","offsets":[{"start":1050,"text":"S. lindsayae"}],"coordinates":[],"confidence":{"state":"pre-added","who":["ml:dpeker"],"prob":0.9416},"fields":{},"normalizations":{"n_33":{"source":{"name":"NematodeNames","id":"Sclind","url":null},"recName":"Scottnema lindsayae","confidence":{"state":"pre-added","who":["ml:dpeker"],"prob":0.9416}}}},{"classId":"e_4","part":"s5v1","offsets":[{"start":1086,"text":"Diamond Hill"}],"coordinates":[],"confidence":{"state":"pre-added","who":["ml:dpeker"],"prob":0.8851},"fields":{},"normalizations":{"n_34":{"source":{"name":"GeoNames","id":"717","url":null},"recName":"Diamond Hill","confidence":{"state":"pre-added","who":["ml:dpeker"],"prob":0.8851}}}},{"classId":"e_4","part":"s5v1","offsets":[{"start":1599,"text":"Dia- mond Hill"}],"coordinates":[],"confidence":{"state":"pre-added","who":["ml:dpeker"],"prob":0.7634},"fields":{},"normalizations":{"n_34":{"source":{"name":"GeoNames","id":"717","url":null},"recName":"Diamond Hill","confidence":{"state":"pre-added","who":["ml:dpeker"],"prob":0.7634}}}},{"classId":"e_4","part":"s5v1","offsets":[{"start":2126,"text":"Diamond Hill"}],"coordinates":[],"confidence":{"state":"pre-added","who":["ml:dpeker"],"prob":0.8851},"fields":{},"normalizations":{"n_34":{"source":{"name":"GeoNames","id":"717","url":null},"recName":"Diamond Hill","confidence":{"state":"pre-added","who":["ml:dpeker"],"prob":0.8851}}}},{"classId":"e_4","part":"s5v1","offsets":[{"start":2268,"text":"Diamond Hill"}],"coordinates":[],"confidence":{"state":"pre-added","who":["ml:dpeker"],"prob":0.8851},"fields":{},"normalizations":{"n_34":{"source":{"name":"GeoNames","id":"717","url":null},"recName":"Diamond Hill","confidence":{"state":"pre-added","who":["ml:dpeker"],"prob":0.8851}}}},{"classId":"e_4","part":"s5v1","offsets":[{"start":2383,"text":"Diamond Hill"}],"coordinates":[],"confidence":{"state":"pre-added","who":["ml:dpeker"],"prob":0.8851},"fields":{},"normalizations":{"n_34":{"source":{"name":"GeoNames","id":"717","url":null},"recName":"Diamond Hill","confidence":{"state":"pre-added","who":["ml:dpeker"],"prob":0.8851}}}},{"classId":"e_4","part":"s5v1","offsets":[{"start":2698,"text":"Diamond Hill"}],"coordinates":[],"confidence":{"state":"pre-added","who":["ml:dpeker"],"prob":0.8851},"fields":{},"normalizations":{"n_34":{"source":{"name":"GeoNames","id":"717","url":null},"recName":"Diamond Hill","confidence":{"state":"pre-added","who":["ml:dpeker"],"prob":0.8851}}}},{"classId":"e_4","part":"s5v1","offsets":[{"start":3362,"text":"Diamond Hill"}],"coordinates":[],"confidence":{"state":"pre-added","who":["ml:dpeker"],"prob":0.8851},"fields":{},"normalizations":{"n_34":{"source":{"name":"GeoNames","id":"717","url":null},"recName":"Diamond Hill","confidence":{"state":"pre-added","who":["ml:dpeker"],"prob":0.8851}}}},{"classId":"e_4","part":"s5v1","offsets":[{"start":4585,"text":"Diamond\n\nHill."}],"coordinates":[],"confidence":{"state":"pre-added","who":["ml:dpeker"],"prob":0.7634},"fields":{},"normalizations":{"n_34":{"source":{"name":"GeoNames","id":"717","url":null},"recName":"Diamond Hill","confidence":{"state":"pre-added","who":["ml:dpeker"],"prob":0.7634}}}},{"classId":"e_2","part":"s6v1","offsets":[{"start":125,"text":"Scottnema lindsayae"}],"coordinates":[],"confidence":{"state":"pre-added","who":["ml:dpeker"],"prob":0.9671},"fields":{},"normalizations":{"n_33":{"source":{"name":"NematodeNames","id":"Sclind","url":null},"recName":"Scottnema lindsayae","confidence":{"state":"pre-added","who":["ml:dpeker"],"prob":0.9671}}}},{"classId":"e_4","part":"s6v1","offsets":[{"start":791,"text":"Darwin Glacier"}],"coordinates":[],"confidence":{"state":"pre-added","who":["ml:dpeker"],"prob":0.9518},"fields":{},"normalizations":{"n_34":{"source":{"name":"GeoNames","id":"124112","url":null},"recName":"Darwin Glacier","confidence":{"state":"pre-added","who":["ml:dpeker"],"prob":0.9518}}}},{"classId":"e_2","part":"s6v1","offsets":[{"start":1274,"text":"S. lindsayae"}],"coordinates":[],"confidence":{"state":"pre-added","who":["ml:dpeker"],"prob":0.9416},"fields":{},"normalizations":{"n_33":{"source":{"name":"NematodeNames","id":"Sclind","url":null},"recName":"Scottnema lindsayae","confidence":{"state":"pre-added","who":["ml:dpeker"],"prob":0.9416}}}},{"classId":"e_4","part":"s6v1","offsets":[{"start":1601,"text":"McMurdo Dry Valleys"}],"coordinates":[],"confidence":{"state":"pre-added","who":["ml:dpeker"],"prob":0.9671},"fields":{},"normalizations":{"n_34":{"source":{"name":"GeoNames","id":"113892","url":null},"recName":"McMurdo Dry Valleys","confidence":{"state":"pre-added","who":["ml:dpeker"],"prob":0.9671}}}},{"classId":"e_4","part":"s6v1","offsets":[{"start":1752,"text":"Darwin Glacier"}],"coordinates":[],"confidence":{"state":"pre-added","who":["ml:dpeker"],"prob":0.9518},"fields":{},"normalizations":{"n_34":{"source":{"name":"GeoNames","id":"124112","url":null},"recName":"Darwin Glacier","confidence":{"state":"pre-added","who":["ml:dpeker"],"prob":0.9518}}}},{"classId":"e_4","part":"s6v1","offsets":[{"start":1836,"text":"Darwin Glacier"}],"coordinates":[],"confidence":{"state":"pre-added","who":["ml:dpeker"],"prob":0.9518},"fields":{},"normalizations":{"n_34":{"source":{"name":"GeoNames","id":"124112","url":null},"recName":"Darwin Glacier","confidence":{"state":"pre-added","who":["ml:dpeker"],"prob":0.9518}}}},{"classId":"e_4","part":"s6v1","offsets":[{"start":2116,"text":"Diamond Hill"}],"coordinates":[],"confidence":{"state":"pre-added","who":["ml:dpeker"],"prob":0.8851},"fields":{},"normalizations":{"n_34":{"source":{"name":"GeoNames","id":"717","url":null},"recName":"Diamond Hill","confidence":{"state":"pre-added","who":["ml:dpeker"],"prob":0.8851}}}},{"classId":"e_2","part":"s7v1","offsets":[{"start":149,"text":"Scottnema lindsayae"}],"coordinates":[],"confidence":{"state":"pre-added","who":["ml:dpeker"],"prob":0.9671},"fields":{},"normalizations":{"n_33":{"source":{"name":"NematodeNames","id":"Sclind","url":null},"recName":"Scottnema lindsayae","confidence":{"state":"pre-added","who":["ml:dpeker"],"prob":0.9671}}}},{"classId":"e_47","part":"s7v1","offsets":[{"start":507,"text":"Our results showed that conductivity has the strongest negative correlation with nematode counts in the area of Darwin Glacier"}],"coordinates":[{"x":"54.00","y":"169.71"},{"x":"114.55","y":"198.60"}],"confidence":{"state":"pre-added","who":["user:ICTAR"],"prob":1},"fields":{},"normalizations":{}},{"classId":"e_4","part":"s7v1","offsets":[{"start":619,"text":"Darwin Glacier"}],"coordinates":[],"confidence":{"state":"pre-added","who":["ml:dpeker"],"prob":0.9518},"fields":{},"normalizations":{"n_34":{"source":{"name":"GeoNames","id":"124112","url":null},"recName":"Darwin Glacier","confidence":{"state":"pre-added","who":["ml:dpeker"],"prob":0.9518}}}},{"classId":"e_4","part":"s7v1","offsets":[{"start":639,"text":"Bartrum Basin"}],"coordinates":[{"x":"137.01","y":"193.71"},{"x":"195.73","y":"198.60"}],"confidence":{"state":"pre-added","who":["user:ICTAR"],"prob":1},"fields":{},"normalizations":{}},{"classId":"e_4","part":"s7v1","offsets":[{"start":712,"text":"Diamond Hill"}],"coordinates":[],"confidence":{"state":"pre-added","who":["ml:dpeker"],"prob":0.8851},"fields":{},"normalizations":{"n_34":{"source":{"name":"GeoNames","id":"717","url":null},"recName":"Diamond Hill","confidence":{"state":"pre-added","who":["ml:dpeker"],"prob":0.8851}}}},{"classId":"e_2","part":"s7v1","offsets":[{"start":773,"text":"S. lindsayae"}],"coordinates":[],"confidence":{"state":"pre-added","who":["ml:dpeker"],"prob":0.9416},"fields":{},"normalizations":{"n_33":{"source":{"name":"NematodeNames","id":"Sclind","url":null},"recName":"Scottnema lindsayae","confidence":{"state":"pre-added","who":["ml:dpeker"],"prob":0.9416}}}},{"classId":"e_4","part":"s7v1","offsets":[{"start":858,"text":"Bartrum Basin"}],"coordinates":[{"x":"122.84","y":"241.71"},{"x":"181.34","y":"246.60"}],"confidence":{"state":"pre-added","who":["user:ICTAR"],"prob":1},"fields":{},"normalizations":{}},{"classId":"e_2","part":"s7v1","offsets":[{"start":1410,"text":"S. lindsayae"}],"coordinates":[],"confidence":{"state":"pre-added","who":["ml:dpeker"],"prob":0.9416},"fields":{},"normalizations":{"n_33":{"source":{"name":"NematodeNames","id":"Sclind","url":null},"recName":"Scottnema lindsayae","confidence":{"state":"pre-added","who":["ml:dpeker"],"prob":0.9416}}}},{"classId":"e_47","part":"s7v1","offsets":[{"start":1954,"text":"We found a positive correlation between S. lindsayae abundance and altitude or soil humidity, or both, at Diamond Hill."}],"coordinates":[{"x":"54.00","y":"505.71"},{"x":"112.20","y":"534.60"}],"confidence":{"state":"pre-added","who":["user:ICTAR"],"prob":1},"fields":{},"normalizations":{}},{"classId":"e_2","part":"s7v1","offsets":[{"start":1994,"text":"S. lindsayae"}],"coordinates":[],"confidence":{"state":"pre-added","who":["ml:dpeker"],"prob":0.9416},"fields":{},"normalizations":{"n_33":{"source":{"name":"NematodeNames","id":"Sclind","url":null},"recName":"Scottnema lindsayae","confidence":{"state":"pre-added","who":["ml:dpeker"],"prob":0.9416}}}},{"classId":"e_4","part":"s7v1","offsets":[{"start":2060,"text":"Diamond Hill"}],"coordinates":[],"confidence":{"state":"pre-added","who":["ml:dpeker"],"prob":0.8851},"fields":{},"normalizations":{"n_34":{"source":{"name":"GeoNames","id":"717","url":null},"recName":"Diamond Hill","confidence":{"state":"pre-added","who":["ml:dpeker"],"prob":0.8851}}}},{"classId":"e_2","part":"s7v1","offsets":[{"start":4189,"text":"S. lindsayae"}],"coordinates":[],"confidence":{"state":"pre-added","who":["ml:dpeker"],"prob":0.9416},"fields":{},"normalizations":{"n_33":{"source":{"name":"NematodeNames","id":"Sclind","url":null},"recName":"Scottnema lindsayae","confidence":{"state":"pre-added","who":["ml:dpeker"],"prob":0.9416}}}},{"classId":"e_2","part":"s7v1","offsets":[{"start":4339,"text":"S. lindsayae"}],"coordinates":[],"confidence":{"state":"pre-added","who":["ml:dpeker"],"prob":0.9416},"fields":{},"normalizations":{"n_33":{"source":{"name":"NematodeNames","id":"Sclind","url":null},"recName":"Scottnema lindsayae","confidence":{"state":"pre-added","who":["ml:dpeker"],"prob":0.9416}}}},{"classId":"e_4","part":"s7v1","offsets":[{"start":4406,"text":"Diamond Hill"}],"coordinates":[],"confidence":{"state":"pre-added","who":["ml:dpeker"],"prob":0.8851},"fields":{},"normalizations":{"n_34":{"source":{"name":"GeoNames","id":"717","url":null},"recName":"Diamond Hill","confidence":{"state":"pre-added","who":["ml:dpeker"],"prob":0.8851}}}},{"classId":"e_2","part":"s7v1","offsets":[{"start":4477,"text":"S. lindsayae"}],"coordinates":[],"confidence":{"state":"pre-added","who":["ml:dpeker"],"prob":0.9416},"fields":{},"normalizations":{"n_33":{"source":{"name":"NematodeNames","id":"Sclind","url":null},"recName":"Scottnema lindsayae","confidence":{"state":"pre-added","who":["ml:dpeker"],"prob":0.9416}}}},{"classId":"e_2","part":"s7v1","offsets":[{"start":4508,"text":"S. lindsayae"}],"coordinates":[],"confidence":{"state":"pre-added","who":["ml:dpeker"],"prob":0.9416},"fields":{},"normalizations":{"n_33":{"source":{"name":"NematodeNames","id":"Sclind","url":null},"recName":"Scottnema lindsayae","confidence":{"state":"pre-added","who":["ml:dpeker"],"prob":0.9416}}}},{"classId":"e_2","part":"s7v1","offsets":[{"start":4694,"text":"S. lindsayae"}],"coordinates":[],"confidence":{"state":"pre-added","who":["ml:dpeker"],"prob":0.9416},"fields":{},"normalizations":{"n_33":{"source":{"name":"NematodeNames","id":"Sclind","url":null},"recName":"Scottnema lindsayae","confidence":{"state":"pre-added","who":["ml:dpeker"],"prob":0.9416}}}},{"classId":"e_2","part":"s7v1","offsets":[{"start":5019,"text":"S. lindsayae"}],"coordinates":[],"confidence":{"state":"pre-added","who":["ml:dpeker"],"prob":0.9416},"fields":{},"normalizations":{"n_33":{"source":{"name":"NematodeNames","id":"Sclind","url":null},"recName":"Scottnema lindsayae","confidence":{"state":"pre-added","who":["ml:dpeker"],"prob":0.9416}}}},{"classId":"e_2","part":"s7v1","offsets":[{"start":5341,"text":"S. lindsayae"}],"coordinates":[],"confidence":{"state":"pre-added","who":["ml:dpeker"],"prob":0.9416},"fields":{},"normalizations":{"n_33":{"source":{"name":"NematodeNames","id":"Sclind","url":null},"recName":"Scottnema lindsayae","confidence":{"state":"pre-added","who":["ml:dpeker"],"prob":0.9416}}}},{"classId":"e_2","part":"s7v1","offsets":[{"start":5539,"text":"S. lindsayae"}],"coordinates":[],"confidence":{"state":"pre-added","who":["ml:dpeker"],"prob":0.9416},"fields":{},"normalizations":{"n_33":{"source":{"name":"NematodeNames","id":"Sclind","url":null},"recName":"Scottnema lindsayae","confidence":{"state":"pre-added","who":["ml:dpeker"],"prob":0.9416}}}},{"classId":"e_2","part":"s7v1","offsets":[{"start":5756,"text":"S. lindsayae"}],"coordinates":[],"confidence":{"state":"pre-added","who":["ml:dpeker"],"prob":0.9416},"fields":{},"normalizations":{"n_33":{"source":{"name":"NematodeNames","id":"Sclind","url":null},"recName":"Scottnema lindsayae","confidence":{"state":"pre-added","who":["ml:dpeker"],"prob":0.9416}}}},{"classId":"e_2","part":"s7v1","offsets":[{"start":5867,"text":"S. lindsayae"}],"coordinates":[],"confidence":{"state":"pre-added","who":["ml:dpeker"],"prob":0.9416},"fields":{},"normalizations":{"n_33":{"source":{"name":"NematodeNames","id":"Sclind","url":null},"recName":"Scottnema lindsayae","confidence":{"state":"pre-added","who":["ml:dpeker"],"prob":0.9416}}}},{"classId":"e_2","part":"s8v1","offsets":[{"start":125,"text":"Scottnema lindsayae"}],"coordinates":[],"confidence":{"state":"pre-added","who":["ml:dpeker"],"prob":0.9671},"fields":{},"normalizations":{"n_33":{"source":{"name":"NematodeNames","id":"Sclind","url":null},"recName":"Scottnema lindsayae","confidence":{"state":"pre-added","who":["ml:dpeker"],"prob":0.9671}}}},{"classId":"e_2","part":"s8v1","offsets":[{"start":317,"text":"S. lindsayae"}],"coordinates":[],"confidence":{"state":"pre-added","who":["ml:dpeker"],"prob":0.9416},"fields":{},"normalizations":{"n_33":{"source":{"name":"NematodeNames","id":"Sclind","url":null},"recName":"Scottnema lindsayae","confidence":{"state":"pre-added","who":["ml:dpeker"],"prob":0.9416}}}},{"classId":"e_2","part":"s8v1","offsets":[{"start":388,"text":"S. lindsayae"}],"coordinates":[],"confidence":{"state":"pre-added","who":["ml:dpeker"],"prob":0.9416},"fields":{},"normalizations":{"n_33":{"source":{"name":"NematodeNames","id":"Sclind","url":null},"recName":"Scottnema lindsayae","confidence":{"state":"pre-added","who":["ml:dpeker"],"prob":0.9416}}}},{"classId":"e_2","part":"s8v1","offsets":[{"start":546,"text":"S. lindsayae"}],"coordinates":[],"confidence":{"state":"pre-added","who":["ml:dpeker"],"prob":0.9416},"fields":{},"normalizations":{"n_33":{"source":{"name":"NematodeNames","id":"Sclind","url":null},"recName":"Scottnema lindsayae","confidence":{"state":"pre-added","who":["ml:dpeker"],"prob":0.9416}}}},{"classId":"e_4","part":"s8v1","offsets":[{"start":1886,"text":"Darwin Glacier"}],"coordinates":[],"confidence":{"state":"pre-added","who":["ml:dpeker"],"prob":0.9518},"fields":{},"normalizations":{"n_34":{"source":{"name":"GeoNames","id":"124112","url":null},"recName":"Darwin Glacier","confidence":{"state":"pre-added","who":["ml:dpeker"],"prob":0.9518}}}},{"classId":"e_4","part":"s8v1","offsets":[{"start":2033,"text":"Ross Island"}],"coordinates":[],"confidence":{"state":"pre-added","who":["ml:dpeker"],"prob":0.9349},"fields":{},"normalizations":{"n_34":{"source":{"name":"GeoNames","id":"130958","url":null},"recName":"Ross Island","confidence":{"state":"pre-added","who":["ml:dpeker"],"prob":0.9349}}}},{"classId":"e_2","part":"s8v1","offsets":[{"start":2555,"text":"S. lindsayae"}],"coordinates":[],"confidence":{"state":"pre-added","who":["ml:dpeker"],"prob":0.9416},"fields":{},"normalizations":{"n_33":{"source":{"name":"NematodeNames","id":"Sclind","url":null},"recName":"Scottnema lindsayae","confidence":{"state":"pre-added","who":["ml:dpeker"],"prob":0.9416}}}},{"classId":"e_2","part":"s8v1","offsets":[{"start":2957,"text":"S. lindsayae"}],"coordinates":[],"confidence":{"state":"pre-added","who":["ml:dpeker"],"prob":0.9416},"fields":{},"normalizations":{"n_33":{"source":{"name":"NematodeNames","id":"Sclind","url":null},"recName":"Scottnema lindsayae","confidence":{"state":"pre-added","who":["ml:dpeker"],"prob":0.9416}}}},{"classId":"e_2","part":"s8v1","offsets":[{"start":3576,"text":"S. lindsayae"}],"coordinates":[],"confidence":{"state":"pre-added","who":["ml:dpeker"],"prob":0.9416},"fields":{},"normalizations":{"n_33":{"source":{"name":"NematodeNames","id":"Sclind","url":null},"recName":"Scottnema lindsayae","confidence":{"state":"pre-added","who":["ml:dpeker"],"prob":0.9416}}}},{"classId":"e_4","part":"s8v1","offsets":[{"start":3785,"text":"McMurdo Dry Valleys"}],"coordinates":[],"confidence":{"state":"pre-added","who":["ml:dpeker"],"prob":0.9671},"fields":{},"normalizations":{"n_34":{"source":{"name":"GeoNames","id":"113892","url":null},"recName":"McMurdo Dry Valleys","confidence":{"state":"pre-added","who":["ml:dpeker"],"prob":0.9671}}}},{"classId":"e_4","part":"s8v1","offsets":[{"start":3879,"text":"Darwin Glacier"}],"coordinates":[],"confidence":{"state":"pre-added","who":["ml:dpeker"],"prob":0.9518},"fields":{},"normalizations":{"n_34":{"source":{"name":"GeoNames","id":"124112","url":null},"recName":"Darwin Glacier","confidence":{"state":"pre-added","who":["ml:dpeker"],"prob":0.9518}}}},{"classId":"e_2","part":"s8v1","offsets":[{"start":4043,"text":"S. lindsayae"}],"coordinates":[],"confidence":{"state":"pre-added","who":["ml:dpeker"],"prob":0.9416},"fields":{},"normalizations":{"n_33":{"source":{"name":"NematodeNames","id":"Sclind","url":null},"recName":"Scottnema lindsayae","confidence":{"state":"pre-added","who":["ml:dpeker"],"prob":0.9416}}}},{"classId":"e_2","part":"s8v1","offsets":[{"start":4157,"text":"S. lindsayae"}],"coordinates":[],"confidence":{"state":"pre-added","who":["ml:dpeker"],"prob":0.9416},"fields":{},"normalizations":{"n_33":{"source":{"name":"NematodeNames","id":"Sclind","url":null},"recName":"Scottnema lindsayae","confidence":{"state":"pre-added","who":["ml:dpeker"],"prob":0.9416}}}},{"classId":"e_4","part":"s8v1","offsets":[{"start":5097,"text":"Dia- mond Hill"}],"coordinates":[],"confidence":{"state":"pre-added","who":["ml:dpeker"],"prob":0.7634},"fields":{},"normalizations":{"n_34":{"source":{"name":"GeoNames","id":"717","url":null},"recName":"Diamond Hill","confidence":{"state":"pre-added","who":["ml:dpeker"],"prob":0.7634}}}},{"classId":"e_2","part":"s9v1","offsets":[{"start":149,"text":"Scottnema lindsayae"}],"coordinates":[],"confidence":{"state":"pre-added","who":["ml:dpeker"],"prob":0.9671},"fields":{},"normalizations":{"n_33":{"source":{"name":"NematodeNames","id":"Sclind","url":null},"recName":"Scottnema lindsayae","confidence":{"state":"pre-added","who":["ml:dpeker"],"prob":0.9671}}}},{"classId":"e_2","part":"s9v1","offsets":[{"start":460,"text":"S. lindsayae"}],"coordinates":[],"confidence":{"state":"pre-added","who":["ml:dpeker"],"prob":0.9416},"fields":{},"normalizations":{"n_33":{"source":{"name":"NematodeNames","id":"Sclind","url":null},"recName":"Scottnema lindsayae","confidence":{"state":"pre-added","who":["ml:dpeker"],"prob":0.9416}}}},{"classId":"e_2","part":"s9v1","offsets":[{"start":800,"text":"S. lindsayae"}],"coordinates":[],"confidence":{"state":"pre-added","who":["ml:dpeker"],"prob":0.9416},"fields":{},"normalizations":{"n_33":{"source":{"name":"NematodeNames","id":"Sclind","url":null},"recName":"Scottnema lindsayae","confidence":{"state":"pre-added","who":["ml:dpeker"],"prob":0.9416}}}},{"classId":"e_4","part":"s9v1","offsets":[{"start":1620,"text":"Scott Base"}],"coordinates":[],"confidence":{"state":"pre-added","who":["ml:dpeker"],"prob":0.9266},"fields":{},"normalizations":{"n_34":{"source":{"name":"GeoNames","id":"114326","url":null},"recName":"Scott Base","confidence":{"state":"pre-added","who":["ml:dpeker"],"prob":0.9266}}}},{"classId":"e_2","part":"s9v1","offsets":[{"start":2854,"text":"Scottnema lind- sayae"}],"coordinates":[],"confidence":{"state":"pre-added","who":["ml:dpeker"],"prob":0.8451},"fields":{},"normalizations":{"n_33":{"source":{"name":"NematodeNames","id":"Sclind","url":null},"recName":"Scottnema lindsayae","confidence":{"state":"pre-added","who":["ml:dpeker"],"prob":0.8451}}}},{"classId":"e_4","part":"s9v1","offsets":[{"start":3342,"text":"McMurdo Sound"}],"coordinates":[],"confidence":{"state":"pre-added","who":["ml:dpeker"],"prob":0.9472},"fields":{},"normalizations":{"n_34":{"source":{"name":"GeoNames","id":"128724","url":null},"recName":"McMurdo Sound","confidence":{"state":"pre-added","who":["ml:dpeker"],"prob":0.9472}}}},{"classId":"e_4","part":"s9v1","offsets":[{"start":5272,"text":"Byrd Glacier"}],"coordinates":[],"confidence":{"state":"pre-added","who":["ml:dpeker"],"prob":0.9416},"fields":{},"normalizations":{"n_34":{"source":{"name":"GeoNames","id":"123174","url":null},"recName":"Byrd Glacier","confidence":{"state":"pre-added","who":["ml:dpeker"],"prob":0.9416}}}},{"classId":"e_2","part":"s10v1","offsets":[{"start":126,"text":"Scottnema lindsayae"}],"coordinates":[],"confidence":{"state":"pre-added","who":["ml:dpeker"],"prob":0.9671},"fields":{},"normalizations":{"n_33":{"source":{"name":"NematodeNames","id":"Sclind","url":null},"recName":"Scottnema lindsayae","confidence":{"state":"pre-added","who":["ml:dpeker"],"prob":0.9671}}}},{"classId":"e_4","part":"s10v1","offsets":[{"start":205,"text":"Britannia Range"}],"coordinates":[],"confidence":{"state":"pre-added","who":["ml:dpeker"],"prob":0.9558},"fields":{},"normalizations":{"n_34":{"source":{"name":"GeoNames","id":"122950","url":null},"recName":"Britannia Range","confidence":{"state":"pre-added","who":["ml:dpeker"],"prob":0.9558}}}},{"classId":"e_4","part":"s10v1","offsets":[{"start":1686,"text":"Garwood Valley"}],"coordinates":[],"confidence":{"state":"pre-added","who":["ml:dpeker"],"prob":0.9518},"fields":{},"normalizations":{"n_34":{"source":{"name":"GeoNames","id":"125553","url":null},"recName":"Garwood Valley","confidence":{"state":"pre-added","who":["ml:dpeker"],"prob":0.9518}}}},{"classId":"e_4","part":"s10v1","offsets":[{"start":1730,"text":"Diamond Hill"}],"coordinates":[],"confidence":{"state":"pre-added","who":["ml:dpeker"],"prob":0.8851},"fields":{},"normalizations":{"n_34":{"source":{"name":"GeoNames","id":"717","url":null},"recName":"Diamond Hill","confidence":{"state":"pre-added","who":["ml:dpeker"],"prob":0.8851}}}},{"classId":"e_4","part":"s10v1","offsets":[{"start":1744,"text":"Darwin Mountains"}],"coordinates":[],"confidence":{"state":"pre-added","who":["ml:dpeker"],"prob":0.9592},"fields":{},"normalizations":{"n_34":{"source":{"name":"GeoNames","id":"1673","url":null},"recName":"Darwin Mountains","confidence":{"state":"pre-added","who":["ml:dpeker"],"prob":0.9592}}}},{"classId":"e_4","part":"s10v1","offsets":[{"start":3019,"text":"McMurdo Dry Valleys"}],"coordinates":[],"confidence":{"state":"pre-added","who":["ml:dpeker"],"prob":0.9671},"fields":{},"normalizations":{"n_34":{"source":{"name":"GeoNames","id":"113892","url":null},"recName":"McMurdo Dry Valleys","confidence":{"state":"pre-added","who":["ml:dpeker"],"prob":0.9671}}}},{"classId":"e_4","part":"s10v1","offsets":[{"start":4160,"text":"McMurdo Dry Valleys"}],"coordinates":[],"confidence":{"state":"pre-added","who":["ml:dpeker"],"prob":0.9671},"fields":{},"normalizations":{"n_34":{"source":{"name":"GeoNames","id":"113892","url":null},"recName":"McMurdo Dry Valleys","confidence":{"state":"pre-added","who":["ml:dpeker"],"prob":0.9671}}}},{"classId":"e_4","part":"s10v1","offsets":[{"start":4720,"text":"Taylor Valley"}],"coordinates":[],"confidence":{"state":"pre-added","who":["ml:dpeker"],"prob":0.9472},"fields":{},"normalizations":{"n_34":{"source":{"name":"GeoNames","id":"132512","url":null},"recName":"Taylor Valley","confidence":{"state":"pre-added","who":["ml:dpeker"],"prob":0.9472}}}},{"classId":"e_4","part":"s10v1","offsets":[{"start":5054,"text":"McMurdo Dry Valleys"}],"coordinates":[],"confidence":{"state":"pre-added","who":["ml:dpeker"],"prob":0.9671},"fields":{},"normalizations":{"n_34":{"source":{"name":"GeoNames","id":"113892","url":null},"recName":"McMurdo Dry Valleys","confidence":{"state":"pre-added","who":["ml:dpeker"],"prob":0.9671}}}},{"classId":"e_4","part":"s10v1","offsets":[{"start":5153,"text":"McMurdo Dry Valleys"}],"coordinates":[],"confidence":{"state":"pre-added","who":["ml:dpeker"],"prob":0.9671},"fields":{},"normalizations":{"n_34":{"source":{"name":"GeoNames","id":"113892","url":null},"recName":"McMurdo Dry Valleys","confidence":{"state":"pre-added","who":["ml:dpeker"],"prob":0.9671}}}},{"classId":"e_4","part":"s10v1","offsets":[{"start":5504,"text":"McMurdo Dry Valleys"}],"coordinates":[],"confidence":{"state":"pre-added","who":["ml:dpeker"],"prob":0.9671},"fields":{},"normalizations":{"n_34":{"source":{"name":"GeoNames","id":"113892","url":null},"recName":"McMurdo Dry Valleys","confidence":{"state":"pre-added","who":["ml:dpeker"],"prob":0.9671}}}},{"classId":"e_2","part":"s11v1","offsets":[{"start":150,"text":"Scottnema lindsayae"}],"coordinates":[],"confidence":{"state":"pre-added","who":["ml:dpeker"],"prob":0.9671},"fields":{},"normalizations":{"n_33":{"source":{"name":"NematodeNames","id":"Sclind","url":null},"recName":"Scottnema lindsayae","confidence":{"state":"pre-added","who":["ml:dpeker"],"prob":0.9671}}}},{"classId":"e_4","part":"s11v1","offsets":[{"start":2196,"text":"Taylor Valley"}],"coordinates":[],"confidence":{"state":"pre-added","who":["ml:dpeker"],"prob":0.9472},"fields":{},"normalizations":{"n_34":{"source":{"name":"GeoNames","id":"132512","url":null},"recName":"Taylor Valley","confidence":{"state":"pre-added","who":["ml:dpeker"],"prob":0.9472}}}},{"classId":"e_4","part":"s11v1","offsets":[{"start":3020,"text":"McMurdo Dry Valleys"}],"coordinates":[],"confidence":{"state":"pre-added","who":["ml:dpeker"],"prob":0.9671},"fields":{},"normalizations":{"n_34":{"source":{"name":"GeoNames","id":"113892","url":null},"recName":"McMurdo Dry Valleys","confidence":{"state":"pre-added","who":["ml:dpeker"],"prob":0.9671}}}},{"classId":"e_4","part":"s11v1","offsets":[{"start":3316,"text":"McMurdo Dry Valley"}],"coordinates":[],"confidence":{"state":"pre-added","who":["ml:dpeker"],"prob":0.914},"fields":{},"normalizations":{"n_34":{"source":{"name":"GeoNames","id":"113892","url":null},"recName":"McMurdo Dry Valleys","confidence":{"state":"pre-added","who":["ml:dpeker"],"prob":0.914}}}},{"classId":"e_4","part":"s11v1","offsets":[{"start":3564,"text":"Ross Island"}],"coordinates":[],"confidence":{"state":"pre-added","who":["ml:dpeker"],"prob":0.9349},"fields":{},"normalizations":{"n_34":{"source":{"name":"GeoNames","id":"130958","url":null},"recName":"Ross Island","confidence":{"state":"pre-added","who":["ml:dpeker"],"prob":0.9349}}}},{"classId":"e_4","part":"s11v1","offsets":[{"start":4241,"text":"Taylor  Valley"}],"coordinates":[],"confidence":{"state":"pre-added","who":["ml:dpeker"],"prob":0.8118},"fields":{},"normalizations":{"n_34":{"source":{"name":"GeoNames","id":"132512","url":null},"recName":"Taylor Valley","confidence":{"state":"pre-added","who":["ml:dpeker"],"prob":0.8118}}}},{"classId":"e_4","part":"s11v1","offsets":[{"start":4410,"text":"Taylor Valley"}],"coordinates":[],"confidence":{"state":"pre-added","who":["ml:dpeker"],"prob":0.9472},"fields":{},"normalizations":{"n_34":{"source":{"name":"GeoNames","id":"132512","url":null},"recName":"Taylor Valley","confidence":{"state":"pre-added","who":["ml:dpeker"],"prob":0.9472}}}},{"classId":"e_4","part":"s11v1","offsets":[{"start":4804,"text":"Taylor Valley"}],"coordinates":[],"confidence":{"state":"pre-added","who":["ml:dpeker"],"prob":0.9472},"fields":{},"normalizations":{"n_34":{"source":{"name":"GeoNames","id":"132512","url":null},"recName":"Taylor Valley","confidence":{"state":"pre-added","who":["ml:dpeker"],"prob":0.9472}}}},{"classId":"e_2","part":"s12v1","offsets":[{"start":126,"text":"Scottnema lindsayae"}],"coordinates":[],"confidence":{"state":"pre-added","who":["ml:dpeker"],"prob":0.9671},"fields":{},"normalizations":{"n_33":{"source":{"name":"NematodeNames","id":"Sclind","url":null},"recName":"Scottnema lindsayae","confidence":{"state":"pre-added","who":["ml:dpeker"],"prob":0.9671}}}},{"classId":"e_4","part":"s12v1","offsets":[{"start":286,"text":"Ross Island"}],"coordinates":[],"confidence":{"state":"pre-added","who":["ml:dpeker"],"prob":0.9349},"fields":{},"normalizations":{"n_34":{"source":{"name":"GeoNames","id":"130958","url":null},"recName":"Ross Island","confidence":{"state":"pre-added","who":["ml:dpeker"],"prob":0.9349}}}},{"classId":"e_4","part":"s12v1","offsets":[{"start":306,"text":"Ross Ice Shelf"}],"coordinates":[],"confidence":{"state":"pre-added","who":["ml:dpeker"],"prob":0.9518},"fields":{},"normalizations":{"n_34":{"source":{"name":"GeoNames","id":"130957","url":null},"recName":"Ross Ice Shelf","confidence":{"state":"pre-added","who":["ml:dpeker"],"prob":0.9518}}}},{"classId":"e_2","part":"s12v1","offsets":[{"start":565,"text":"Eudorylaimus antarcti- cus"}],"coordinates":[],"confidence":{"state":"pre-added","who":["ml:dpeker"],"prob":0.876},"fields":{},"normalizations":{"n_33":{"source":{"name":"NematodeNames","id":"Euanta","url":null},"recName":"Eudorylaimus antarcticus","confidence":{"state":"pre-added","who":["ml:dpeker"],"prob":0.876}}}},{"classId":"e_4","part":"s12v1","offsets":[{"start":620,"text":"Taylor Valley"}],"coordinates":[],"confidence":{"state":"pre-added","who":["ml:dpeker"],"prob":0.9472},"fields":{},"normalizations":{"n_34":{"source":{"name":"GeoNames","id":"132512","url":null},"recName":"Taylor Valley","confidence":{"state":"pre-added","who":["ml:dpeker"],"prob":0.9472}}}},{"classId":"e_4","part":"s12v1","offsets":[{"start":1083,"text":"Darwin Mountains"}],"coordinates":[],"confidence":{"state":"pre-added","who":["ml:dpeker"],"prob":0.9592},"fields":{},"normalizations":{"n_34":{"source":{"name":"GeoNames","id":"1673","url":null},"recName":"Darwin Mountains","confidence":{"state":"pre-added","who":["ml:dpeker"],"prob":0.9592}}}},{"classId":"e_4","part":"s12v1","offsets":[{"start":1498,"text":"McMurdo Sound"}],"coordinates":[],"confidence":{"state":"pre-added","who":["ml:dpeker"],"prob":0.9472},"fields":{},"normalizations":{"n_34":{"source":{"name":"GeoNames","id":"128724","url":null},"recName":"McMurdo Sound","confidence":{"state":"pre-added","who":["ml:dpeker"],"prob":0.9472}}}},{"classId":"e_4","part":"s12v1","offsets":[{"start":2546,"text":"Darwin Glacier"}],"coordinates":[],"confidence":{"state":"pre-added","who":["ml:dpeker"],"prob":0.9518},"fields":{},"normalizations":{"n_34":{"source":{"name":"GeoNames","id":"124112","url":null},"recName":"Darwin Glacier","confidence":{"state":"pre-added","who":["ml:dpeker"],"prob":0.9518}}}},{"classId":"e_2","part":"s12v1","offsets":[{"start":2782,"text":"Panagrolaimus sp"}],"coordinates":[],"confidence":{"state":"pre-added","who":["ml:dpeker"],"prob":0.9226},"fields":{},"normalizations":{"n_33":{"source":{"name":"NematodeNames","id":"Panasp","url":null},"recName":"Panagrolaimus spp.","confidence":{"state":"pre-added","who":["ml:dpeker"],"prob":0.9226}}}},{"classId":"e_2","part":"s12v1","offsets":[{"start":2823,"text":"Panagrolai- mus davidi"}],"coordinates":[],"confidence":{"state":"pre-added","who":["ml:dpeker"],"prob":0.8524},"fields":{},"normalizations":{"n_33":{"source":{"name":"NematodeNames","id":"Padavi","url":null},"recName":"Panagrolaimus davidi","confidence":{"state":"pre-added","who":["ml:dpeker"],"prob":0.8524}}}},{"classId":"e_4","part":"s12v1","offsets":[{"start":3635,"text":"Spits"}],"coordinates":[],"confidence":{"state":"pre-added","who":["ml:dpeker"],"prob":0.619},"fields":{},"normalizations":{"n_34":{"source":{"name":"GeoNames","id":"114439","url":null},"recName":"Spit","confidence":{"state":"pre-added","who":["ml:dpeker"],"prob":0.619}}}}],"relations":[{"classId":"r_22","type":"linked","directed":false,"entities":["s1v1|e_4|3054,3067","s1v1|e_2|3171,3189"],"confidence":{"state":"pre-added","who":["user:ICTAR"],"prob":1}},{"classId":"r_22","type":"linked","directed":false,"entities":["s5v1|e_4|720,732","s5v1|e_2|557,575"],"confidence":{"state":"pre-added","who":["user:ICTAR"],"prob":1}},{"classId":"r_22","type":"linked","directed":false,"entities":["s5v1|e_4|993,1004","s5v1|e_2|557,575"],"confidence":{"state":"pre-added","who":["user:ICTAR"],"prob":1}},{"classId":"r_22","type":"linked","directed":false,"entities":["s5v1|e_2|1050,1061","s5v1|e_4|1086,1097"],"confidence":{"state":"pre-added","who":["user:ICTAR"],"prob":1}},{"classId":"r_22","type":"linked","directed":false,"entities":["s6v1|e_2|1274,1285","s6v1|e_4|1836,1849"],"confidence":{"state":"pre-added","who":["user:ICTAR"],"prob":1}},{"classId":"r_22","type":"linked","directed":false,"entities":["s7v1|e_2|773,784","s7v1|e_4|858,870"],"confidence":{"state":"pre-added","who":["user:ICTAR"],"prob":1}},{"classId":"r_22","type":"linked","directed":false,"entities":["s7v1|e_4|2060,2071","s7v1|e_2|1994,2005"],"confidence":{"state":"pre-added","who":["user:ICTAR"],"prob":1}},{"classId":"r_22","type":"linked","directed":false,"entities":["s7v1|e_2|4339,4350","s7v1|e_4|4406,4417"],"confidence":{"state":"pre-added","who":["user:ICTAR"],"prob":1}}]}