{"annotatable":{"parts":["s1v1","s2v1","s3v1","s4v1","s5v1","s6v1","s7v1","s8v1","s9v1","s10v1","s11v1","s12v1","s13v1","s14v1"]},"anncomplete":true,"sources":[],"metas":{"m_14":{"value":true,"confidence":{"state":"pre-added","who":["user:ICTAR"],"prob":1}},"m_76":{"value":true,"confidence":{"state":"pre-added","who":["user:ICTAR"],"prob":1}},"m_16":{"value":"Ross Sea Region","confidence":{"state":"pre-added","who":["user:ICTAR"],"prob":1}}},"entities":[{"classId":"e_4","part":"s1v1","offsets":[{"start":86,"text":"McMurdo Dry Valleys"}],"coordinates":[],"confidence":{"state":"pre-added","who":["ml:dpeker"],"prob":0.9671},"fields":{},"normalizations":{"n_34":{"source":{"name":"GeoNamesSCAR","id":"113892","url":null},"recName":"McMurdo Dry Valleys","confidence":{"state":"pre-added","who":["ml:dpeker"],"prob":0.9671}}}},{"classId":"e_4","part":"s1v1","offsets":[{"start":132,"text":"Cape Adare"}],"coordinates":[],"confidence":{"state":"pre-added","who":["ml:dpeker"],"prob":0.9266},"fields":{},"normalizations":{"n_34":{"source":{"name":"GeoNamesSCAR","id":"121591","url":null},"recName":"Adare, Cape","confidence":{"state":"pre-added","who":["ml:dpeker"],"prob":0.9266}}}},{"classId":"e_2","part":"s1v1","offsets":[{"start":3649,"text":"Eudorylaimus"}],"coordinates":[],"confidence":{"state":"pre-added","who":["ml:dpeker"],"prob":0.9416},"fields":{},"normalizations":{"n_33":{"source":{"name":"NematodeNames","id":"eudosp","url":null},"recName":"Eudorylaimus spp.","confidence":{"state":"pre-added","who":["ml:dpeker"],"prob":0.9416}}}},{"classId":"e_47","part":"s1v1","offsets":[{"start":4258,"text":"There were no apparent correlations between metazoan and bacterial diversity, suggesting that controls over distribution and habitat suitability are different for bacterial and metazoan communities. Our results imply that top-down controls over bacterial diversity mediated by their metazoan consumers are not significant determinants of bacterial community structure and biomass in these ecosystems"}],"coordinates":[{"x":"237.31","y":"345.65"},{"x":"123.94","y":"400.22"}],"confidence":{"state":"pre-added","who":["user:ICTAR"],"prob":1},"fields":{},"normalizations":{}},{"classId":"e_4","part":"s2v1","offsets":[{"start":1647,"text":"Taylor Valley"}],"coordinates":[],"confidence":{"state":"pre-added","who":["ml:dpeker"],"prob":0.9472},"fields":{},"normalizations":{"n_34":{"source":{"name":"GeoNamesSCAR","id":"132512","url":null},"recName":"Taylor Valley","confidence":{"state":"pre-added","who":["ml:dpeker"],"prob":0.9472}}}},{"classId":"e_4","part":"s2v1","offsets":[{"start":1712,"text":"McMurdo Dry Valleys"}],"coordinates":[],"confidence":{"state":"pre-added","who":["ml:dpeker"],"prob":0.9671},"fields":{},"normalizations":{"n_34":{"source":{"name":"GeoNamesSCAR","id":"113892","url":null},"recName":"McMurdo Dry Valleys","confidence":{"state":"pre-added","who":["ml:dpeker"],"prob":0.9671}}}},{"classId":"e_4","part":"s2v1","offsets":[{"start":1819,"text":"Taylor Valley"}],"coordinates":[],"confidence":{"state":"pre-added","who":["ml:dpeker"],"prob":0.9472},"fields":{},"normalizations":{"n_34":{"source":{"name":"GeoNamesSCAR","id":"132512","url":null},"recName":"Taylor Valley","confidence":{"state":"pre-added","who":["ml:dpeker"],"prob":0.9472}}}},{"classId":"e_4","part":"s2v1","offsets":[{"start":2555,"text":"Taylor Valley"}],"coordinates":[],"confidence":{"state":"pre-added","who":["ml:dpeker"],"prob":0.9472},"fields":{},"normalizations":{"n_34":{"source":{"name":"GeoNamesSCAR","id":"132512","url":null},"recName":"Taylor Valley","confidence":{"state":"pre-added","who":["ml:dpeker"],"prob":0.9472}}}},{"classId":"e_4","part":"s2v1","offsets":[{"start":2876,"text":"lake margins"}],"coordinates":[],"confidence":{"state":"pre-added","who":["ml:dpeker"],"prob":0.7243},"fields":{},"normalizations":{"n_34":{"source":{"name":"GeoNamesSCAR","id":"113831","url":null},"recName":"Marginal, Lake","confidence":{"state":"pre-added","who":["ml:dpeker"],"prob":0.7243}}}},{"classId":"e_41","part":"s2v1","offsets":[{"start":3121,"text":"Phormidium spp"}],"coordinates":[],"confidence":{"state":"pre-added","who":["ml:dpeker"],"prob":0.9106},"fields":{},"normalizations":{"n_55":{"source":{"name":"CyanobacteriaNames","id":"phorsp","url":null},"recName":"Phormidium sp.","confidence":{"state":"pre-added","who":["ml:dpeker"],"prob":0.9106}}}},{"classId":"e_41","part":"s2v1","offsets":[{"start":3138,"text":"Nostoc spp"}],"coordinates":[],"confidence":{"state":"pre-added","who":["ml:dpeker"],"prob":0.8719},"fields":{},"normalizations":{"n_55":{"source":{"name":"CyanobacteriaNames","id":"nostsp","url":null},"recName":"Nostoc","confidence":{"state":"pre-added","who":["ml:dpeker"],"prob":0.8719}}}},{"classId":"e_1","part":"s2v1","offsets":[{"start":3178,"text":"Byrum spp"}],"coordinates":[],"confidence":{"state":"pre-added","who":["ml:dpeker"],"prob":0.8568},"fields":{},"normalizations":{"n_32":{"source":{"name":"MossNames","id":"bryusp","url":null},"recName":"Byrum spp.","confidence":{"state":"pre-added","who":["ml:dpeker"],"prob":0.8568}}}},{"classId":"e_1","part":"s2v1","offsets":[{"start":3190,"text":"Hennediella heimii"}],"coordinates":[],"confidence":{"state":"pre-added","who":["ml:dpeker"],"prob":0.9648},"fields":{},"normalizations":{"n_32":{"source":{"name":"MossNames","id":"heheim","url":null},"recName":"Hennediella heimii","confidence":{"state":"pre-added","who":["ml:dpeker"],"prob":0.9648}}}},{"classId":"e_4","part":"s2v1","offsets":[{"start":3476,"text":"Cape Hallett"}],"coordinates":[],"confidence":{"state":"pre-added","who":["ml:dpeker"],"prob":0.9416},"fields":{},"normalizations":{"n_34":{"source":{"name":"GeoNamesSCAR","id":"126118","url":null},"recName":"Hallett, Cape","confidence":{"state":"pre-added","who":["ml:dpeker"],"prob":0.9416}}}},{"classId":"e_4","part":"s2v1","offsets":[{"start":3490,"text":"Luther Vale"}],"coordinates":[],"confidence":{"state":"pre-added","who":["ml:dpeker"],"prob":0.9349},"fields":{},"normalizations":{"n_52":{"source":{"name":"GeoNamesCustom","id":"AV002","url":null},"recName":"Luther Vale","confidence":{"state":"pre-added","who":["ml:dpeker"],"prob":0.9349}}}},{"classId":"e_4","part":"s2v1","offsets":[{"start":3506,"text":"Taylor Valley"}],"coordinates":[],"confidence":{"state":"pre-added","who":["ml:dpeker"],"prob":0.9472},"fields":{},"normalizations":{"n_34":{"source":{"name":"GeoNamesSCAR","id":"132512","url":null},"recName":"Taylor Valley","confidence":{"state":"pre-added","who":["ml:dpeker"],"prob":0.9472}}}},{"classId":"e_4","part":"s2v1","offsets":[{"start":3669,"text":"Taylor Valley"}],"coordinates":[],"confidence":{"state":"pre-added","who":["ml:dpeker"],"prob":0.9472},"fields":{},"normalizations":{"n_34":{"source":{"name":"GeoNamesSCAR","id":"132512","url":null},"recName":"Taylor Valley","confidence":{"state":"pre-added","who":["ml:dpeker"],"prob":0.9472}}}},{"classId":"e_4","part":"s2v1","offsets":[{"start":3706,"text":"Luther Vale"}],"coordinates":[],"confidence":{"state":"pre-added","who":["ml:dpeker"],"prob":0.9349},"fields":{},"normalizations":{"n_52":{"source":{"name":"GeoNamesCustom","id":"AV002","url":null},"recName":"Luther Vale","confidence":{"state":"pre-added","who":["ml:dpeker"],"prob":0.9349}}}},{"classId":"e_4","part":"s2v1","offsets":[{"start":3745,"text":"Cape Hallett"}],"coordinates":[],"confidence":{"state":"pre-added","who":["ml:dpeker"],"prob":0.9416},"fields":{},"normalizations":{"n_34":{"source":{"name":"GeoNamesSCAR","id":"126118","url":null},"recName":"Hallett, Cape","confidence":{"state":"pre-added","who":["ml:dpeker"],"prob":0.9416}}}},{"classId":"e_4","part":"s3v1","offsets":[{"start":45,"text":"Cape Hallett"}],"coordinates":[],"confidence":{"state":"pre-added","who":["ml:dpeker"],"prob":0.9416},"fields":{},"normalizations":{"n_34":{"source":{"name":"GeoNamesSCAR","id":"126118","url":null},"recName":"Hallett, Cape","confidence":{"state":"pre-added","who":["ml:dpeker"],"prob":0.9416}}}},{"classId":"e_4","part":"s3v1","offsets":[{"start":164,"text":"Cape Adare"}],"coordinates":[],"confidence":{"state":"pre-added","who":["ml:dpeker"],"prob":0.9266},"fields":{},"normalizations":{"n_34":{"source":{"name":"GeoNamesSCAR","id":"121591","url":null},"recName":"Adare, Cape","confidence":{"state":"pre-added","who":["ml:dpeker"],"prob":0.9266}}}},{"classId":"e_4","part":"s3v1","offsets":[{"start":337,"text":"Cape Hallett"}],"coordinates":[],"confidence":{"state":"pre-added","who":["ml:dpeker"],"prob":0.9416},"fields":{},"normalizations":{"n_34":{"source":{"name":"GeoNamesSCAR","id":"126118","url":null},"recName":"Hallett, Cape","confidence":{"state":"pre-added","who":["ml:dpeker"],"prob":0.9416}}}},{"classId":"e_4","part":"s3v1","offsets":[{"start":466,"text":"Seabee Spit"}],"coordinates":[],"confidence":{"state":"pre-added","who":["ml:dpeker"],"prob":0.9349},"fields":{},"normalizations":{"n_52":{"source":{"name":"GeoNamesCustom","id":"AV003","url":null},"recName":"SeaBee Spit","confidence":{"state":"pre-added","who":["ml:dpeker"],"prob":0.9349}}}},{"classId":"e_4","part":"s3v1","offsets":[{"start":624,"text":"Cape Hallett"}],"coordinates":[],"confidence":{"state":"pre-added","who":["ml:dpeker"],"prob":0.9416},"fields":{},"normalizations":{"n_34":{"source":{"name":"GeoNamesSCAR","id":"126118","url":null},"recName":"Hallett, Cape","confidence":{"state":"pre-added","who":["ml:dpeker"],"prob":0.9416}}}},{"classId":"e_1","part":"s3v1","offsets":[{"start":716,"text":"Byrum spp"}],"coordinates":[],"confidence":{"state":"pre-added","who":["ml:dpeker"],"prob":0.8568},"fields":{},"normalizations":{"n_32":{"source":{"name":"MossNames","id":"bryusp","url":null},"recName":"Byrum spp.","confidence":{"state":"pre-added","who":["ml:dpeker"],"prob":0.8568}}}},{"classId":"e_40","part":"s3v1","offsets":[{"start":742,"text":"Praisola spp"}],"coordinates":[],"confidence":{"state":"pre-added","who":["ml:dpeker"],"prob":0.8945},"fields":{},"normalizations":{"n_75":{"source":{"name":"AlgaeNames","id":"prassp","url":null},"recName":"Prasiola sp.","confidence":{"state":"pre-added","who":["ml:dpeker"],"prob":0.8945}}}},{"classId":"e_4","part":"s3v1","offsets":[{"start":810,"text":"Willett Cove"}],"coordinates":[],"confidence":{"state":"pre-added","who":["ml:dpeker"],"prob":0.9416},"fields":{},"normalizations":{"n_34":{"source":{"name":"GeoNamesSCAR","id":"133718","url":null},"recName":"Willett Cove","confidence":{"state":"pre-added","who":["ml:dpeker"],"prob":0.9416}}}},{"classId":"e_4","part":"s3v1","offsets":[{"start":946,"text":"Bornmann Glacier"}],"coordinates":[],"confidence":{"state":"pre-added","who":["ml:dpeker"],"prob":0.9592},"fields":{},"normalizations":{"n_34":{"source":{"name":"GeoNamesSCAR","id":"122753","url":null},"recName":"Bornmann Glacier","confidence":{"state":"pre-added","who":["ml:dpeker"],"prob":0.9592}}}},{"classId":"e_4","part":"s3v1","offsets":[{"start":1071,"text":"Cape Hallett"}],"coordinates":[],"confidence":{"state":"pre-added","who":["ml:dpeker"],"prob":0.9416},"fields":{},"normalizations":{"n_34":{"source":{"name":"GeoNamesSCAR","id":"126118","url":null},"recName":"Hallett, Cape","confidence":{"state":"pre-added","who":["ml:dpeker"],"prob":0.9416}}}},{"classId":"e_4","part":"s3v1","offsets":[{"start":1323,"text":"Cape Hallett"}],"coordinates":[],"confidence":{"state":"pre-added","who":["ml:dpeker"],"prob":0.9416},"fields":{},"normalizations":{"n_34":{"source":{"name":"GeoNamesSCAR","id":"126118","url":null},"recName":"Hallett, Cape","confidence":{"state":"pre-added","who":["ml:dpeker"],"prob":0.9416}}}},{"classId":"e_4","part":"s3v1","offsets":[{"start":1393,"text":"mountain ranges"}],"coordinates":[],"confidence":{"state":"pre-added","who":["ml:dpeker"],"prob":0.6747},"fields":{},"normalizations":{"n_34":{"source":{"name":"GeoNamesSCAR","id":"129157","url":null},"recName":"Mountaineer Range","confidence":{"state":"pre-added","who":["ml:dpeker"],"prob":0.6747}}}},{"classId":"e_4","part":"s3v1","offsets":[{"start":1530,"text":"McMurdo Dry Valleys"}],"coordinates":[],"confidence":{"state":"pre-added","who":["ml:dpeker"],"prob":0.9671},"fields":{},"normalizations":{"n_34":{"source":{"name":"GeoNamesSCAR","id":"113892","url":null},"recName":"McMurdo Dry Valleys","confidence":{"state":"pre-added","who":["ml:dpeker"],"prob":0.9671}}}},{"classId":"e_4","part":"s3v1","offsets":[{"start":1595,"text":"Luther Peak"}],"coordinates":[],"confidence":{"state":"pre-added","who":["ml:dpeker"],"prob":0.9349},"fields":{},"normalizations":{"n_34":{"source":{"name":"GeoNamesSCAR","id":"128240","url":null},"recName":"Luther Peak","confidence":{"state":"pre-added","who":["ml:dpeker"],"prob":0.9349}}}},{"classId":"e_4","part":"s3v1","offsets":[{"start":1671,"text":"Luther Vale"}],"coordinates":[],"confidence":{"state":"pre-added","who":["ml:dpeker"],"prob":0.9349},"fields":{},"normalizations":{"n_52":{"source":{"name":"GeoNamesCustom","id":"AV002","url":null},"recName":"Luther Vale","confidence":{"state":"pre-added","who":["ml:dpeker"],"prob":0.9349}}}},{"classId":"e_4","part":"s3v1","offsets":[{"start":1875,"text":"Luther Peak"}],"coordinates":[],"confidence":{"state":"pre-added","who":["ml:dpeker"],"prob":0.9349},"fields":{},"normalizations":{"n_34":{"source":{"name":"GeoNamesSCAR","id":"128240","url":null},"recName":"Luther Peak","confidence":{"state":"pre-added","who":["ml:dpeker"],"prob":0.9349}}}},{"classId":"e_4","part":"s3v1","offsets":[{"start":2030,"text":"Taylor Valley"}],"coordinates":[],"confidence":{"state":"pre-added","who":["ml:dpeker"],"prob":0.9472},"fields":{},"normalizations":{"n_34":{"source":{"name":"GeoNamesSCAR","id":"132512","url":null},"recName":"Taylor Valley","confidence":{"state":"pre-added","who":["ml:dpeker"],"prob":0.9472}}}},{"classId":"e_4","part":"s3v1","offsets":[{"start":2045,"text":"Cape Hallett"}],"coordinates":[],"confidence":{"state":"pre-added","who":["ml:dpeker"],"prob":0.9416},"fields":{},"normalizations":{"n_34":{"source":{"name":"GeoNamesSCAR","id":"126118","url":null},"recName":"Hallett, Cape","confidence":{"state":"pre-added","who":["ml:dpeker"],"prob":0.9416}}}},{"classId":"e_4","part":"s3v1","offsets":[{"start":2059,"text":"Luther Vale"}],"coordinates":[],"confidence":{"state":"pre-added","who":["ml:dpeker"],"prob":0.9349},"fields":{},"normalizations":{"n_52":{"source":{"name":"GeoNamesCustom","id":"AV002","url":null},"recName":"Luther Vale","confidence":{"state":"pre-added","who":["ml:dpeker"],"prob":0.9349}}}},{"classId":"e_4","part":"s3v1","offsets":[{"start":2335,"text":"Taylor Valley"}],"coordinates":[],"confidence":{"state":"pre-added","who":["ml:dpeker"],"prob":0.9472},"fields":{},"normalizations":{"n_34":{"source":{"name":"GeoNamesSCAR","id":"132512","url":null},"recName":"Taylor Valley","confidence":{"state":"pre-added","who":["ml:dpeker"],"prob":0.9472}}}},{"classId":"e_4","part":"s3v1","offsets":[{"start":2455,"text":"Lake Fryxell"}],"coordinates":[],"confidence":{"state":"pre-added","who":["ml:dpeker"],"prob":0.9416},"fields":{},"normalizations":{"n_34":{"source":{"name":"GeoNamesSCAR","id":"125440","url":null},"recName":"Fryxell, Lake","confidence":{"state":"pre-added","who":["ml:dpeker"],"prob":0.9416}}}},{"classId":"e_4","part":"s3v1","offsets":[{"start":2622,"text":"Von Guerard Stream"}],"coordinates":[],"confidence":{"state":"pre-added","who":["ml:dpeker"],"prob":0.9648},"fields":{},"normalizations":{"n_34":{"source":{"name":"GeoNamesSCAR","id":"133312","url":null},"recName":"Von Guerard Stream","confidence":{"state":"pre-added","who":["ml:dpeker"],"prob":0.9648}}}},{"classId":"e_4","part":"s3v1","offsets":[{"start":2645,"text":"Green Creek"}],"coordinates":[],"confidence":{"state":"pre-added","who":["ml:dpeker"],"prob":0.9349},"fields":{},"normalizations":{"n_34":{"source":{"name":"GeoNamesSCAR","id":"125908","url":null},"recName":"Green Creek","confidence":{"state":"pre-added","who":["ml:dpeker"],"prob":0.9349}}}},{"classId":"e_4","part":"s3v1","offsets":[{"start":2658,"text":"Green Creek"}],"coordinates":[],"confidence":{"state":"pre-added","who":["ml:dpeker"],"prob":0.9349},"fields":{},"normalizations":{"n_34":{"source":{"name":"GeoNamesSCAR","id":"125908","url":null},"recName":"Green Creek","confidence":{"state":"pre-added","who":["ml:dpeker"],"prob":0.9349}}}},{"classId":"e_4","part":"s3v1","offsets":[{"start":2733,"text":"Taylor Valley"}],"coordinates":[],"confidence":{"state":"pre-added","who":["ml:dpeker"],"prob":0.9472},"fields":{},"normalizations":{"n_34":{"source":{"name":"GeoNamesSCAR","id":"132512","url":null},"recName":"Taylor Valley","confidence":{"state":"pre-added","who":["ml:dpeker"],"prob":0.9472}}}},{"classId":"e_4","part":"s3v1","offsets":[{"start":2967,"text":"Luther Vale"}],"coordinates":[],"confidence":{"state":"pre-added","who":["ml:dpeker"],"prob":0.9349},"fields":{},"normalizations":{"n_52":{"source":{"name":"GeoNamesCustom","id":"AV002","url":null},"recName":"Luther Vale","confidence":{"state":"pre-added","who":["ml:dpeker"],"prob":0.9349}}}},{"classId":"e_4","part":"s3v1","offsets":[{"start":3213,"text":"Cape Hallett"}],"coordinates":[],"confidence":{"state":"pre-added","who":["ml:dpeker"],"prob":0.9416},"fields":{},"normalizations":{"n_34":{"source":{"name":"GeoNamesSCAR","id":"126118","url":null},"recName":"Hallett, Cape","confidence":{"state":"pre-added","who":["ml:dpeker"],"prob":0.9416}}}},{"classId":"e_4","part":"s3v1","offsets":[{"start":3426,"text":"SeaBee Spit"}],"coordinates":[],"confidence":{"state":"pre-added","who":["ml:dpeker"],"prob":0.9349},"fields":{},"normalizations":{"n_52":{"source":{"name":"GeoNamesCustom","id":"AV003","url":null},"recName":"SeaBee Spit","confidence":{"state":"pre-added","who":["ml:dpeker"],"prob":0.9349}}}},{"classId":"e_4","part":"s3v1","offsets":[{"start":3470,"text":"Willett Cove"}],"coordinates":[],"confidence":{"state":"pre-added","who":["ml:dpeker"],"prob":0.9416},"fields":{},"normalizations":{"n_34":{"source":{"name":"GeoNamesSCAR","id":"133718","url":null},"recName":"Willett Cove","confidence":{"state":"pre-added","who":["ml:dpeker"],"prob":0.9416}}}},{"classId":"e_4","part":"s3v1","offsets":[{"start":3635,"text":"Taylor Valley"}],"coordinates":[],"confidence":{"state":"pre-added","who":["ml:dpeker"],"prob":0.9472},"fields":{},"normalizations":{"n_34":{"source":{"name":"GeoNamesSCAR","id":"132512","url":null},"recName":"Taylor Valley","confidence":{"state":"pre-added","who":["ml:dpeker"],"prob":0.9472}}}},{"classId":"e_4","part":"s3v1","offsets":[{"start":3650,"text":"Cape Hallett"}],"coordinates":[],"confidence":{"state":"pre-added","who":["ml:dpeker"],"prob":0.9416},"fields":{},"normalizations":{"n_34":{"source":{"name":"GeoNamesSCAR","id":"126118","url":null},"recName":"Hallett, Cape","confidence":{"state":"pre-added","who":["ml:dpeker"],"prob":0.9416}}}},{"classId":"e_4","part":"s3v1","offsets":[{"start":3667,"text":"Luther Vale"}],"coordinates":[],"confidence":{"state":"pre-added","who":["ml:dpeker"],"prob":0.9349},"fields":{},"normalizations":{"n_52":{"source":{"name":"GeoNamesCustom","id":"AV002","url":null},"recName":"Luther Vale","confidence":{"state":"pre-added","who":["ml:dpeker"],"prob":0.9349}}}},{"classId":"e_4","part":"s3v1","offsets":[{"start":4561,"text":"days"}],"coordinates":[],"confidence":{"state":"pre-added","who":["ml:dpeker"],"prob":0.4836},"fields":{},"normalizations":{"n_34":{"source":{"name":"GeoNamesSCAR","id":"124046","url":null},"recName":"Dais","confidence":{"state":"pre-added","who":["ml:dpeker"],"prob":0.4836}}}},{"classId":"e_4","part":"s4v1","offsets":[{"start":2836,"text":"days"}],"coordinates":[],"confidence":{"state":"pre-added","who":["ml:dpeker"],"prob":0.4836},"fields":{},"normalizations":{"n_34":{"source":{"name":"GeoNamesSCAR","id":"124046","url":null},"recName":"Dais","confidence":{"state":"pre-added","who":["ml:dpeker"],"prob":0.4836}}}},{"classId":"e_4","part":"s4v1","offsets":[{"start":3116,"text":"McMurdo Station"}],"coordinates":[],"confidence":{"state":"pre-added","who":["ml:dpeker"],"prob":0.9558},"fields":{},"normalizations":{"n_34":{"source":{"name":"GeoNamesSCAR","id":"128725","url":null},"recName":"McMurdo Station","confidence":{"state":"pre-added","who":["ml:dpeker"],"prob":0.9558}}}},{"classId":"e_56","part":"s4v1","offsets":[{"start":3273,"text":"Nucleic acids were extracted from soil using a modified cetyltrimethyl-ammonium bromide-polyvinylpyrrolidone- βmercaptoethanol (CTAB) extraction protocol (Coyne et al. 2001) designed for maximum recovery of nucleic acids from low biomass silica-rich soils. Soils (0.7 g) were aseptically measured into 1.5 ml tubes containing 0.5 g each 0.1 mm and 2.5 mm zirconia/silica beads (Biospec Products Inc, Bartlesville, OK). Beads were baked at 250°C for 2 hours prior to use. A 300 μl phosphate buffer (100 mM NaH2PO4), and 300 μl SDS lysis buffer (100 mM NaCl, 500 mM Tris pH 8.0, 10% SDS) were added to the tubes. A Fast Prep® FP120 cell disrupter was used at 4.0 ms-1 for 30 sec to lyse the cells. Samples were then centrifuged at 13 200 rpm for 3 min. The supernatant was removed and transferred to a 1.5 ml sterile Eppendorf tube containing 200μl CTAB buffer (100 mM Tris-HCl, 1.4 M NaCl, 20mM EDTA, 2% CTAB, 1% PVP, 0.4% BME). Samples were incubated at 100 rpm and 60°C for 30 min. Subsequent to incubation, 1000 μl chloroform:isoamyl alcohol (24:1) was added to each sample. Samples were mixed by repeated inversion, vortexed for 15 sec and then centrifuged at 13 200 rpm for 5 min. The upper aqueous layer was removed into a sterile 1.5 ml Eppendorf tube. An additional chloroform extraction was performed by adding 500 μl chloroform:isoamyl alcohol (24:1), vortexing the samples for 10 seconds followed by incubation on a rocking bed for 20 min at room temperature. Samples were then centrifuged at 13 200 rpm for 5 min and the upper aqueous layer was removed into a 1.5 ml sterile Eppendorf tube. DNA was precipitated for at least one hour at -80°C with the addition of ammonium acetate to a final concentration of 2.5 M and 0.54 volume isopropyl alcohol. Samples were then centrifuged at 13 200 rpm for 20 min and the DNA pellet was washed with 1 ml 70% ethanol and air dried in a laminar flow hood for 1 hour. DNA was resuspended in 20 μl sterile LO-TE (3 mM Tris-HCl pH = 8,0.2 mM EDTA) and stored at -80°C until use. The yield and quality of each DNA preparation was evaluated through visualization on a 1% agarose gel and quantified using a NanoDrop ND-1000 spectrophotometer at 260 nm (NanoDrop Technologies, Montchanin, DE)"}],"coordinates":[{"x":"323.97","y":"194.48"},{"x":"490.37","y":"681.05"}],"confidence":{"state":"pre-added","who":["user:ICTAR"],"prob":1},"fields":{},"normalizations":{}},{"classId":"e_57","part":"s5v1","offsets":[{"start":44,"text":"Although it is subject to biases of the PCR (Suzuki & Giovannoni 1996, Polz & Cavanaugh 1998), DGGE is capable of resolving DNA fragments differing by a single base pair (Myers et al. 1988, Lessa & Applebaum 1993) and detecting amplicons comprising ≥ 1% of the total community (Muyzer et al. 1993, Lee et al. 1996, Murray et al. 1996). For bacterial DGGE analysis, the V3 region (~ 180 bp) of the bacterial 16S rDNA genes present in soil samples was amplified using PCR (Saiki et al. 1988) with primers 338F/GC clamp and 519RC as described by Muyzer et al. (1993). For each sample, 325 μl reactions were pooled. Amplifications were performed using 10 ng template DNA, 1x JumpStart PCR Buffer (Sigma, St. Louis, MO), 0.2mM each deoxyribonucleotide triphosphate (dNTP), 2.5 mM MgCl2, 4% DMSO, 0.2 μM (each) primer, and 0.5U JumpStart Taq polymerase (Sigma). Three PCA amplifications from each template were performed on a PTC-200 Thermocycler (MJ Research Inc, Waltham, MA) using the following hot start (DAquila et al. 1991) touchdown protocol: 94ºC for 2 min, followed by 30 cycles of 94ºC for 0.5 min, 65°C (-0.5ºC per cycle until 55°C was reached) for 0.5 min, and 72ºC for 1 min with a final elongation step consisting of 72°C for 7 min. Each set of amplifications was subsequently pooled for each template and evaluated through visualization on a 1% agarose gel, purified using a QIAquick PCR Purification Kit (Qiagen) and quantified spectro- photometrically as above."}],"coordinates":[{"x":"223.57","y":"62.48"},{"x":"145.24","y":"393.05"}],"confidence":{"state":"pre-added","who":["user:ICTAR"],"prob":1},"fields":{},"normalizations":{}},{"classId":"e_4","part":"s5v1","offsets":[{"start":4515,"text":"Von Guerard Stream"}],"coordinates":[],"confidence":{"state":"pre-added","who":["ml:dpeker"],"prob":0.9648},"fields":{},"normalizations":{"n_34":{"source":{"name":"GeoNamesSCAR","id":"133312","url":null},"recName":"Von Guerard Stream","confidence":{"state":"pre-added","who":["ml:dpeker"],"prob":0.9648}}}},{"classId":"e_4","part":"s5v1","offsets":[{"start":4613,"text":"Green Creek"}],"coordinates":[],"confidence":{"state":"pre-added","who":["ml:dpeker"],"prob":0.9349},"fields":{},"normalizations":{"n_34":{"source":{"name":"GeoNamesSCAR","id":"125908","url":null},"recName":"Green Creek","confidence":{"state":"pre-added","who":["ml:dpeker"],"prob":0.9349}}}},{"classId":"e_4","part":"s5v1","offsets":[{"start":4706,"text":"Luther Vale"}],"coordinates":[],"confidence":{"state":"pre-added","who":["ml:dpeker"],"prob":0.9349},"fields":{},"normalizations":{"n_52":{"source":{"name":"GeoNamesCustom","id":"AV002","url":null},"recName":"Luther Vale","confidence":{"state":"pre-added","who":["ml:dpeker"],"prob":0.9349}}}},{"classId":"e_4","part":"s5v1","offsets":[{"start":4806,"text":"Luther Vale"}],"coordinates":[],"confidence":{"state":"pre-added","who":["ml:dpeker"],"prob":0.9349},"fields":{},"normalizations":{"n_52":{"source":{"name":"GeoNamesCustom","id":"AV002","url":null},"recName":"Luther Vale","confidence":{"state":"pre-added","who":["ml:dpeker"],"prob":0.9349}}}},{"classId":"e_4","part":"s5v1","offsets":[{"start":4905,"text":"Willett Cove"}],"coordinates":[],"confidence":{"state":"pre-added","who":["ml:dpeker"],"prob":0.9416},"fields":{},"normalizations":{"n_34":{"source":{"name":"GeoNamesSCAR","id":"133718","url":null},"recName":"Willett Cove","confidence":{"state":"pre-added","who":["ml:dpeker"],"prob":0.9416}}}},{"classId":"e_4","part":"s5v1","offsets":[{"start":5002,"text":"SeaBee Spit"}],"coordinates":[],"confidence":{"state":"pre-added","who":["ml:dpeker"],"prob":0.9349},"fields":{},"normalizations":{"n_52":{"source":{"name":"GeoNamesCustom","id":"AV003","url":null},"recName":"SeaBee Spit","confidence":{"state":"pre-added","who":["ml:dpeker"],"prob":0.9349}}}},{"classId":"e_4","part":"s6v1","offsets":[{"start":66,"text":"Cape Hallett"}],"coordinates":[],"confidence":{"state":"pre-added","who":["ml:dpeker"],"prob":0.9416},"fields":{},"normalizations":{"n_34":{"source":{"name":"GeoNamesSCAR","id":"126118","url":null},"recName":"Hallett, Cape","confidence":{"state":"pre-added","who":["ml:dpeker"],"prob":0.9416}}}},{"classId":"e_4","part":"s6v1","offsets":[{"start":141,"text":"Luther Vale"}],"coordinates":[],"confidence":{"state":"pre-added","who":["ml:dpeker"],"prob":0.9349},"fields":{},"normalizations":{"n_52":{"source":{"name":"GeoNamesCustom","id":"AV002","url":null},"recName":"Luther Vale","confidence":{"state":"pre-added","who":["ml:dpeker"],"prob":0.9349}}}},{"classId":"e_4","part":"s6v1","offsets":[{"start":176,"text":"Taylor Valley"}],"coordinates":[],"confidence":{"state":"pre-added","who":["ml:dpeker"],"prob":0.9472},"fields":{},"normalizations":{"n_34":{"source":{"name":"GeoNamesSCAR","id":"132512","url":null},"recName":"Taylor Valley","confidence":{"state":"pre-added","who":["ml:dpeker"],"prob":0.9472}}}},{"classId":"e_4","part":"s6v1","offsets":[{"start":329,"text":"Green Creek"}],"coordinates":[],"confidence":{"state":"pre-added","who":["ml:dpeker"],"prob":0.9349},"fields":{},"normalizations":{"n_34":{"source":{"name":"GeoNamesSCAR","id":"125908","url":null},"recName":"Green Creek","confidence":{"state":"pre-added","who":["ml:dpeker"],"prob":0.9349}}}},{"classId":"e_4","part":"s6v1","offsets":[{"start":449,"text":"Taylor Valley"}],"coordinates":[],"confidence":{"state":"pre-added","who":["ml:dpeker"],"prob":0.9472},"fields":{},"normalizations":{"n_34":{"source":{"name":"GeoNamesSCAR","id":"132512","url":null},"recName":"Taylor Valley","confidence":{"state":"pre-added","who":["ml:dpeker"],"prob":0.9472}}}},{"classId":"e_4","part":"s6v1","offsets":[{"start":467,"text":"Luther Vale"}],"coordinates":[],"confidence":{"state":"pre-added","who":["ml:dpeker"],"prob":0.9349},"fields":{},"normalizations":{"n_52":{"source":{"name":"GeoNamesCustom","id":"AV002","url":null},"recName":"Luther Vale","confidence":{"state":"pre-added","who":["ml:dpeker"],"prob":0.9349}}}},{"classId":"e_4","part":"s6v1","offsets":[{"start":562,"text":"Cape Hallett"}],"coordinates":[],"confidence":{"state":"pre-added","who":["ml:dpeker"],"prob":0.9416},"fields":{},"normalizations":{"n_34":{"source":{"name":"GeoNamesSCAR","id":"126118","url":null},"recName":"Hallett, Cape","confidence":{"state":"pre-added","who":["ml:dpeker"],"prob":0.9416}}}},{"classId":"e_4","part":"s6v1","offsets":[{"start":760,"text":"Luther Vale"}],"coordinates":[],"confidence":{"state":"pre-added","who":["ml:dpeker"],"prob":0.9349},"fields":{},"normalizations":{"n_52":{"source":{"name":"GeoNamesCustom","id":"AV002","url":null},"recName":"Luther Vale","confidence":{"state":"pre-added","who":["ml:dpeker"],"prob":0.9349}}}},{"classId":"e_4","part":"s6v1","offsets":[{"start":820,"text":"Seabee Spit"}],"coordinates":[],"confidence":{"state":"pre-added","who":["ml:dpeker"],"prob":0.9349},"fields":{},"normalizations":{"n_52":{"source":{"name":"GeoNamesCustom","id":"AV003","url":null},"recName":"SeaBee Spit","confidence":{"state":"pre-added","who":["ml:dpeker"],"prob":0.9349}}}},{"classId":"e_4","part":"s6v1","offsets":[{"start":937,"text":"Cape Hallett"}],"coordinates":[],"confidence":{"state":"pre-added","who":["ml:dpeker"],"prob":0.9416},"fields":{},"normalizations":{"n_34":{"source":{"name":"GeoNamesSCAR","id":"126118","url":null},"recName":"Hallett, Cape","confidence":{"state":"pre-added","who":["ml:dpeker"],"prob":0.9416}}}},{"classId":"e_4","part":"s6v1","offsets":[{"start":1030,"text":"Taylor Valley"}],"coordinates":[],"confidence":{"state":"pre-added","who":["ml:dpeker"],"prob":0.9472},"fields":{},"normalizations":{"n_34":{"source":{"name":"GeoNamesSCAR","id":"132512","url":null},"recName":"Taylor Valley","confidence":{"state":"pre-added","who":["ml:dpeker"],"prob":0.9472}}}},{"classId":"e_4","part":"s6v1","offsets":[{"start":1048,"text":"Luther Vale"}],"coordinates":[],"confidence":{"state":"pre-added","who":["ml:dpeker"],"prob":0.9349},"fields":{},"normalizations":{"n_52":{"source":{"name":"GeoNamesCustom","id":"AV002","url":null},"recName":"Luther Vale","confidence":{"state":"pre-added","who":["ml:dpeker"],"prob":0.9349}}}},{"classId":"e_4","part":"s6v1","offsets":[{"start":1362,"text":"Cape Hallett"}],"coordinates":[],"confidence":{"state":"pre-added","who":["ml:dpeker"],"prob":0.9416},"fields":{},"normalizations":{"n_34":{"source":{"name":"GeoNamesSCAR","id":"126118","url":null},"recName":"Hallett, Cape","confidence":{"state":"pre-added","who":["ml:dpeker"],"prob":0.9416}}}},{"classId":"e_4","part":"s6v1","offsets":[{"start":1394,"text":"Luther Vale"}],"coordinates":[],"confidence":{"state":"pre-added","who":["ml:dpeker"],"prob":0.9349},"fields":{},"normalizations":{"n_52":{"source":{"name":"GeoNamesCustom","id":"AV002","url":null},"recName":"Luther Vale","confidence":{"state":"pre-added","who":["ml:dpeker"],"prob":0.9349}}}},{"classId":"e_4","part":"s6v1","offsets":[{"start":1410,"text":"Taylor Valley"}],"coordinates":[],"confidence":{"state":"pre-added","who":["ml:dpeker"],"prob":0.9472},"fields":{},"normalizations":{"n_34":{"source":{"name":"GeoNamesSCAR","id":"132512","url":null},"recName":"Taylor Valley","confidence":{"state":"pre-added","who":["ml:dpeker"],"prob":0.9472}}}},{"classId":"e_4","part":"s6v1","offsets":[{"start":1550,"text":"Cape Hallett"}],"coordinates":[],"confidence":{"state":"pre-added","who":["ml:dpeker"],"prob":0.9416},"fields":{},"normalizations":{"n_34":{"source":{"name":"GeoNamesSCAR","id":"126118","url":null},"recName":"Hallett, Cape","confidence":{"state":"pre-added","who":["ml:dpeker"],"prob":0.9416}}}},{"classId":"e_4","part":"s6v1","offsets":[{"start":1609,"text":"Seabee Spit"}],"coordinates":[],"confidence":{"state":"pre-added","who":["ml:dpeker"],"prob":0.9349},"fields":{},"normalizations":{"n_52":{"source":{"name":"GeoNamesCustom","id":"AV003","url":null},"recName":"SeaBee Spit","confidence":{"state":"pre-added","who":["ml:dpeker"],"prob":0.9349}}}},{"classId":"e_4","part":"s6v1","offsets":[{"start":1710,"text":"Seabee Spit"}],"coordinates":[],"confidence":{"state":"pre-added","who":["ml:dpeker"],"prob":0.9349},"fields":{},"normalizations":{"n_52":{"source":{"name":"GeoNamesCustom","id":"AV003","url":null},"recName":"SeaBee Spit","confidence":{"state":"pre-added","who":["ml:dpeker"],"prob":0.9349}}}},{"classId":"e_4","part":"s6v1","offsets":[{"start":1786,"text":"Willett Cove"}],"coordinates":[],"confidence":{"state":"pre-added","who":["ml:dpeker"],"prob":0.9416},"fields":{},"normalizations":{"n_34":{"source":{"name":"GeoNamesSCAR","id":"133718","url":null},"recName":"Willett Cove","confidence":{"state":"pre-added","who":["ml:dpeker"],"prob":0.9416}}}},{"classId":"e_4","part":"s6v1","offsets":[{"start":2218,"text":"Willett Cove"}],"coordinates":[],"confidence":{"state":"pre-added","who":["ml:dpeker"],"prob":0.9416},"fields":{},"normalizations":{"n_34":{"source":{"name":"GeoNamesSCAR","id":"133718","url":null},"recName":"Willett Cove","confidence":{"state":"pre-added","who":["ml:dpeker"],"prob":0.9416}}}},{"classId":"e_4","part":"s6v1","offsets":[{"start":2235,"text":"Seabee Spit"}],"coordinates":[],"confidence":{"state":"pre-added","who":["ml:dpeker"],"prob":0.9349},"fields":{},"normalizations":{"n_52":{"source":{"name":"GeoNamesCustom","id":"AV003","url":null},"recName":"SeaBee Spit","confidence":{"state":"pre-added","who":["ml:dpeker"],"prob":0.9349}}}},{"classId":"e_4","part":"s6v1","offsets":[{"start":2294,"text":"Taylor Valley"}],"coordinates":[],"confidence":{"state":"pre-added","who":["ml:dpeker"],"prob":0.9472},"fields":{},"normalizations":{"n_34":{"source":{"name":"GeoNamesSCAR","id":"132512","url":null},"recName":"Taylor Valley","confidence":{"state":"pre-added","who":["ml:dpeker"],"prob":0.9472}}}},{"classId":"e_4","part":"s6v1","offsets":[{"start":2312,"text":"Luther Vale"}],"coordinates":[],"confidence":{"state":"pre-added","who":["ml:dpeker"],"prob":0.9349},"fields":{},"normalizations":{"n_52":{"source":{"name":"GeoNamesCustom","id":"AV002","url":null},"recName":"Luther Vale","confidence":{"state":"pre-added","who":["ml:dpeker"],"prob":0.9349}}}},{"classId":"e_4","part":"s6v1","offsets":[{"start":2481,"text":"SeaBee Spit"}],"coordinates":[],"confidence":{"state":"pre-added","who":["ml:dpeker"],"prob":0.9349},"fields":{},"normalizations":{"n_52":{"source":{"name":"GeoNamesCustom","id":"AV003","url":null},"recName":"SeaBee Spit","confidence":{"state":"pre-added","who":["ml:dpeker"],"prob":0.9349}}}},{"classId":"e_4","part":"s6v1","offsets":[{"start":2497,"text":"Willett Cove"}],"coordinates":[],"confidence":{"state":"pre-added","who":["ml:dpeker"],"prob":0.9416},"fields":{},"normalizations":{"n_34":{"source":{"name":"GeoNamesSCAR","id":"133718","url":null},"recName":"Willett Cove","confidence":{"state":"pre-added","who":["ml:dpeker"],"prob":0.9416}}}},{"classId":"e_4","part":"s6v1","offsets":[{"start":2590,"text":"Luther Vale"}],"coordinates":[],"confidence":{"state":"pre-added","who":["ml:dpeker"],"prob":0.9349},"fields":{},"normalizations":{"n_52":{"source":{"name":"GeoNamesCustom","id":"AV002","url":null},"recName":"Luther Vale","confidence":{"state":"pre-added","who":["ml:dpeker"],"prob":0.9349}}}},{"classId":"e_4","part":"s6v1","offsets":[{"start":2606,"text":"Taylor Valley"}],"coordinates":[],"confidence":{"state":"pre-added","who":["ml:dpeker"],"prob":0.9472},"fields":{},"normalizations":{"n_34":{"source":{"name":"GeoNamesSCAR","id":"132512","url":null},"recName":"Taylor Valley","confidence":{"state":"pre-added","who":["ml:dpeker"],"prob":0.9472}}}},{"classId":"e_4","part":"s6v1","offsets":[{"start":2748,"text":"SeaBee Spit"}],"coordinates":[],"confidence":{"state":"pre-added","who":["ml:dpeker"],"prob":0.9349},"fields":{},"normalizations":{"n_52":{"source":{"name":"GeoNamesCustom","id":"AV003","url":null},"recName":"SeaBee Spit","confidence":{"state":"pre-added","who":["ml:dpeker"],"prob":0.9349}}}},{"classId":"e_4","part":"s6v1","offsets":[{"start":3228,"text":"Von Guerard Stream"}],"coordinates":[],"confidence":{"state":"pre-added","who":["ml:dpeker"],"prob":0.9648},"fields":{},"normalizations":{"n_34":{"source":{"name":"GeoNamesSCAR","id":"133312","url":null},"recName":"Von Guerard Stream","confidence":{"state":"pre-added","who":["ml:dpeker"],"prob":0.9648}}}},{"classId":"e_4","part":"s6v1","offsets":[{"start":3281,"text":"Green Creek"}],"coordinates":[],"confidence":{"state":"pre-added","who":["ml:dpeker"],"prob":0.9349},"fields":{},"normalizations":{"n_34":{"source":{"name":"GeoNamesSCAR","id":"125908","url":null},"recName":"Green Creek","confidence":{"state":"pre-added","who":["ml:dpeker"],"prob":0.9349}}}},{"classId":"e_4","part":"s6v1","offsets":[{"start":3328,"text":"Willett Cove"}],"coordinates":[],"confidence":{"state":"pre-added","who":["ml:dpeker"],"prob":0.9416},"fields":{},"normalizations":{"n_34":{"source":{"name":"GeoNamesSCAR","id":"133718","url":null},"recName":"Willett Cove","confidence":{"state":"pre-added","who":["ml:dpeker"],"prob":0.9416}}}},{"classId":"e_4","part":"s6v1","offsets":[{"start":3376,"text":"SeaBee Spit"}],"coordinates":[],"confidence":{"state":"pre-added","who":["ml:dpeker"],"prob":0.9349},"fields":{},"normalizations":{"n_52":{"source":{"name":"GeoNamesCustom","id":"AV003","url":null},"recName":"SeaBee Spit","confidence":{"state":"pre-added","who":["ml:dpeker"],"prob":0.9349}}}},{"classId":"e_2","part":"s6v1","offsets":[{"start":3559,"text":"S. lindsayae"}],"coordinates":[],"confidence":{"state":"pre-added","who":["ml:dpeker"],"prob":0.9416},"fields":{},"normalizations":{"n_33":{"source":{"name":"NematodeNames","id":"sclind","url":null},"recName":"Scottnema lindsayae","confidence":{"state":"pre-added","who":["ml:dpeker"],"prob":0.9416}}}},{"classId":"e_2","part":"s6v1","offsets":[{"start":3573,"text":"Eudorylaimus"}],"coordinates":[],"confidence":{"state":"pre-added","who":["ml:dpeker"],"prob":0.9416},"fields":{},"normalizations":{"n_33":{"source":{"name":"NematodeNames","id":"eudosp","url":null},"recName":"Eudorylaimus spp.","confidence":{"state":"pre-added","who":["ml:dpeker"],"prob":0.9416}}}},{"classId":"e_2","part":"s6v1","offsets":[{"start":3587,"text":"Plectus"}],"coordinates":[],"confidence":{"state":"pre-added","who":["ml:dpeker"],"prob":0.8856},"fields":{},"normalizations":{"n_33":{"source":{"name":"NematodeNames","id":"plmurr","url":null},"recName":"","confidence":{"state":"pre-added","who":["user:ICTAR"],"prob":1}}}},{"classId":"e_2","part":"s6v1","offsets":[{"start":3595,"text":"Panagrolaimus"}],"coordinates":[],"confidence":{"state":"pre-added","who":["ml:dpeker"],"prob":0.9472},"fields":{},"normalizations":{"n_33":{"source":{"name":"NematodeNames","id":"padavi","url":null},"recName":"","confidence":{"state":"pre-added","who":["user:ICTAR"],"prob":1}}}},{"classId":"e_49","part":"s6v1","offsets":[{"start":3609,"text":"Rotatoria sp"}],"coordinates":[],"confidence":{"state":"pre-added","who":["ml:dpeker"],"prob":0.9416},"fields":{},"normalizations":{"n_53":{"source":{"name":"RotiferNames","id":"rotasp","url":null},"recName":"Rotatoria sp","confidence":{"state":"pre-added","who":["ml:dpeker"],"prob":0.9416}}}},{"classId":"e_48","part":"s6v1","offsets":[{"start":3640,"text":"Hypsibius sp"}],"coordinates":[],"confidence":{"state":"pre-added","who":["ml:dpeker"],"prob":0.9416},"fields":{},"normalizations":{"n_51":{"source":{"name":"TardigradeNames","id":"hypssp","url":null},"recName":"Hypsibius sp.","confidence":{"state":"pre-added","who":["ml:dpeker"],"prob":0.9416}}}},{"classId":"e_4","part":"s6v1","offsets":[{"start":3698,"text":"Von Guerard Stream"}],"coordinates":[],"confidence":{"state":"pre-added","who":["ml:dpeker"],"prob":0.9648},"fields":{},"normalizations":{"n_34":{"source":{"name":"GeoNamesSCAR","id":"133312","url":null},"recName":"Von Guerard Stream","confidence":{"state":"pre-added","who":["ml:dpeker"],"prob":0.9648}}}},{"classId":"e_4","part":"s6v1","offsets":[{"start":3765,"text":"Green Creek"}],"coordinates":[],"confidence":{"state":"pre-added","who":["ml:dpeker"],"prob":0.9349},"fields":{},"normalizations":{"n_34":{"source":{"name":"GeoNamesSCAR","id":"125908","url":null},"recName":"Green Creek","confidence":{"state":"pre-added","who":["ml:dpeker"],"prob":0.9349}}}},{"classId":"e_4","part":"s6v1","offsets":[{"start":3843,"text":"Luther Vale"}],"coordinates":[],"confidence":{"state":"pre-added","who":["ml:dpeker"],"prob":0.9349},"fields":{},"normalizations":{"n_52":{"source":{"name":"GeoNamesCustom","id":"AV002","url":null},"recName":"Luther Vale","confidence":{"state":"pre-added","who":["ml:dpeker"],"prob":0.9349}}}},{"classId":"e_4","part":"s6v1","offsets":[{"start":3904,"text":"Luther Vale"}],"coordinates":[],"confidence":{"state":"pre-added","who":["ml:dpeker"],"prob":0.9349},"fields":{},"normalizations":{"n_52":{"source":{"name":"GeoNamesCustom","id":"AV002","url":null},"recName":"Luther Vale","confidence":{"state":"pre-added","who":["ml:dpeker"],"prob":0.9349}}}},{"classId":"e_4","part":"s6v1","offsets":[{"start":3975,"text":"Willett Cove"}],"coordinates":[],"confidence":{"state":"pre-added","who":["ml:dpeker"],"prob":0.9416},"fields":{},"normalizations":{"n_34":{"source":{"name":"GeoNamesSCAR","id":"133718","url":null},"recName":"Willett Cove","confidence":{"state":"pre-added","who":["ml:dpeker"],"prob":0.9416}}}},{"classId":"e_4","part":"s6v1","offsets":[{"start":4054,"text":"SeaBee Spit"}],"coordinates":[],"confidence":{"state":"pre-added","who":["ml:dpeker"],"prob":0.9349},"fields":{},"normalizations":{"n_52":{"source":{"name":"GeoNamesCustom","id":"AV003","url":null},"recName":"SeaBee Spit","confidence":{"state":"pre-added","who":["ml:dpeker"],"prob":0.9349}}}},{"classId":"e_4","part":"s7v1","offsets":[{"start":698,"text":"Taylor Valley"}],"coordinates":[],"confidence":{"state":"pre-added","who":["ml:dpeker"],"prob":0.9472},"fields":{},"normalizations":{"n_34":{"source":{"name":"GeoNamesSCAR","id":"132512","url":null},"recName":"Taylor Valley","confidence":{"state":"pre-added","who":["ml:dpeker"],"prob":0.9472}}}},{"classId":"e_4","part":"s7v1","offsets":[{"start":780,"text":"Cape Hallett"}],"coordinates":[],"confidence":{"state":"pre-added","who":["ml:dpeker"],"prob":0.9416},"fields":{},"normalizations":{"n_34":{"source":{"name":"GeoNamesSCAR","id":"126118","url":null},"recName":"Hallett, Cape","confidence":{"state":"pre-added","who":["ml:dpeker"],"prob":0.9416}}}},{"classId":"e_4","part":"s7v1","offsets":[{"start":856,"text":"Willett Cove"}],"coordinates":[],"confidence":{"state":"pre-added","who":["ml:dpeker"],"prob":0.9416},"fields":{},"normalizations":{"n_34":{"source":{"name":"GeoNamesSCAR","id":"133718","url":null},"recName":"Willett Cove","confidence":{"state":"pre-added","who":["ml:dpeker"],"prob":0.9416}}}},{"classId":"e_4","part":"s7v1","offsets":[{"start":877,"text":"Cape Hallett"}],"coordinates":[],"confidence":{"state":"pre-added","who":["ml:dpeker"],"prob":0.9416},"fields":{},"normalizations":{"n_34":{"source":{"name":"GeoNamesSCAR","id":"126118","url":null},"recName":"Hallett, Cape","confidence":{"state":"pre-added","who":["ml:dpeker"],"prob":0.9416}}}},{"classId":"e_4","part":"s7v1","offsets":[{"start":1009,"text":"Green Creek"}],"coordinates":[],"confidence":{"state":"pre-added","who":["ml:dpeker"],"prob":0.9349},"fields":{},"normalizations":{"n_34":{"source":{"name":"GeoNamesSCAR","id":"125908","url":null},"recName":"Green Creek","confidence":{"state":"pre-added","who":["ml:dpeker"],"prob":0.9349}}}},{"classId":"e_4","part":"s7v1","offsets":[{"start":1031,"text":"Luther Vale"}],"coordinates":[],"confidence":{"state":"pre-added","who":["ml:dpeker"],"prob":0.9349},"fields":{},"normalizations":{"n_52":{"source":{"name":"GeoNamesCustom","id":"AV002","url":null},"recName":"Luther Vale","confidence":{"state":"pre-added","who":["ml:dpeker"],"prob":0.9349}}}},{"classId":"e_4","part":"s7v1","offsets":[{"start":1124,"text":"Cape Hallett"}],"coordinates":[],"confidence":{"state":"pre-added","who":["ml:dpeker"],"prob":0.9416},"fields":{},"normalizations":{"n_34":{"source":{"name":"GeoNamesSCAR","id":"126118","url":null},"recName":"Hallett, Cape","confidence":{"state":"pre-added","who":["ml:dpeker"],"prob":0.9416}}}},{"classId":"e_4","part":"s7v1","offsets":[{"start":1141,"text":"Luther Vale"}],"coordinates":[],"confidence":{"state":"pre-added","who":["ml:dpeker"],"prob":0.9349},"fields":{},"normalizations":{"n_52":{"source":{"name":"GeoNamesCustom","id":"AV002","url":null},"recName":"Luther Vale","confidence":{"state":"pre-added","who":["ml:dpeker"],"prob":0.9349}}}},{"classId":"e_4","part":"s7v1","offsets":[{"start":1446,"text":"Green Creek"}],"coordinates":[],"confidence":{"state":"pre-added","who":["ml:dpeker"],"prob":0.9349},"fields":{},"normalizations":{"n_34":{"source":{"name":"GeoNamesSCAR","id":"125908","url":null},"recName":"Green Creek","confidence":{"state":"pre-added","who":["ml:dpeker"],"prob":0.9349}}}},{"classId":"e_4","part":"s7v1","offsets":[{"start":1462,"text":"Willett Cove"}],"coordinates":[],"confidence":{"state":"pre-added","who":["ml:dpeker"],"prob":0.9416},"fields":{},"normalizations":{"n_34":{"source":{"name":"GeoNamesSCAR","id":"133718","url":null},"recName":"Willett Cove","confidence":{"state":"pre-added","who":["ml:dpeker"],"prob":0.9416}}}},{"classId":"e_49","part":"s7v1","offsets":[{"start":1504,"text":"Rotatoria sp"}],"coordinates":[],"confidence":{"state":"pre-added","who":["ml:dpeker"],"prob":0.9416},"fields":{},"normalizations":{"n_53":{"source":{"name":"RotiferNames","id":"rotasp","url":null},"recName":"Rotatoria sp","confidence":{"state":"pre-added","who":["ml:dpeker"],"prob":0.9416}}}},{"classId":"e_4","part":"s7v1","offsets":[{"start":1607,"text":"Luther Vale"}],"coordinates":[],"confidence":{"state":"pre-added","who":["ml:dpeker"],"prob":0.9349},"fields":{},"normalizations":{"n_52":{"source":{"name":"GeoNamesCustom","id":"AV002","url":null},"recName":"Luther Vale","confidence":{"state":"pre-added","who":["ml:dpeker"],"prob":0.9349}}}},{"classId":"e_4","part":"s7v1","offsets":[{"start":1623,"text":"SeaBee Spit"}],"coordinates":[],"confidence":{"state":"pre-added","who":["ml:dpeker"],"prob":0.9349},"fields":{},"normalizations":{"n_52":{"source":{"name":"GeoNamesCustom","id":"AV003","url":null},"recName":"SeaBee Spit","confidence":{"state":"pre-added","who":["ml:dpeker"],"prob":0.9349}}}},{"classId":"e_4","part":"s7v1","offsets":[{"start":1692,"text":"Willett Cove"}],"coordinates":[],"confidence":{"state":"pre-added","who":["ml:dpeker"],"prob":0.9416},"fields":{},"normalizations":{"n_34":{"source":{"name":"GeoNamesSCAR","id":"133718","url":null},"recName":"Willett Cove","confidence":{"state":"pre-added","who":["ml:dpeker"],"prob":0.9416}}}},{"classId":"e_4","part":"s7v1","offsets":[{"start":1713,"text":"Cape Hallett"}],"coordinates":[],"confidence":{"state":"pre-added","who":["ml:dpeker"],"prob":0.9416},"fields":{},"normalizations":{"n_34":{"source":{"name":"GeoNamesSCAR","id":"126118","url":null},"recName":"Hallett, Cape","confidence":{"state":"pre-added","who":["ml:dpeker"],"prob":0.9416}}}},{"classId":"e_48","part":"s7v1","offsets":[{"start":1984,"text":"Hypsibius sp"}],"coordinates":[],"confidence":{"state":"pre-added","who":["ml:dpeker"],"prob":0.9416},"fields":{},"normalizations":{"n_51":{"source":{"name":"TardigradeNames","id":"hypssp","url":null},"recName":"Hypsibius sp.","confidence":{"state":"pre-added","who":["ml:dpeker"],"prob":0.9416}}}},{"classId":"e_4","part":"s7v1","offsets":[{"start":2017,"text":"Green Creek"}],"coordinates":[],"confidence":{"state":"pre-added","who":["ml:dpeker"],"prob":0.9349},"fields":{},"normalizations":{"n_34":{"source":{"name":"GeoNamesSCAR","id":"125908","url":null},"recName":"Green Creek","confidence":{"state":"pre-added","who":["ml:dpeker"],"prob":0.9349}}}},{"classId":"e_4","part":"s7v1","offsets":[{"start":2097,"text":"Willett Cove"}],"coordinates":[],"confidence":{"state":"pre-added","who":["ml:dpeker"],"prob":0.9416},"fields":{},"normalizations":{"n_34":{"source":{"name":"GeoNamesSCAR","id":"133718","url":null},"recName":"Willett Cove","confidence":{"state":"pre-added","who":["ml:dpeker"],"prob":0.9416}}}},{"classId":"e_4","part":"s7v1","offsets":[{"start":2219,"text":"Von Guerard Stream"}],"coordinates":[],"confidence":{"state":"pre-added","who":["ml:dpeker"],"prob":0.9648},"fields":{},"normalizations":{"n_34":{"source":{"name":"GeoNamesSCAR","id":"133312","url":null},"recName":"Von Guerard Stream","confidence":{"state":"pre-added","who":["ml:dpeker"],"prob":0.9648}}}},{"classId":"e_4","part":"s7v1","offsets":[{"start":2241,"text":"Taylor Valley"}],"coordinates":[],"confidence":{"state":"pre-added","who":["ml:dpeker"],"prob":0.9472},"fields":{},"normalizations":{"n_34":{"source":{"name":"GeoNamesSCAR","id":"132512","url":null},"recName":"Taylor Valley","confidence":{"state":"pre-added","who":["ml:dpeker"],"prob":0.9472}}}},{"classId":"e_4","part":"s7v1","offsets":[{"start":2295,"text":"SeaBee Spit"}],"coordinates":[],"confidence":{"state":"pre-added","who":["ml:dpeker"],"prob":0.9349},"fields":{},"normalizations":{"n_52":{"source":{"name":"GeoNamesCustom","id":"AV003","url":null},"recName":"SeaBee Spit","confidence":{"state":"pre-added","who":["ml:dpeker"],"prob":0.9349}}}},{"classId":"e_4","part":"s7v1","offsets":[{"start":2310,"text":"Cape Hallett"}],"coordinates":[],"confidence":{"state":"pre-added","who":["ml:dpeker"],"prob":0.9416},"fields":{},"normalizations":{"n_34":{"source":{"name":"GeoNamesSCAR","id":"126118","url":null},"recName":"Hallett, Cape","confidence":{"state":"pre-added","who":["ml:dpeker"],"prob":0.9416}}}},{"classId":"e_2","part":"s7v1","offsets":[{"start":2613,"text":"Eudorylaimus"}],"coordinates":[],"confidence":{"state":"pre-added","who":["ml:dpeker"],"prob":0.9416},"fields":{},"normalizations":{"n_33":{"source":{"name":"NematodeNames","id":"eudosp","url":null},"recName":"Eudorylaimus spp.","confidence":{"state":"pre-added","who":["ml:dpeker"],"prob":0.9416}}}},{"classId":"e_2","part":"s7v1","offsets":[{"start":2698,"text":"Eudorylaimus sp"}],"coordinates":[],"confidence":{"state":"pre-added","who":["ml:dpeker"],"prob":0.917},"fields":{},"normalizations":{"n_33":{"source":{"name":"NematodeNames","id":"eudosp","url":null},"recName":"Eudorylaimus spp.","confidence":{"state":"pre-added","who":["ml:dpeker"],"prob":0.917}}}},{"classId":"e_2","part":"s7v1","offsets":[{"start":3019,"text":"Scottnema lindsayae"}],"coordinates":[],"confidence":{"state":"pre-added","who":["ml:dpeker"],"prob":0.9671},"fields":{},"normalizations":{"n_33":{"source":{"name":"NematodeNames","id":"sclind","url":null},"recName":"Scottnema lindsayae","confidence":{"state":"pre-added","who":["ml:dpeker"],"prob":0.9671}}}},{"classId":"e_2","part":"s7v1","offsets":[{"start":3150,"text":"Eudorylaimus spp"}],"coordinates":[],"confidence":{"state":"pre-added","who":["ml:dpeker"],"prob":0.9226},"fields":{},"normalizations":{"n_33":{"source":{"name":"NematodeNames","id":"eudosp","url":null},"recName":"Eudorylaimus spp.","confidence":{"state":"pre-added","who":["ml:dpeker"],"prob":0.9226}}}},{"classId":"e_2","part":"s7v1","offsets":[{"start":3283,"text":"Plectus antarcticus"}],"coordinates":[],"confidence":{"state":"pre-added","who":["ml:dpeker"],"prob":0.9671},"fields":{},"normalizations":{"n_33":{"source":{"name":"NematodeNames","id":"plmurr","url":null},"recName":"Plectus murrayi","confidence":{"state":"pre-added","who":["ml:dpeker"],"prob":0.9671}}}},{"classId":"e_2","part":"s7v1","offsets":[{"start":3418,"text":"Panagrolaimus davidii"}],"coordinates":[],"confidence":{"state":"pre-added","who":["ml:dpeker"],"prob":0.971},"fields":{},"normalizations":{"n_33":{"source":{"name":"NematodeNames","id":"padavi","url":null},"recName":"Panagrolaimus davidi","confidence":{"state":"pre-added","who":["ml:dpeker"],"prob":0.971}}}},{"classId":"e_4","part":"s8v1","offsets":[{"start":12,"text":"Green Creek"}],"coordinates":[],"confidence":{"state":"pre-added","who":["ml:dpeker"],"prob":0.9349},"fields":{},"normalizations":{"n_34":{"source":{"name":"GeoNamesSCAR","id":"125908","url":null},"recName":"Green Creek","confidence":{"state":"pre-added","who":["ml:dpeker"],"prob":0.9349}}}},{"classId":"e_4","part":"s8v1","offsets":[{"start":28,"text":"Von Guerard Stream"}],"coordinates":[],"confidence":{"state":"pre-added","who":["ml:dpeker"],"prob":0.9648},"fields":{},"normalizations":{"n_34":{"source":{"name":"GeoNamesSCAR","id":"133312","url":null},"recName":"Von Guerard Stream","confidence":{"state":"pre-added","who":["ml:dpeker"],"prob":0.9648}}}},{"classId":"e_4","part":"s8v1","offsets":[{"start":48,"text":"Taylor Valley"}],"coordinates":[],"confidence":{"state":"pre-added","who":["ml:dpeker"],"prob":0.9472},"fields":{},"normalizations":{"n_34":{"source":{"name":"GeoNamesSCAR","id":"132512","url":null},"recName":"Taylor Valley","confidence":{"state":"pre-added","who":["ml:dpeker"],"prob":0.9472}}}},{"classId":"e_2","part":"s8v1","offsets":[{"start":64,"text":"Eudorylaimus sp"}],"coordinates":[],"confidence":{"state":"pre-added","who":["ml:dpeker"],"prob":0.917},"fields":{},"normalizations":{"n_33":{"source":{"name":"NematodeNames","id":"eudosp","url":null},"recName":"Eudorylaimus spp.","confidence":{"state":"pre-added","who":["ml:dpeker"],"prob":0.917}}}},{"classId":"e_4","part":"s8v1","offsets":[{"start":88,"text":"Luther Vale"}],"coordinates":[],"confidence":{"state":"pre-added","who":["ml:dpeker"],"prob":0.9349},"fields":{},"normalizations":{"n_52":{"source":{"name":"GeoNamesCustom","id":"AV002","url":null},"recName":"Luther Vale","confidence":{"state":"pre-added","who":["ml:dpeker"],"prob":0.9349}}}},{"classId":"e_2","part":"s8v1","offsets":[{"start":105,"text":"Eudorylaimus sp"}],"coordinates":[],"confidence":{"state":"pre-added","who":["ml:dpeker"],"prob":0.917},"fields":{},"normalizations":{"n_33":{"source":{"name":"NematodeNames","id":"eudosp","url":null},"recName":"Eudorylaimus spp.","confidence":{"state":"pre-added","who":["ml:dpeker"],"prob":0.917}}}},{"classId":"e_4","part":"s8v1","offsets":[{"start":128,"text":"Willett Cove"}],"coordinates":[{"x":"152.85","y":"386.39"},{"x":"203.46","y":"392.96"}],"confidence":{"state":"pre-added","who":["user:ICTAR"],"prob":1},"fields":{},"normalizations":{"n_34":{"source":{"name":"GeoNamesSCAR","id":"133718","url":null},"recName":"","confidence":{"state":"pre-added","who":["user:ICTAR"],"prob":1}}}},{"classId":"e_4","part":"s8v1","offsets":[{"start":217,"text":"Green Creek"}],"coordinates":[],"confidence":{"state":"pre-added","who":["ml:dpeker"],"prob":0.9349},"fields":{},"normalizations":{"n_34":{"source":{"name":"GeoNamesSCAR","id":"125908","url":null},"recName":"Green Creek","confidence":{"state":"pre-added","who":["ml:dpeker"],"prob":0.9349}}}},{"classId":"e_4","part":"s8v1","offsets":[{"start":272,"text":"Von Guerard Stream"}],"coordinates":[],"confidence":{"state":"pre-added","who":["ml:dpeker"],"prob":0.9648},"fields":{},"normalizations":{"n_34":{"source":{"name":"GeoNamesSCAR","id":"133312","url":null},"recName":"Von Guerard Stream","confidence":{"state":"pre-added","who":["ml:dpeker"],"prob":0.9648}}}},{"classId":"e_4","part":"s8v1","offsets":[{"start":295,"text":"Willett Cove"}],"coordinates":[],"confidence":{"state":"pre-added","who":["ml:dpeker"],"prob":0.9416},"fields":{},"normalizations":{"n_34":{"source":{"name":"GeoNamesSCAR","id":"133718","url":null},"recName":"Willett Cove","confidence":{"state":"pre-added","who":["ml:dpeker"],"prob":0.9416}}}},{"classId":"e_4","part":"s8v1","offsets":[{"start":385,"text":"SeaBee Spit"}],"coordinates":[],"confidence":{"state":"pre-added","who":["ml:dpeker"],"prob":0.9349},"fields":{},"normalizations":{"n_52":{"source":{"name":"GeoNamesCustom","id":"AV003","url":null},"recName":"SeaBee Spit","confidence":{"state":"pre-added","who":["ml:dpeker"],"prob":0.9349}}}},{"classId":"e_4","part":"s8v1","offsets":[{"start":806,"text":"Taylor Valley"}],"coordinates":[],"confidence":{"state":"pre-added","who":["ml:dpeker"],"prob":0.9472},"fields":{},"normalizations":{"n_34":{"source":{"name":"GeoNamesSCAR","id":"132512","url":null},"recName":"Taylor Valley","confidence":{"state":"pre-added","who":["ml:dpeker"],"prob":0.9472}}}},{"classId":"e_4","part":"s8v1","offsets":[{"start":835,"text":"Von Guerard Stream"}],"coordinates":[],"confidence":{"state":"pre-added","who":["ml:dpeker"],"prob":0.9648},"fields":{},"normalizations":{"n_34":{"source":{"name":"GeoNamesSCAR","id":"133312","url":null},"recName":"Von Guerard Stream","confidence":{"state":"pre-added","who":["ml:dpeker"],"prob":0.9648}}}},{"classId":"e_4","part":"s8v1","offsets":[{"start":858,"text":"Green Creek"}],"coordinates":[],"confidence":{"state":"pre-added","who":["ml:dpeker"],"prob":0.9349},"fields":{},"normalizations":{"n_34":{"source":{"name":"GeoNamesSCAR","id":"125908","url":null},"recName":"Green Creek","confidence":{"state":"pre-added","who":["ml:dpeker"],"prob":0.9349}}}},{"classId":"e_4","part":"s8v1","offsets":[{"start":892,"text":"Luther Vale"}],"coordinates":[],"confidence":{"state":"pre-added","who":["ml:dpeker"],"prob":0.9349},"fields":{},"normalizations":{"n_52":{"source":{"name":"GeoNamesCustom","id":"AV002","url":null},"recName":"Luther Vale","confidence":{"state":"pre-added","who":["ml:dpeker"],"prob":0.9349}}}},{"classId":"e_4","part":"s8v1","offsets":[{"start":944,"text":"Cape Hallett"}],"coordinates":[],"confidence":{"state":"pre-added","who":["ml:dpeker"],"prob":0.9416},"fields":{},"normalizations":{"n_34":{"source":{"name":"GeoNamesSCAR","id":"126118","url":null},"recName":"Hallett, Cape","confidence":{"state":"pre-added","who":["ml:dpeker"],"prob":0.9416}}}},{"classId":"e_4","part":"s8v1","offsets":[{"start":999,"text":"SeaBee Spit"}],"coordinates":[],"confidence":{"state":"pre-added","who":["ml:dpeker"],"prob":0.9349},"fields":{},"normalizations":{"n_52":{"source":{"name":"GeoNamesCustom","id":"AV003","url":null},"recName":"SeaBee Spit","confidence":{"state":"pre-added","who":["ml:dpeker"],"prob":0.9349}}}},{"classId":"e_2","part":"s8v1","offsets":[{"start":1302,"text":"Scottnema lindsayae"}],"coordinates":[],"confidence":{"state":"pre-added","who":["ml:dpeker"],"prob":0.9671},"fields":{},"normalizations":{"n_33":{"source":{"name":"NematodeNames","id":"sclind","url":null},"recName":"Scottnema lindsayae","confidence":{"state":"pre-added","who":["ml:dpeker"],"prob":0.9671}}}},{"classId":"e_4","part":"s8v1","offsets":[{"start":1557,"text":"Green Creek"}],"coordinates":[],"confidence":{"state":"pre-added","who":["ml:dpeker"],"prob":0.9349},"fields":{},"normalizations":{"n_34":{"source":{"name":"GeoNamesSCAR","id":"125908","url":null},"recName":"Green Creek","confidence":{"state":"pre-added","who":["ml:dpeker"],"prob":0.9349}}}},{"classId":"e_4","part":"s8v1","offsets":[{"start":1577,"text":"Luther Vale"}],"coordinates":[],"confidence":{"state":"pre-added","who":["ml:dpeker"],"prob":0.9349},"fields":{},"normalizations":{"n_52":{"source":{"name":"GeoNamesCustom","id":"AV002","url":null},"recName":"Luther Vale","confidence":{"state":"pre-added","who":["ml:dpeker"],"prob":0.9349}}}},{"classId":"e_2","part":"s8v1","offsets":[{"start":1611,"text":"S. lindsayae"}],"coordinates":[],"confidence":{"state":"pre-added","who":["ml:dpeker"],"prob":0.9416},"fields":{},"normalizations":{"n_33":{"source":{"name":"NematodeNames","id":"sclind","url":null},"recName":"Scottnema lindsayae","confidence":{"state":"pre-added","who":["ml:dpeker"],"prob":0.9416}}}},{"classId":"e_4","part":"s8v1","offsets":[{"start":1662,"text":"Cape Hallett"}],"coordinates":[],"confidence":{"state":"pre-added","who":["ml:dpeker"],"prob":0.9416},"fields":{},"normalizations":{"n_34":{"source":{"name":"GeoNamesSCAR","id":"126118","url":null},"recName":"Hallett, Cape","confidence":{"state":"pre-added","who":["ml:dpeker"],"prob":0.9416}}}},{"classId":"e_2","part":"s8v1","offsets":[{"start":1724,"text":"Panagrolaimus davidi"}],"coordinates":[],"confidence":{"state":"pre-added","who":["ml:dpeker"],"prob":0.9692},"fields":{},"normalizations":{"n_33":{"source":{"name":"NematodeNames","id":"padavi","url":null},"recName":"Panagrolaimus davidi","confidence":{"state":"pre-added","who":["ml:dpeker"],"prob":0.9692}}}},{"classId":"e_4","part":"s8v1","offsets":[{"start":1921,"text":"Cape Hallett"}],"coordinates":[],"confidence":{"state":"pre-added","who":["ml:dpeker"],"prob":0.9416},"fields":{},"normalizations":{"n_34":{"source":{"name":"GeoNamesSCAR","id":"126118","url":null},"recName":"Hallett, Cape","confidence":{"state":"pre-added","who":["ml:dpeker"],"prob":0.9416}}}},{"classId":"e_4","part":"s8v1","offsets":[{"start":1992,"text":"Willett Cove"}],"coordinates":[],"confidence":{"state":"pre-added","who":["ml:dpeker"],"prob":0.9416},"fields":{},"normalizations":{"n_34":{"source":{"name":"GeoNamesSCAR","id":"133718","url":null},"recName":"Willett Cove","confidence":{"state":"pre-added","who":["ml:dpeker"],"prob":0.9416}}}},{"classId":"e_2","part":"s8v1","offsets":[{"start":2031,"text":"Plectus antarcticus"}],"coordinates":[],"confidence":{"state":"pre-added","who":["ml:dpeker"],"prob":0.9671},"fields":{},"normalizations":{"n_33":{"source":{"name":"NematodeNames","id":"plmurr","url":null},"recName":"Plectus murrayi","confidence":{"state":"pre-added","who":["ml:dpeker"],"prob":0.9671}}}},{"classId":"e_4","part":"s8v1","offsets":[{"start":2137,"text":"Green Creek"}],"coordinates":[],"confidence":{"state":"pre-added","who":["ml:dpeker"],"prob":0.9349},"fields":{},"normalizations":{"n_34":{"source":{"name":"GeoNamesSCAR","id":"125908","url":null},"recName":"Green Creek","confidence":{"state":"pre-added","who":["ml:dpeker"],"prob":0.9349}}}},{"classId":"e_4","part":"s8v1","offsets":[{"start":2156,"text":"Luther Vale"}],"coordinates":[],"confidence":{"state":"pre-added","who":["ml:dpeker"],"prob":0.9349},"fields":{},"normalizations":{"n_52":{"source":{"name":"GeoNamesCustom","id":"AV002","url":null},"recName":"Luther Vale","confidence":{"state":"pre-added","who":["ml:dpeker"],"prob":0.9349}}}},{"classId":"e_4","part":"s8v1","offsets":[{"start":2173,"text":"Willett Cove"}],"coordinates":[],"confidence":{"state":"pre-added","who":["ml:dpeker"],"prob":0.9416},"fields":{},"normalizations":{"n_34":{"source":{"name":"GeoNamesSCAR","id":"133718","url":null},"recName":"Willett Cove","confidence":{"state":"pre-added","who":["ml:dpeker"],"prob":0.9416}}}},{"classId":"e_2","part":"s8v1","offsets":[{"start":2227,"text":"Eudorylaimus"}],"coordinates":[],"confidence":{"state":"pre-added","who":["ml:dpeker"],"prob":0.9416},"fields":{},"normalizations":{"n_33":{"source":{"name":"NematodeNames","id":"eudosp","url":null},"recName":"Eudorylaimus spp.","confidence":{"state":"pre-added","who":["ml:dpeker"],"prob":0.9416}}}},{"classId":"e_4","part":"s8v1","offsets":[{"start":2389,"text":"Green Creek"}],"coordinates":[],"confidence":{"state":"pre-added","who":["ml:dpeker"],"prob":0.9349},"fields":{},"normalizations":{"n_34":{"source":{"name":"GeoNamesSCAR","id":"125908","url":null},"recName":"Green Creek","confidence":{"state":"pre-added","who":["ml:dpeker"],"prob":0.9349}}}},{"classId":"e_2","part":"s8v1","offsets":[{"start":3252,"text":"Eudorylaimus"}],"coordinates":[],"confidence":{"state":"pre-added","who":["ml:dpeker"],"prob":0.9416},"fields":{},"normalizations":{"n_33":{"source":{"name":"NematodeNames","id":"eudosp","url":null},"recName":"Eudorylaimus spp.","confidence":{"state":"pre-added","who":["ml:dpeker"],"prob":0.9416}}}},{"classId":"e_4","part":"s8v1","offsets":[{"start":3442,"text":"Luther Vale"}],"coordinates":[],"confidence":{"state":"pre-added","who":["ml:dpeker"],"prob":0.9349},"fields":{},"normalizations":{"n_52":{"source":{"name":"GeoNamesCustom","id":"AV002","url":null},"recName":"Luther Vale","confidence":{"state":"pre-added","who":["ml:dpeker"],"prob":0.9349}}}},{"classId":"e_4","part":"s8v1","offsets":[{"start":3460,"text":"Green Creek"}],"coordinates":[],"confidence":{"state":"pre-added","who":["ml:dpeker"],"prob":0.9349},"fields":{},"normalizations":{"n_34":{"source":{"name":"GeoNamesSCAR","id":"125908","url":null},"recName":"Green Creek","confidence":{"state":"pre-added","who":["ml:dpeker"],"prob":0.9349}}}},{"classId":"e_4","part":"s8v1","offsets":[{"start":3495,"text":"Taylor Valley"}],"coordinates":[],"confidence":{"state":"pre-added","who":["ml:dpeker"],"prob":0.9472},"fields":{},"normalizations":{"n_34":{"source":{"name":"GeoNamesSCAR","id":"132512","url":null},"recName":"Taylor Valley","confidence":{"state":"pre-added","who":["ml:dpeker"],"prob":0.9472}}}},{"classId":"e_4","part":"s8v1","offsets":[{"start":3517,"text":"Willett Cove"}],"coordinates":[],"confidence":{"state":"pre-added","who":["ml:dpeker"],"prob":0.9416},"fields":{},"normalizations":{"n_34":{"source":{"name":"GeoNamesSCAR","id":"133718","url":null},"recName":"Willett Cove","confidence":{"state":"pre-added","who":["ml:dpeker"],"prob":0.9416}}}},{"classId":"e_4","part":"s9v1","offsets":[{"start":852,"text":"Luther Vale"}],"coordinates":[],"confidence":{"state":"pre-added","who":["ml:dpeker"],"prob":0.9349},"fields":{},"normalizations":{"n_52":{"source":{"name":"GeoNamesCustom","id":"AV002","url":null},"recName":"Luther Vale","confidence":{"state":"pre-added","who":["ml:dpeker"],"prob":0.9349}}}},{"classId":"e_4","part":"s9v1","offsets":[{"start":942,"text":"Taylor Valley"}],"coordinates":[],"confidence":{"state":"pre-added","who":["ml:dpeker"],"prob":0.9472},"fields":{},"normalizations":{"n_34":{"source":{"name":"GeoNamesSCAR","id":"132512","url":null},"recName":"Taylor Valley","confidence":{"state":"pre-added","who":["ml:dpeker"],"prob":0.9472}}}},{"classId":"e_4","part":"s9v1","offsets":[{"start":975,"text":"Green Creek"}],"coordinates":[],"confidence":{"state":"pre-added","who":["ml:dpeker"],"prob":0.9349},"fields":{},"normalizations":{"n_34":{"source":{"name":"GeoNamesSCAR","id":"125908","url":null},"recName":"Green Creek","confidence":{"state":"pre-added","who":["ml:dpeker"],"prob":0.9349}}}},{"classId":"e_2","part":"s10v1","offsets":[{"start":1377,"text":"Panagrolaimus davidii"}],"coordinates":[],"confidence":{"state":"pre-added","who":["ml:dpeker"],"prob":0.971},"fields":{},"normalizations":{"n_33":{"source":{"name":"NematodeNames","id":"padavi","url":null},"recName":"Panagrolaimus davidi","confidence":{"state":"pre-added","who":["ml:dpeker"],"prob":0.971}}}},{"classId":"e_2","part":"s10v1","offsets":[{"start":1613,"text":"S. lindsayae"}],"coordinates":[],"confidence":{"state":"pre-added","who":["ml:dpeker"],"prob":0.9416},"fields":{},"normalizations":{"n_33":{"source":{"name":"NematodeNames","id":"sclind","url":null},"recName":"Scottnema lindsayae","confidence":{"state":"pre-added","who":["ml:dpeker"],"prob":0.9416}}}},{"classId":"e_47","part":"s10v1","offsets":[{"start":1916,"text":"there was a significant correlation between microbial biomass and maximum rates of soil respiration, while metazoan diversity was highest in wet, organic matter rich soils."}],"coordinates":[{"x":"359.12","y":"134.48"},{"x":"355.27","y":"177.05"}],"confidence":{"state":"pre-added","who":["user:ICTAR"],"prob":1},"fields":{},"normalizations":{}},{"classId":"e_47","part":"s10v1","offsets":[{"start":2089,"text":"Bacterial diversity, as indicated by DGGE band richness, did not vary significantly among the sites considered, though composition of bacterial communities did. These differences in bacterial community structure were mainly associated with geography."}],"coordinates":[{"x":"358.69","y":"170.48"},{"x":"475.69","y":"225.05"}],"confidence":{"state":"pre-added","who":["user:ICTAR"],"prob":1},"fields":{},"normalizations":{}},{"classId":"e_47","part":"s10v1","offsets":[{"start":3048,"text":"The distribution of similar bacterial and metazoan taxa across this range of latitudes suggest that dispersal is not a barrier to species distribution (e.g. Moorhead et al. 2003, Nkem et al. 2006); rather, local differences in soil biogeochemistry and physicochemical properties of soils together determine habitat suitability."}],"coordinates":[{"x":"449.01","y":"374.48"},{"x":"536.85","y":"441.05"}],"confidence":{"state":"pre-added","who":["user:ICTAR"],"prob":1},"fields":{},"normalizations":{}},{"classId":"e_4","part":"s11v1","offsets":[{"start":232,"text":"Cape Hallett"}],"coordinates":[],"confidence":{"state":"pre-added","who":["ml:dpeker"],"prob":0.9416},"fields":{},"normalizations":{"n_34":{"source":{"name":"GeoNamesSCAR","id":"126118","url":null},"recName":"Hallett, Cape","confidence":{"state":"pre-added","who":["ml:dpeker"],"prob":0.9416}}}},{"classId":"e_4","part":"s11v1","offsets":[{"start":279,"text":"Taylor Valley"}],"coordinates":[],"confidence":{"state":"pre-added","who":["ml:dpeker"],"prob":0.9472},"fields":{},"normalizations":{"n_34":{"source":{"name":"GeoNamesSCAR","id":"132512","url":null},"recName":"Taylor Valley","confidence":{"state":"pre-added","who":["ml:dpeker"],"prob":0.9472}}}},{"classId":"e_4","part":"s11v1","offsets":[{"start":297,"text":"Luther Vale"}],"coordinates":[],"confidence":{"state":"pre-added","who":["ml:dpeker"],"prob":0.9349},"fields":{},"normalizations":{"n_52":{"source":{"name":"GeoNamesCustom","id":"AV002","url":null},"recName":"Luther Vale","confidence":{"state":"pre-added","who":["ml:dpeker"],"prob":0.9349}}}},{"classId":"e_4","part":"s11v1","offsets":[{"start":939,"text":"Cape Hallett"}],"coordinates":[],"confidence":{"state":"pre-added","who":["ml:dpeker"],"prob":0.9416},"fields":{},"normalizations":{"n_34":{"source":{"name":"GeoNamesSCAR","id":"126118","url":null},"recName":"Hallett, Cape","confidence":{"state":"pre-added","who":["ml:dpeker"],"prob":0.9416}}}},{"classId":"e_4","part":"s11v1","offsets":[{"start":1009,"text":"Taylor Valley"}],"coordinates":[],"confidence":{"state":"pre-added","who":["ml:dpeker"],"prob":0.9472},"fields":{},"normalizations":{"n_34":{"source":{"name":"GeoNamesSCAR","id":"132512","url":null},"recName":"Taylor Valley","confidence":{"state":"pre-added","who":["ml:dpeker"],"prob":0.9472}}}},{"classId":"e_4","part":"s11v1","offsets":[{"start":1182,"text":"Cape Hallett"}],"coordinates":[],"confidence":{"state":"pre-added","who":["ml:dpeker"],"prob":0.9416},"fields":{},"normalizations":{"n_34":{"source":{"name":"GeoNamesSCAR","id":"126118","url":null},"recName":"Hallett, Cape","confidence":{"state":"pre-added","who":["ml:dpeker"],"prob":0.9416}}}},{"classId":"e_4","part":"s11v1","offsets":[{"start":1562,"text":"Taylor Valley"}],"coordinates":[],"confidence":{"state":"pre-added","who":["ml:dpeker"],"prob":0.9472},"fields":{},"normalizations":{"n_34":{"source":{"name":"GeoNamesSCAR","id":"132512","url":null},"recName":"Taylor Valley","confidence":{"state":"pre-added","who":["ml:dpeker"],"prob":0.9472}}}},{"classId":"e_4","part":"s11v1","offsets":[{"start":1580,"text":"Luther Vale"}],"coordinates":[],"confidence":{"state":"pre-added","who":["ml:dpeker"],"prob":0.9349},"fields":{},"normalizations":{"n_52":{"source":{"name":"GeoNamesCustom","id":"AV002","url":null},"recName":"Luther Vale","confidence":{"state":"pre-added","who":["ml:dpeker"],"prob":0.9349}}}},{"classId":"e_4","part":"s11v1","offsets":[{"start":2026,"text":"Cape Hallett"}],"coordinates":[],"confidence":{"state":"pre-added","who":["ml:dpeker"],"prob":0.9416},"fields":{},"normalizations":{"n_34":{"source":{"name":"GeoNamesSCAR","id":"126118","url":null},"recName":"Hallett, Cape","confidence":{"state":"pre-added","who":["ml:dpeker"],"prob":0.9416}}}},{"classId":"e_2","part":"s11v1","offsets":[{"start":2202,"text":"S. lindsayae"}],"coordinates":[],"confidence":{"state":"pre-added","who":["ml:dpeker"],"prob":0.9416},"fields":{},"normalizations":{"n_33":{"source":{"name":"NematodeNames","id":"sclind","url":null},"recName":"Scottnema lindsayae","confidence":{"state":"pre-added","who":["ml:dpeker"],"prob":0.9416}}}},{"classId":"e_4","part":"s11v1","offsets":[{"start":2300,"text":"Luther Vale"}],"coordinates":[],"confidence":{"state":"pre-added","who":["ml:dpeker"],"prob":0.9349},"fields":{},"normalizations":{"n_52":{"source":{"name":"GeoNamesCustom","id":"AV002","url":null},"recName":"Luther Vale","confidence":{"state":"pre-added","who":["ml:dpeker"],"prob":0.9349}}}},{"classId":"e_2","part":"s11v1","offsets":[{"start":3174,"text":"S. lindsayae"}],"coordinates":[],"confidence":{"state":"pre-added","who":["ml:dpeker"],"prob":0.9416},"fields":{},"normalizations":{"n_33":{"source":{"name":"NematodeNames","id":"sclind","url":null},"recName":"Scottnema lindsayae","confidence":{"state":"pre-added","who":["ml:dpeker"],"prob":0.9416}}}},{"classId":"e_47","part":"s11v1","offsets":[{"start":3174,"text":"S. lindsayae inhabits a quadrant of the Principal Component bi-plot that is strongly correlated with pH, while Panagrolaimus davidii, Rotatoria and tardigrades were most abundant in wet, organic matter rich soils (Fig. 7). Thus different metazoan taxa manifest distinct habitat preferences."}],"coordinates":[{"x":"345.81","y":"110.45"},{"x":"383.75","y":"177.05"}],"confidence":{"state":"pre-added","who":["user:ICTAR"],"prob":1},"fields":{},"normalizations":{}},{"classId":"e_2","part":"s11v1","offsets":[{"start":3285,"text":"Panagrolaimus davidii"}],"coordinates":[],"confidence":{"state":"pre-added","who":["ml:dpeker"],"prob":0.971},"fields":{},"normalizations":{"n_33":{"source":{"name":"NematodeNames","id":"padavi","url":null},"recName":"Panagrolaimus davidi","confidence":{"state":"pre-added","who":["ml:dpeker"],"prob":0.971}}}},{"classId":"e_2","part":"s11v1","offsets":[{"start":3495,"text":"S. lindsayae"}],"coordinates":[],"confidence":{"state":"pre-added","who":["ml:dpeker"],"prob":0.9416},"fields":{},"normalizations":{"n_33":{"source":{"name":"NematodeNames","id":"sclind","url":null},"recName":"Scottnema lindsayae","confidence":{"state":"pre-added","who":["ml:dpeker"],"prob":0.9416}}}},{"classId":"e_2","part":"s11v1","offsets":[{"start":3938,"text":"Plectus antarcticus"}],"coordinates":[],"confidence":{"state":"pre-added","who":["ml:dpeker"],"prob":0.9671},"fields":{},"normalizations":{"n_33":{"source":{"name":"NematodeNames","id":"plmurr","url":null},"recName":"Plectus murrayi","confidence":{"state":"pre-added","who":["ml:dpeker"],"prob":0.9671}}}},{"classId":"e_2","part":"s11v1","offsets":[{"start":3962,"text":"Panagrolaimus davidii"}],"coordinates":[],"confidence":{"state":"pre-added","who":["ml:dpeker"],"prob":0.971},"fields":{},"normalizations":{"n_33":{"source":{"name":"NematodeNames","id":"padavi","url":null},"recName":"Panagrolaimus davidi","confidence":{"state":"pre-added","who":["ml:dpeker"],"prob":0.971}}}},{"classId":"e_2","part":"s11v1","offsets":[{"start":4053,"text":"Plectus antarticus"}],"coordinates":[],"confidence":{"state":"pre-added","who":["ml:dpeker"],"prob":0.9648},"fields":{},"normalizations":{"n_33":{"source":{"name":"NematodeNames","id":"plmurr","url":null},"recName":"Plectus murrayi","confidence":{"state":"pre-added","who":["ml:dpeker"],"prob":0.9648}}}},{"classId":"e_47","part":"s11v1","offsets":[{"start":4053,"text":"Plectus antarticus is found only in wet to intermittently wet soils and sediments where salinity is low (Treonis et al. 1999), while Panagrolaimus davidii inhabits the wet, nutrient rich habitats of rookeries and adjacent soils (Porazinska 2002), that are evidently inhospitable to most other metazoans (e.g. Sinclair et al. 2003), as indicated by the lower diversity and biomass of organisms reported here"}],"coordinates":[{"x":"346.61","y":"302.45"},{"x":"544.70","y":"381.05"}],"confidence":{"state":"pre-added","who":["user:ICTAR"],"prob":1},"fields":{},"normalizations":{}},{"classId":"e_2","part":"s11v1","offsets":[{"start":4186,"text":"Panagrolaimus davidii"}],"coordinates":[],"confidence":{"state":"pre-added","who":["ml:dpeker"],"prob":0.971},"fields":{},"normalizations":{"n_33":{"source":{"name":"NematodeNames","id":"padavi","url":null},"recName":"Panagrolaimus davidi","confidence":{"state":"pre-added","who":["ml:dpeker"],"prob":0.971}}}},{"classId":"e_2","part":"s11v1","offsets":[{"start":4770,"text":"Panagrolaimus davidi"}],"coordinates":[],"confidence":{"state":"pre-added","who":["ml:dpeker"],"prob":0.9692},"fields":{},"normalizations":{"n_33":{"source":{"name":"NematodeNames","id":"padavi","url":null},"recName":"Panagrolaimus davidi","confidence":{"state":"pre-added","who":["ml:dpeker"],"prob":0.9692}}}},{"classId":"e_47","part":"s11v1","offsets":[{"start":4770,"text":"Panagrolaimus davidi is a bacterial feeder and may favor ornithogenic soils where culturable bacteria are plentiful relative to sites in southern Victoria Land, while S. lindsayae, a yeast and bacterial feeder, may have an advantage in the dry valleys where fungi are more abundant"}],"coordinates":[{"x":"425.97","y":"446.45"},{"x":"411.57","y":"513.05"}],"confidence":{"state":"pre-added","who":["user:ICTAR"],"prob":1},"fields":{},"normalizations":{}},{"classId":"e_2","part":"s11v1","offsets":[{"start":4937,"text":"S. lindsayae"}],"coordinates":[],"confidence":{"state":"pre-added","who":["ml:dpeker"],"prob":0.9416},"fields":{},"normalizations":{"n_33":{"source":{"name":"NematodeNames","id":"sclind","url":null},"recName":"Scottnema lindsayae","confidence":{"state":"pre-added","who":["ml:dpeker"],"prob":0.9416}}}},{"classId":"e_47","part":"s11v1","offsets":[{"start":5097,"text":"In contrast to the other nematodes, the genus Eudorylaimus is found throughout Victoria Land, in dry to wet soils and sediments (220% g g-1) of the McMurdo Dry Valleys (Freckman & Virginia 1997, Powers et al. 1998, Treonis et al. 1999, Courtight et al. 2001, Barrett et al. 2004), and saturated soils under algal mats and moss communities in northern Victoria Land"}],"coordinates":[{"x":"314.33","y":"530.48"},{"x":"460.74","y":"609.05"}],"confidence":{"state":"pre-added","who":["user:ICTAR"],"prob":1},"fields":{},"normalizations":{}},{"classId":"e_2","part":"s11v1","offsets":[{"start":5143,"text":"Eudorylaimus"}],"coordinates":[],"confidence":{"state":"pre-added","who":["ml:dpeker"],"prob":0.9416},"fields":{},"normalizations":{"n_33":{"source":{"name":"NematodeNames","id":"eudosp","url":null},"recName":"Eudorylaimus spp.","confidence":{"state":"pre-added","who":["ml:dpeker"],"prob":0.9416}}}},{"classId":"e_4","part":"s11v1","offsets":[{"start":5246,"text":"McMurdo Dry Valleys"}],"coordinates":[],"confidence":{"state":"pre-added","who":["ml:dpeker"],"prob":0.9671},"fields":{},"normalizations":{"n_34":{"source":{"name":"GeoNamesSCAR","id":"113892","url":null},"recName":"McMurdo Dry Valleys","confidence":{"state":"pre-added","who":["ml:dpeker"],"prob":0.9671}}}},{"classId":"e_2","part":"s11v1","offsets":[{"start":5499,"text":"Eudorylaimus spp"}],"coordinates":[],"confidence":{"state":"pre-added","who":["ml:dpeker"],"prob":0.9226},"fields":{},"normalizations":{"n_33":{"source":{"name":"NematodeNames","id":"eudosp","url":null},"recName":"Eudorylaimus spp.","confidence":{"state":"pre-added","who":["ml:dpeker"],"prob":0.9226}}}},{"classId":"e_4","part":"s11v1","offsets":[{"start":5552,"text":"SeaBee Spit"}],"coordinates":[],"confidence":{"state":"pre-added","who":["ml:dpeker"],"prob":0.9349},"fields":{},"normalizations":{"n_52":{"source":{"name":"GeoNamesCustom","id":"AV003","url":null},"recName":"SeaBee Spit","confidence":{"state":"pre-added","who":["ml:dpeker"],"prob":0.9349}}}},{"classId":"e_2","part":"s11v1","offsets":[{"start":5697,"text":"Eudorylaimus"}],"coordinates":[],"confidence":{"state":"pre-added","who":["ml:dpeker"],"prob":0.9416},"fields":{},"normalizations":{"n_33":{"source":{"name":"NematodeNames","id":"eudosp","url":null},"recName":"Eudorylaimus spp.","confidence":{"state":"pre-added","who":["ml:dpeker"],"prob":0.9416}}}},{"classId":"e_4","part":"s12v1","offsets":[{"start":2833,"text":"Marble Point"}],"coordinates":[],"confidence":{"state":"pre-added","who":["ml:dpeker"],"prob":0.9416},"fields":{},"normalizations":{"n_34":{"source":{"name":"GeoNamesSCAR","id":"113829","url":null},"recName":"Marble Point","confidence":{"state":"pre-added","who":["ml:dpeker"],"prob":0.9416}}}},{"classId":"e_4","part":"s12v1","offsets":[{"start":2850,"text":"Wright Valley"}],"coordinates":[],"confidence":{"state":"pre-added","who":["ml:dpeker"],"prob":0.9472},"fields":{},"normalizations":{"n_34":{"source":{"name":"GeoNamesSCAR","id":"133876","url":null},"recName":"Wright Valley","confidence":{"state":"pre-added","who":["ml:dpeker"],"prob":0.9472}}}},{"classId":"e_4","part":"s12v1","offsets":[{"start":3175,"text":"Taylor Valley"}],"coordinates":[],"confidence":{"state":"pre-added","who":["ml:dpeker"],"prob":0.9472},"fields":{},"normalizations":{"n_34":{"source":{"name":"GeoNamesSCAR","id":"132512","url":null},"recName":"Taylor Valley","confidence":{"state":"pre-added","who":["ml:dpeker"],"prob":0.9472}}}},{"classId":"e_39","part":"s12v1","offsets":[{"start":3382,"text":"Folsomia candida"}],"coordinates":[],"confidence":{"state":"pre-added","who":["ml:dpeker"],"prob":0.9592},"fields":{},"normalizations":{"n_44":{"source":{"name":"SpringtailNames","id":"focand","url":null},"recName":"Folsomia candida","confidence":{"state":"pre-added","who":["ml:dpeker"],"prob":0.9592}}}},{"classId":"e_4","part":"s12v1","offsets":[{"start":3972,"text":"Edmonson Point"}],"coordinates":[],"confidence":{"state":"pre-added","who":["ml:dpeker"],"prob":0.9518},"fields":{},"normalizations":{"n_34":{"source":{"name":"GeoNamesSCAR","id":"124687","url":null},"recName":"Edmonson Point","confidence":{"state":"pre-added","who":["ml:dpeker"],"prob":0.9518}}}},{"classId":"e_4","part":"s12v1","offsets":[{"start":4173,"text":"Taylor Valley"}],"coordinates":[],"confidence":{"state":"pre-added","who":["ml:dpeker"],"prob":0.9472},"fields":{},"normalizations":{"n_34":{"source":{"name":"GeoNamesSCAR","id":"132512","url":null},"recName":"Taylor Valley","confidence":{"state":"pre-added","who":["ml:dpeker"],"prob":0.9472}}}},{"classId":"e_4","part":"s12v1","offsets":[{"start":5416,"text":"Taylor Valley"}],"coordinates":[],"confidence":{"state":"pre-added","who":["ml:dpeker"],"prob":0.9472},"fields":{},"normalizations":{"n_34":{"source":{"name":"GeoNamesSCAR","id":"132512","url":null},"recName":"Taylor Valley","confidence":{"state":"pre-added","who":["ml:dpeker"],"prob":0.9472}}}},{"classId":"e_4","part":"s12v1","offsets":[{"start":5542,"text":"Taylor Valley"}],"coordinates":[],"confidence":{"state":"pre-added","who":["ml:dpeker"],"prob":0.9472},"fields":{},"normalizations":{"n_34":{"source":{"name":"GeoNamesSCAR","id":"132512","url":null},"recName":"Taylor Valley","confidence":{"state":"pre-added","who":["ml:dpeker"],"prob":0.9472}}}},{"classId":"e_4","part":"s13v1","offsets":[{"start":248,"text":"Taylor Valley"}],"coordinates":[],"confidence":{"state":"pre-added","who":["ml:dpeker"],"prob":0.9472},"fields":{},"normalizations":{"n_34":{"source":{"name":"GeoNamesSCAR","id":"132512","url":null},"recName":"Taylor Valley","confidence":{"state":"pre-added","who":["ml:dpeker"],"prob":0.9472}}}},{"classId":"e_4","part":"s13v1","offsets":[{"start":958,"text":"McMurdo Dry Valleys"}],"coordinates":[],"confidence":{"state":"pre-added","who":["ml:dpeker"],"prob":0.9671},"fields":{},"normalizations":{"n_34":{"source":{"name":"GeoNamesSCAR","id":"113892","url":null},"recName":"McMurdo Dry Valleys","confidence":{"state":"pre-added","who":["ml:dpeker"],"prob":0.9671}}}},{"classId":"e_4","part":"s13v1","offsets":[{"start":1545,"text":"McMurdo Dry Valleys"}],"coordinates":[],"confidence":{"state":"pre-added","who":["ml:dpeker"],"prob":0.9671},"fields":{},"normalizations":{"n_34":{"source":{"name":"GeoNamesSCAR","id":"113892","url":null},"recName":"McMurdo Dry Valleys","confidence":{"state":"pre-added","who":["ml:dpeker"],"prob":0.9671}}}},{"classId":"e_2","part":"s13v1","offsets":[{"start":2139,"text":"Panagrolaimus"}],"coordinates":[],"confidence":{"state":"pre-added","who":["ml:dpeker"],"prob":0.9472},"fields":{},"normalizations":{"n_33":{"source":{"name":"NematodeNames","id":"panasp","url":null},"recName":"Panagrolaimus spp.","confidence":{"state":"pre-added","who":["ml:dpeker"],"prob":0.9472}}}},{"classId":"e_4","part":"s13v1","offsets":[{"start":3041,"text":"McMurdo Dry Valleys"}],"coordinates":[],"confidence":{"state":"pre-added","who":["ml:dpeker"],"prob":0.9671},"fields":{},"normalizations":{"n_34":{"source":{"name":"GeoNamesSCAR","id":"113892","url":null},"recName":"McMurdo Dry Valleys","confidence":{"state":"pre-added","who":["ml:dpeker"],"prob":0.9671}}}},{"classId":"e_7","part":"s13v1","offsets":[{"start":3970,"text":"Buellia frigida"}],"coordinates":[],"confidence":{"state":"pre-added","who":["ml:dpeker"],"prob":0.9558},"fields":{},"normalizations":{"n_31":{"source":{"name":"LichenNames","id":"bufrig","url":null},"recName":"Buellia frigida","confidence":{"state":"pre-added","who":["ml:dpeker"],"prob":0.9558}}}},{"classId":"e_4","part":"s13v1","offsets":[{"start":4241,"text":"McMurdo Dry Valleys"}],"coordinates":[],"confidence":{"state":"pre-added","who":["ml:dpeker"],"prob":0.9671},"fields":{},"normalizations":{"n_34":{"source":{"name":"GeoNamesSCAR","id":"113892","url":null},"recName":"McMurdo Dry Valleys","confidence":{"state":"pre-added","who":["ml:dpeker"],"prob":0.9671}}}},{"classId":"e_4","part":"s13v1","offsets":[{"start":5718,"text":"Taylor Valley"}],"coordinates":[],"confidence":{"state":"pre-added","who":["ml:dpeker"],"prob":0.9472},"fields":{},"normalizations":{"n_34":{"source":{"name":"GeoNamesSCAR","id":"132512","url":null},"recName":"Taylor Valley","confidence":{"state":"pre-added","who":["ml:dpeker"],"prob":0.9472}}}},{"classId":"e_1","part":"s13v1","offsets":[{"start":7236,"text":"Hennediella heimii"}],"coordinates":[],"confidence":{"state":"pre-added","who":["ml:dpeker"],"prob":0.9648},"fields":{},"normalizations":{"n_32":{"source":{"name":"MossNames","id":"heheim","url":null},"recName":"Hennediella heimii","confidence":{"state":"pre-added","who":["ml:dpeker"],"prob":0.9648}}}},{"classId":"e_4","part":"s14v1","offsets":[{"start":738,"text":"Ross Island"}],"coordinates":[],"confidence":{"state":"pre-added","who":["ml:dpeker"],"prob":0.9349},"fields":{},"normalizations":{"n_34":{"source":{"name":"GeoNamesSCAR","id":"130958","url":null},"recName":"Ross Island","confidence":{"state":"pre-added","who":["ml:dpeker"],"prob":0.9349}}}},{"classId":"e_4","part":"s14v1","offsets":[{"start":959,"text":"Taylor Valley"}],"coordinates":[],"confidence":{"state":"pre-added","who":["ml:dpeker"],"prob":0.9472},"fields":{},"normalizations":{"n_34":{"source":{"name":"GeoNamesSCAR","id":"132512","url":null},"recName":"Taylor Valley","confidence":{"state":"pre-added","who":["ml:dpeker"],"prob":0.9472}}}},{"classId":"e_4","part":"s14v1","offsets":[{"start":1066,"text":"Hallett Station"}],"coordinates":[],"confidence":{"state":"pre-added","who":["ml:dpeker"],"prob":0.9558},"fields":{},"normalizations":{"n_34":{"source":{"name":"GeoNamesSCAR","id":"113459","url":null},"recName":"Hallett Station","confidence":{"state":"pre-added","who":["ml:dpeker"],"prob":0.9558}}}},{"classId":"e_4","part":"s14v1","offsets":[{"start":1220,"text":"Hallett Station"}],"coordinates":[],"confidence":{"state":"pre-added","who":["ml:dpeker"],"prob":0.9558},"fields":{},"normalizations":{"n_34":{"source":{"name":"GeoNamesSCAR","id":"113459","url":null},"recName":"Hallett Station","confidence":{"state":"pre-added","who":["ml:dpeker"],"prob":0.9558}}}},{"classId":"e_4","part":"s14v1","offsets":[{"start":1589,"text":"Canada Glacier"}],"coordinates":[],"confidence":{"state":"pre-added","who":["ml:dpeker"],"prob":0.9518},"fields":{},"normalizations":{"n_34":{"source":{"name":"GeoNamesSCAR","id":"123257","url":null},"recName":"Canada Glacier","confidence":{"state":"pre-added","who":["ml:dpeker"],"prob":0.9518}}}},{"classId":"e_4","part":"s14v1","offsets":[{"start":1785,"text":"Canada Glacier"}],"coordinates":[],"confidence":{"state":"pre-added","who":["ml:dpeker"],"prob":0.9518},"fields":{},"normalizations":{"n_34":{"source":{"name":"GeoNamesSCAR","id":"123257","url":null},"recName":"Canada Glacier","confidence":{"state":"pre-added","who":["ml:dpeker"],"prob":0.9518}}}},{"classId":"e_4","part":"s14v1","offsets":[{"start":1938,"text":"Cape Bird"}],"coordinates":[],"confidence":{"state":"pre-added","who":["ml:dpeker"],"prob":0.9163},"fields":{},"normalizations":{"n_34":{"source":{"name":"GeoNamesSCAR","id":"122545","url":null},"recName":"Bird, Cape","confidence":{"state":"pre-added","who":["ml:dpeker"],"prob":0.9163}}}},{"classId":"e_4","part":"s14v1","offsets":[{"start":1949,"text":"Ross Island"}],"coordinates":[],"confidence":{"state":"pre-added","who":["ml:dpeker"],"prob":0.9349},"fields":{},"normalizations":{"n_34":{"source":{"name":"GeoNamesSCAR","id":"130958","url":null},"recName":"Ross Island","confidence":{"state":"pre-added","who":["ml:dpeker"],"prob":0.9349}}}},{"classId":"e_4","part":"s14v1","offsets":[{"start":2157,"text":"Cape Hallett"}],"coordinates":[],"confidence":{"state":"pre-added","who":["ml:dpeker"],"prob":0.9416},"fields":{},"normalizations":{"n_34":{"source":{"name":"GeoNamesSCAR","id":"126118","url":null},"recName":"Hallett, Cape","confidence":{"state":"pre-added","who":["ml:dpeker"],"prob":0.9416}}}}],"relations":[{"classId":"r_18","type":"linked","directed":false,"entities":["s3v1|e_4|624,635","s3v1|e_1|716,724"],"confidence":{"state":"pre-added","who":["user:ICTAR"],"prob":1}},{"classId":"r_22","type":"linked","directed":false,"entities":["s6v1|e_2|3559,3570","s6v1|e_4|3765,3775"],"confidence":{"state":"pre-added","who":["user:ICTAR"],"prob":1}},{"classId":"r_22","type":"linked","directed":false,"entities":["s6v1|e_2|3573,3584","s6v1|e_4|3765,3775"],"confidence":{"state":"pre-added","who":["user:ICTAR"],"prob":1}},{"classId":"r_22","type":"linked","directed":false,"entities":["s6v1|e_2|3587,3593","s6v1|e_4|3765,3775"],"confidence":{"state":"pre-added","who":["user:ICTAR"],"prob":1}},{"classId":"r_22","type":"linked","directed":false,"entities":["s6v1|e_2|3587,3593","s6v1|e_4|3975,3986"],"confidence":{"state":"pre-added","who":["user:ICTAR"],"prob":1}},{"classId":"r_22","type":"linked","directed":false,"entities":["s6v1|e_2|3595,3607","s6v1|e_4|3975,3986"],"confidence":{"state":"pre-added","who":["user:ICTAR"],"prob":1}},{"classId":"r_22","type":"linked","directed":false,"entities":["s6v1|e_2|3595,3607","s6v1|e_4|4054,4064"],"confidence":{"state":"pre-added","who":["user:ICTAR"],"prob":1}},{"classId":"r_22","type":"linked","directed":false,"entities":["s6v1|e_4|3698,3715","s6v1|e_2|3559,3570"],"confidence":{"state":"pre-added","who":["user:ICTAR"],"prob":1}},{"classId":"r_22","type":"linked","directed":false,"entities":["s6v1|e_4|3698,3715","s6v1|e_2|3573,3584"],"confidence":{"state":"pre-added","who":["user:ICTAR"],"prob":1}},{"classId":"r_22","type":"linked","directed":false,"entities":["s6v1|e_4|3843,3853","s6v1|e_2|3559,3570"],"confidence":{"state":"pre-added","who":["user:ICTAR"],"prob":1}},{"classId":"r_22","type":"linked","directed":false,"entities":["s6v1|e_4|3843,3853","s6v1|e_2|3573,3584"],"confidence":{"state":"pre-added","who":["user:ICTAR"],"prob":1}},{"classId":"r_22","type":"linked","directed":false,"entities":["s6v1|e_4|3904,3914","s6v1|e_2|3559,3570"],"confidence":{"state":"pre-added","who":["user:ICTAR"],"prob":1}},{"classId":"r_22","type":"linked","directed":false,"entities":["s6v1|e_4|3904,3914","s6v1|e_2|3573,3584"],"confidence":{"state":"pre-added","who":["user:ICTAR"],"prob":1}},{"classId":"r_22","type":"linked","directed":false,"entities":["s6v1|e_4|3904,3914","s6v1|e_2|3587,3593"],"confidence":{"state":"pre-added","who":["user:ICTAR"],"prob":1}},{"classId":"r_22","type":"linked","directed":false,"entities":["s6v1|e_4|3975,3986","s6v1|e_2|3573,3584"],"confidence":{"state":"pre-added","who":["user:ICTAR"],"prob":1}},{"classId":"r_22","type":"linked","directed":false,"entities":["s7v1|e_2|2698,2712","s8v1|e_4|12,22"],"confidence":{"state":"pre-added","who":["user:ICTAR"],"prob":1}},{"classId":"r_22","type":"linked","directed":false,"entities":["s7v1|e_2|2698,2712","s8v1|e_4|48,60"],"confidence":{"state":"pre-added","who":["user:ICTAR"],"prob":1}},{"classId":"r_22","type":"linked","directed":false,"entities":["s8v1|e_4|28,45","s7v1|e_2|2698,2712"],"confidence":{"state":"pre-added","who":["user:ICTAR"],"prob":1}},{"classId":"r_22","type":"linked","directed":false,"entities":["s8v1|e_2|64,78","s8v1|e_4|88,98"],"confidence":{"state":"pre-added","who":["user:ICTAR"],"prob":1}},{"classId":"r_22","type":"linked","directed":false,"entities":["s8v1|e_4|128,139","s8v1|e_2|105,119"],"confidence":{"state":"pre-added","who":["user:ICTAR"],"prob":1}},{"classId":"r_22","type":"linked","directed":false,"entities":["s8v1|e_2|1302,1320","s8v1|e_4|1557,1567"],"confidence":{"state":"pre-added","who":["user:ICTAR"],"prob":1}},{"classId":"r_22","type":"linked","directed":false,"entities":["s8v1|e_2|1302,1320","s8v1|e_4|1577,1587"],"confidence":{"state":"pre-added","who":["user:ICTAR"],"prob":1}},{"classId":"r_22","type":"linked","directed":false,"entities":["s8v1|e_2|1724,1743","s8v1|e_4|1921,1932"],"confidence":{"state":"pre-added","who":["user:ICTAR"],"prob":1}},{"classId":"r_22","type":"linked","directed":false,"entities":["s8v1|e_2|1724,1743","s8v1|e_4|1992,2003"],"confidence":{"state":"pre-added","who":["user:ICTAR"],"prob":1}},{"classId":"r_22","type":"linked","directed":false,"entities":["s8v1|e_2|2031,2049","s8v1|e_4|2137,2147"],"confidence":{"state":"pre-added","who":["user:ICTAR"],"prob":1}},{"classId":"r_22","type":"linked","directed":false,"entities":["s8v1|e_2|2031,2049","s8v1|e_4|2156,2166"],"confidence":{"state":"pre-added","who":["user:ICTAR"],"prob":1}},{"classId":"r_22","type":"linked","directed":false,"entities":["s8v1|e_2|2031,2049","s8v1|e_4|2173,2184"],"confidence":{"state":"pre-added","who":["user:ICTAR"],"prob":1}},{"classId":"r_22","type":"linked","directed":false,"entities":["s8v1|e_2|2227,2238","s8v1|e_4|2389,2399"],"confidence":{"state":"pre-added","who":["user:ICTAR"],"prob":1}},{"classId":"r_22","type":"linked","directed":false,"entities":["s11v1|e_2|5143,5154","s11v1|e_4|5246,5264"],"confidence":{"state":"pre-added","who":["user:ICTAR"],"prob":1}},{"classId":"r_58","type":"linked","directed":false,"entities":["s6v1|e_48|3640,3651","s6v1|e_4|3765,3775"],"confidence":{"state":"pre-added","who":["user:ICTAR"],"prob":1}},{"classId":"r_58","type":"linked","directed":false,"entities":["s7v1|e_48|1984,1995","s7v1|e_4|2017,2027"],"confidence":{"state":"pre-added","who":["user:ICTAR"],"prob":1}},{"classId":"r_59","type":"linked","directed":false,"entities":["s6v1|e_49|3609,3620","s6v1|e_4|3698,3715"],"confidence":{"state":"pre-added","who":["user:ICTAR"],"prob":1}},{"classId":"r_59","type":"linked","directed":false,"entities":["s6v1|e_49|3609,3620","s6v1|e_4|3975,3986"],"confidence":{"state":"pre-added","who":["user:ICTAR"],"prob":1}},{"classId":"r_59","type":"linked","directed":false,"entities":["s6v1|e_49|3609,3620","s6v1|e_4|4054,4064"],"confidence":{"state":"pre-added","who":["user:ICTAR"],"prob":1}},{"classId":"r_59","type":"linked","directed":false,"entities":["s6v1|e_4|3765,3775","s6v1|e_49|3609,3620"],"confidence":{"state":"pre-added","who":["user:ICTAR"],"prob":1}},{"classId":"r_59","type":"linked","directed":false,"entities":["s6v1|e_4|3843,3853","s6v1|e_49|3609,3620"],"confidence":{"state":"pre-added","who":["user:ICTAR"],"prob":1}},{"classId":"r_59","type":"linked","directed":false,"entities":["s6v1|e_4|3904,3914","s6v1|e_49|3609,3620"],"confidence":{"state":"pre-added","who":["user:ICTAR"],"prob":1}},{"classId":"r_59","type":"linked","directed":false,"entities":["s7v1|e_49|1504,1515","s7v1|e_4|1607,1617"],"confidence":{"state":"pre-added","who":["user:ICTAR"],"prob":1}},{"classId":"r_59","type":"linked","directed":false,"entities":["s7v1|e_49|1504,1515","s7v1|e_4|1623,1633"],"confidence":{"state":"pre-added","who":["user:ICTAR"],"prob":1}},{"classId":"r_59","type":"linked","directed":false,"entities":["s7v1|e_49|1504,1515","s7v1|e_4|1692,1703"],"confidence":{"state":"pre-added","who":["user:ICTAR"],"prob":1}},{"classId":"r_59","type":"linked","directed":false,"entities":["s7v1|e_4|1713,1724","s7v1|e_49|1504,1515"],"confidence":{"state":"pre-added","who":["user:ICTAR"],"prob":1}},{"classId":"r_71","type":"linked","directed":false,"entities":["s3v1|e_4|624,635","s3v1|e_40|742,753"],"confidence":{"state":"pre-added","who":["user:ICTAR"],"prob":1}}]}