{"annotatable":{"parts":["s1v1","s2v1","s3v1","s4v1","s5v1","s6v1","s7v1","s8v1","s9v1","s10v1","s11v1","s12v1","s13v1","s14v1","s15v1","s16v1","s17v1","s18v1","s19v1","s20v1","s21v1","s22v1","s23v1","s24v1","s25v1","s26v1","s27v1","s28v1","s29v1","s30v1","s31v1","s32v1","s33v1","s34v1","s35v1","s36v1","s37v1","s38v1","s39v1","s40v1","s41v1","s42v1","s43v1","s44v1","s45v1","s46v1","s47v1","s48v1","s49v1","s50v1","s51v1","s52v1","s53v1","s54v1","s55v1","s56v1","s57v1","s58v1","s59v1","s60v1","s61v1","s62v1","s63v1","s64v1","s65v1","s66v1","s67v1","s68v1","s69v1","s70v1","s71v1","s72v1","s73v1","s74v1","s75v1","s76v1","s77v1","s78v1","s79v1","s80v1","s81v1","s82v1","s83v1","s84v1","s85v1","s86v1","s87v1","s88v1","s89v1","s90v1","s91v1","s92v1","s93v1","s94v1","s95v1","s96v1","s97v1","s98v1","s99v1","s100v1","s101v1","s102v1","s103v1","s104v1","s105v1","s106v1","s107v1","s108v1","s109v1","s110v1","s111v1","s112v1","s113v1","s114v1","s115v1","s116v1","s117v1","s118v1","s119v1","s120v1","s121v1","s122v1","s123v1","s124v1","s125v1","s126v1","s127v1","s128v1","s129v1","s130v1","s131v1","s132v1","s133v1","s134v1","s135v1","s136v1","s137v1","s138v1","s139v1","s140v1","s141v1","s142v1","s143v1","s144v1","s145v1","s146v1","s147v1","s148v1","s149v1","s150v1","s151v1","s152v1","s153v1","s154v1","s155v1","s156v1","s157v1","s158v1","s159v1","s160v1","s161v1","s162v1","s163v1","s164v1"]},"anncomplete":true,"sources":[],"metas":{"m_16":{"value":"South Victoria Land","confidence":{"state":"pre-added","who":["user:ICTAR"],"prob":1}},"m_76":{"value":true,"confidence":{"state":"pre-added","who":["user:ICTAR"],"prob":1}},"m_14":{"value":true,"confidence":{"state":"pre-added","who":["user:ICTAR"],"prob":1}}},"entities":[{"classId":"e_4","part":"s3v1","offsets":[{"start":504,"text":"Lake Fryxell"}],"coordinates":[],"confidence":{"state":"pre-added","who":["ml:dpeker"],"prob":0.9416},"fields":{},"normalizations":{"n_34":{"source":{"name":"GeoNamesSCAR","id":"125440","url":null},"recName":"Fryxell, Lake","confidence":{"state":"pre-added","who":["ml:dpeker"],"prob":0.9416}}}},{"classId":"e_4","part":"s3v1","offsets":[{"start":576,"text":"Canada Glacier"}],"coordinates":[],"confidence":{"state":"pre-added","who":["ml:dpeker"],"prob":0.9518},"fields":{},"normalizations":{"n_34":{"source":{"name":"GeoNamesSCAR","id":"123257","url":null},"recName":"Canada Glacier","confidence":{"state":"pre-added","who":["ml:dpeker"],"prob":0.9518}}}},{"classId":"e_4","part":"s3v1","offsets":[{"start":598,"text":"Taylor Valley"}],"coordinates":[],"confidence":{"state":"pre-added","who":["ml:dpeker"],"prob":0.9472},"fields":{},"normalizations":{"n_34":{"source":{"name":"GeoNamesSCAR","id":"132512","url":null},"recName":"Taylor Valley","confidence":{"state":"pre-added","who":["ml:dpeker"],"prob":0.9472}}}},{"classId":"e_4","part":"s3v1","offsets":[{"start":725,"text":"Taylor Valley"}],"coordinates":[],"confidence":{"state":"pre-added","who":["ml:dpeker"],"prob":0.9472},"fields":{},"normalizations":{"n_34":{"source":{"name":"GeoNamesSCAR","id":"132512","url":null},"recName":"Taylor Valley","confidence":{"state":"pre-added","who":["ml:dpeker"],"prob":0.9472}}}},{"classId":"e_4","part":"s3v1","offsets":[{"start":980,"text":"Canada Glacier"}],"coordinates":[],"confidence":{"state":"pre-added","who":["ml:dpeker"],"prob":0.9518},"fields":{},"normalizations":{"n_34":{"source":{"name":"GeoNamesSCAR","id":"123257","url":null},"recName":"Canada Glacier","confidence":{"state":"pre-added","who":["ml:dpeker"],"prob":0.9518}}}},{"classId":"e_4","part":"s4v1","offsets":[{"start":100,"text":"Canada Glacier"}],"coordinates":[],"confidence":{"state":"pre-added","who":["ml:dpeker"],"prob":0.9518},"fields":{},"normalizations":{"n_34":{"source":{"name":"GeoNamesSCAR","id":"123257","url":null},"recName":"Canada Glacier","confidence":{"state":"pre-added","who":["ml:dpeker"],"prob":0.9518}}}},{"classId":"e_4","part":"s4v1","offsets":[{"start":301,"text":"Taylor Valley"}],"coordinates":[],"confidence":{"state":"pre-added","who":["ml:dpeker"],"prob":0.9472},"fields":{},"normalizations":{"n_34":{"source":{"name":"GeoNamesSCAR","id":"132512","url":null},"recName":"Taylor Valley","confidence":{"state":"pre-added","who":["ml:dpeker"],"prob":0.9472}}}},{"classId":"e_4","part":"s4v1","offsets":[{"start":591,"text":"Taylor Valley"}],"coordinates":[],"confidence":{"state":"pre-added","who":["ml:dpeker"],"prob":0.9472},"fields":{},"normalizations":{"n_34":{"source":{"name":"GeoNamesSCAR","id":"132512","url":null},"recName":"Taylor Valley","confidence":{"state":"pre-added","who":["ml:dpeker"],"prob":0.9472}}}},{"classId":"e_4","part":"s4v1","offsets":[{"start":759,"text":"Lake Fryxell"}],"coordinates":[],"confidence":{"state":"pre-added","who":["ml:dpeker"],"prob":0.9416},"fields":{},"normalizations":{"n_34":{"source":{"name":"GeoNamesSCAR","id":"125440","url":null},"recName":"Fryxell, Lake","confidence":{"state":"pre-added","who":["ml:dpeker"],"prob":0.9416}}}},{"classId":"e_4","part":"s4v1","offsets":[{"start":1243,"text":"Canada Glacier"}],"coordinates":[],"confidence":{"state":"pre-added","who":["ml:dpeker"],"prob":0.9518},"fields":{},"normalizations":{"n_34":{"source":{"name":"GeoNamesSCAR","id":"123257","url":null},"recName":"Canada Glacier","confidence":{"state":"pre-added","who":["ml:dpeker"],"prob":0.9518}}}},{"classId":"e_4","part":"s6v1","offsets":[{"start":436,"text":"Taylor Valley"}],"coordinates":[],"confidence":{"state":"pre-added","who":["ml:dpeker"],"prob":0.9472},"fields":{},"normalizations":{"n_34":{"source":{"name":"GeoNamesSCAR","id":"132512","url":null},"recName":"Taylor Valley","confidence":{"state":"pre-added","who":["ml:dpeker"],"prob":0.9472}}}},{"classId":"e_4","part":"s6v1","offsets":[{"start":587,"text":"Canada Glacier"}],"coordinates":[],"confidence":{"state":"pre-added","who":["ml:dpeker"],"prob":0.9518},"fields":{},"normalizations":{"n_34":{"source":{"name":"GeoNamesSCAR","id":"123257","url":null},"recName":"Canada Glacier","confidence":{"state":"pre-added","who":["ml:dpeker"],"prob":0.9518}}}},{"classId":"e_4","part":"s7v1","offsets":[{"start":199,"text":"Lake Fryxell"}],"coordinates":[],"confidence":{"state":"pre-added","who":["ml:dpeker"],"prob":0.9416},"fields":{},"normalizations":{"n_34":{"source":{"name":"GeoNamesSCAR","id":"125440","url":null},"recName":"Fryxell, Lake","confidence":{"state":"pre-added","who":["ml:dpeker"],"prob":0.9416}}}},{"classId":"e_4","part":"s7v1","offsets":[{"start":276,"text":"Lake Fryxell"}],"coordinates":[],"confidence":{"state":"pre-added","who":["ml:dpeker"],"prob":0.9416},"fields":{},"normalizations":{"n_34":{"source":{"name":"GeoNamesSCAR","id":"125440","url":null},"recName":"Fryxell, Lake","confidence":{"state":"pre-added","who":["ml:dpeker"],"prob":0.9416}}}},{"classId":"e_4","part":"s7v1","offsets":[{"start":300,"text":"Canada Glacier"}],"coordinates":[],"confidence":{"state":"pre-added","who":["ml:dpeker"],"prob":0.9518},"fields":{},"normalizations":{"n_34":{"source":{"name":"GeoNamesSCAR","id":"123257","url":null},"recName":"Canada Glacier","confidence":{"state":"pre-added","who":["ml:dpeker"],"prob":0.9518}}}},{"classId":"e_4","part":"s7v1","offsets":[{"start":587,"text":"Lake Fryxell"}],"coordinates":[],"confidence":{"state":"pre-added","who":["ml:dpeker"],"prob":0.9416},"fields":{},"normalizations":{"n_34":{"source":{"name":"GeoNamesSCAR","id":"125440","url":null},"recName":"Fryxell, Lake","confidence":{"state":"pre-added","who":["ml:dpeker"],"prob":0.9416}}}},{"classId":"e_4","part":"s7v1","offsets":[{"start":611,"text":"Canada Glacier"}],"coordinates":[],"confidence":{"state":"pre-added","who":["ml:dpeker"],"prob":0.9518},"fields":{},"normalizations":{"n_34":{"source":{"name":"GeoNamesSCAR","id":"123257","url":null},"recName":"Canada Glacier","confidence":{"state":"pre-added","who":["ml:dpeker"],"prob":0.9518}}}},{"classId":"e_4","part":"s9v1","offsets":[{"start":173,"text":"Canada Glacier"}],"coordinates":[],"confidence":{"state":"pre-added","who":["ml:dpeker"],"prob":0.9518},"fields":{},"normalizations":{"n_34":{"source":{"name":"GeoNamesSCAR","id":"123257","url":null},"recName":"Canada Glacier","confidence":{"state":"pre-added","who":["ml:dpeker"],"prob":0.9518}}}},{"classId":"e_4","part":"s10v1","offsets":[{"start":95,"text":"McMurdo Sound"}],"coordinates":[],"confidence":{"state":"pre-added","who":["ml:dpeker"],"prob":0.9472},"fields":{},"normalizations":{"n_34":{"source":{"name":"GeoNamesSCAR","id":"128724","url":null},"recName":"McMurdo Sound","confidence":{"state":"pre-added","who":["ml:dpeker"],"prob":0.9472}}}},{"classId":"e_4","part":"s10v1","offsets":[{"start":173,"text":"Taylor Valley"}],"coordinates":[],"confidence":{"state":"pre-added","who":["ml:dpeker"],"prob":0.9472},"fields":{},"normalizations":{"n_34":{"source":{"name":"GeoNamesSCAR","id":"132512","url":null},"recName":"Taylor Valley","confidence":{"state":"pre-added","who":["ml:dpeker"],"prob":0.9472}}}},{"classId":"e_4","part":"s10v1","offsets":[{"start":289,"text":"Canada Glacier"}],"coordinates":[],"confidence":{"state":"pre-added","who":["ml:dpeker"],"prob":0.9518},"fields":{},"normalizations":{"n_34":{"source":{"name":"GeoNamesSCAR","id":"123257","url":null},"recName":"Canada Glacier","confidence":{"state":"pre-added","who":["ml:dpeker"],"prob":0.9518}}}},{"classId":"e_4","part":"s10v1","offsets":[{"start":558,"text":"Lake Hoare"}],"coordinates":[],"confidence":{"state":"pre-added","who":["ml:dpeker"],"prob":0.9266},"fields":{},"normalizations":{"n_34":{"source":{"name":"GeoNamesSCAR","id":"126559","url":null},"recName":"Hoare, Lake","confidence":{"state":"pre-added","who":["ml:dpeker"],"prob":0.9266}}}},{"classId":"e_4","part":"s10v1","offsets":[{"start":678,"text":"Lake Hoare"}],"coordinates":[],"confidence":{"state":"pre-added","who":["ml:dpeker"],"prob":0.9266},"fields":{},"normalizations":{"n_34":{"source":{"name":"GeoNamesSCAR","id":"126559","url":null},"recName":"Hoare, Lake","confidence":{"state":"pre-added","who":["ml:dpeker"],"prob":0.9266}}}},{"classId":"e_4","part":"s10v1","offsets":[{"start":781,"text":"Lake Hoare"}],"coordinates":[],"confidence":{"state":"pre-added","who":["ml:dpeker"],"prob":0.9266},"fields":{},"normalizations":{"n_34":{"source":{"name":"GeoNamesSCAR","id":"126559","url":null},"recName":"Hoare, Lake","confidence":{"state":"pre-added","who":["ml:dpeker"],"prob":0.9266}}}},{"classId":"e_4","part":"s11v1","offsets":[{"start":25,"text":"Onyx River"}],"coordinates":[],"confidence":{"state":"pre-added","who":["ml:dpeker"],"prob":0.9266},"fields":{},"normalizations":{"n_34":{"source":{"name":"GeoNamesSCAR","id":"129676","url":null},"recName":"Onyx River","confidence":{"state":"pre-added","who":["ml:dpeker"],"prob":0.9266}}}},{"classId":"e_4","part":"s11v1","offsets":[{"start":133,"text":"Cape Geology"}],"coordinates":[],"confidence":{"state":"pre-added","who":["ml:dpeker"],"prob":0.9416},"fields":{},"normalizations":{"n_34":{"source":{"name":"GeoNamesSCAR","id":"125618","url":null},"recName":"Geology, Cape","confidence":{"state":"pre-added","who":["ml:dpeker"],"prob":0.9416}}}},{"classId":"e_4","part":"s11v1","offsets":[{"start":150,"text":"Botany\n\nBay"}],"coordinates":[],"confidence":{"state":"pre-added","who":["ml:dpeker"],"prob":0.7582},"fields":{},"normalizations":{"n_34":{"source":{"name":"GeoNamesSCAR","id":"112844","url":null},"recName":"Botany Bay","confidence":{"state":"pre-added","who":["ml:dpeker"],"prob":0.7582}}}},{"classId":"e_4","part":"s13v1","offsets":[{"start":222,"text":"Cape\n\nGeology"}],"coordinates":[],"confidence":{"state":"pre-added","who":["ml:dpeker"],"prob":0.7967},"fields":{},"normalizations":{"n_34":{"source":{"name":"GeoNamesSCAR","id":"125618","url":null},"recName":"Geology, Cape","confidence":{"state":"pre-added","who":["ml:dpeker"],"prob":0.7967}}}},{"classId":"e_4","part":"s14v1","offsets":[{"start":244,"text":"Canada\n\nGlacier"}],"coordinates":[],"confidence":{"state":"pre-added","who":["ml:dpeker"],"prob":0.8249},"fields":{},"normalizations":{"n_34":{"source":{"name":"GeoNamesSCAR","id":"123257","url":null},"recName":"Canada Glacier","confidence":{"state":"pre-added","who":["ml:dpeker"],"prob":0.8249}}}},{"classId":"e_4","part":"s15v1","offsets":[{"start":1018,"text":"the land"}],"coordinates":[],"confidence":{"state":"pre-added","who":["ml:dpeker"],"prob":0.5747},"fields":{},"normalizations":{"n_34":{"source":{"name":"GeoNamesSCAR","id":"127761","url":null},"recName":"Landing, The","confidence":{"state":"pre-added","who":["ml:dpeker"],"prob":0.5747}}}},{"classId":"e_4","part":"s17v1","offsets":[{"start":29,"text":"Ross Dependency"}],"coordinates":[],"confidence":{"state":"pre-added","who":["ml:dpeker"],"prob":0.9558},"fields":{},"normalizations":{"n_34":{"source":{"name":"GeoNamesSCAR","id":"134188","url":null},"recName":"Ross Dependency","confidence":{"state":"pre-added","who":["ml:dpeker"],"prob":0.9558}}}},{"classId":"e_4","part":"s21v1","offsets":[{"start":206,"text":"Yule Bay"}],"coordinates":[],"confidence":{"state":"pre-added","who":["ml:dpeker"],"prob":0.9031},"fields":{},"normalizations":{"n_34":{"source":{"name":"GeoNamesSCAR","id":"133945","url":null},"recName":"Yule Bay","confidence":{"state":"pre-added","who":["ml:dpeker"],"prob":0.9031}}}},{"classId":"e_4","part":"s21v1","offsets":[{"start":248,"text":"Terra.Nova Bay"}],"coordinates":[],"confidence":{"state":"pre-added","who":["ml:dpeker"],"prob":0.8839},"fields":{},"normalizations":{"n_34":{"source":{"name":"GeoNamesSCAR","id":"132576","url":null},"recName":"Terra Nova Bay","confidence":{"state":"pre-added","who":["ml:dpeker"],"prob":0.8839}}}},{"classId":"e_4","part":"s21v1","offsets":[{"start":267,"text":"Wood Bay"}],"coordinates":[],"confidence":{"state":"pre-added","who":["ml:dpeker"],"prob":0.9031},"fields":{},"normalizations":{"n_34":{"source":{"name":"GeoNamesSCAR","id":"133827","url":null},"recName":"Wood Bay","confidence":{"state":"pre-added","who":["ml:dpeker"],"prob":0.9031}}}},{"classId":"e_4","part":"s21v1","offsets":[{"start":277,"text":"Ross Island"}],"coordinates":[],"confidence":{"state":"pre-added","who":["ml:dpeker"],"prob":0.9349},"fields":{},"normalizations":{"n_34":{"source":{"name":"GeoNamesSCAR","id":"130958","url":null},"recName":"Ross Island","confidence":{"state":"pre-added","who":["ml:dpeker"],"prob":0.9349}}}},{"classId":"e_4","part":"s21v1","offsets":[{"start":303,"text":"Blue\n\nGlacier"}],"coordinates":[],"confidence":{"state":"pre-added","who":["ml:dpeker"],"prob":0.7967},"fields":{},"normalizations":{"n_34":{"source":{"name":"GeoNamesSCAR","id":"112824","url":null},"recName":"Blue Glacier","confidence":{"state":"pre-added","who":["ml:dpeker"],"prob":0.7967}}}},{"classId":"e_4","part":"s21v1","offsets":[{"start":321,"text":"Garwood Valley"}],"coordinates":[],"confidence":{"state":"pre-added","who":["ml:dpeker"],"prob":0.9518},"fields":{},"normalizations":{"n_34":{"source":{"name":"GeoNamesSCAR","id":"125553","url":null},"recName":"Garwood Valley","confidence":{"state":"pre-added","who":["ml:dpeker"],"prob":0.9518}}}},{"classId":"e_4","part":"s21v1","offsets":[{"start":387,"text":"Ross Dependency"}],"coordinates":[],"confidence":{"state":"pre-added","who":["ml:dpeker"],"prob":0.9558},"fields":{},"normalizations":{"n_34":{"source":{"name":"GeoNamesSCAR","id":"134188","url":null},"recName":"Ross Dependency","confidence":{"state":"pre-added","who":["ml:dpeker"],"prob":0.9558}}}},{"classId":"e_4","part":"s21v1","offsets":[{"start":1078,"text":"Ross Island"}],"coordinates":[],"confidence":{"state":"pre-added","who":["ml:dpeker"],"prob":0.9349},"fields":{},"normalizations":{"n_34":{"source":{"name":"GeoNamesSCAR","id":"130958","url":null},"recName":"Ross Island","confidence":{"state":"pre-added","who":["ml:dpeker"],"prob":0.9349}}}},{"classId":"e_4","part":"s22v1","offsets":[{"start":838,"text":"Deep Lake"}],"coordinates":[],"confidence":{"state":"pre-added","who":["ml:dpeker"],"prob":0.9163},"fields":{},"normalizations":{"n_34":{"source":{"name":"GeoNamesSCAR","id":"124219","url":null},"recName":"Deep Lake","confidence":{"state":"pre-added","who":["ml:dpeker"],"prob":0.9163}}}},{"classId":"e_4","part":"s22v1","offsets":[{"start":942,"text":"Ross Ice Shelf"}],"coordinates":[],"confidence":{"state":"pre-added","who":["ml:dpeker"],"prob":0.9518},"fields":{},"normalizations":{"n_34":{"source":{"name":"GeoNamesSCAR","id":"130957","url":null},"recName":"Ross Ice Shelf","confidence":{"state":"pre-added","who":["ml:dpeker"],"prob":0.9518}}}},{"classId":"e_4","part":"s22v1","offsets":[{"start":1116,"text":"McMurdo Sound"}],"coordinates":[],"confidence":{"state":"pre-added","who":["ml:dpeker"],"prob":0.9472},"fields":{},"normalizations":{"n_34":{"source":{"name":"GeoNamesSCAR","id":"128724","url":null},"recName":"McMurdo Sound","confidence":{"state":"pre-added","who":["ml:dpeker"],"prob":0.9472}}}},{"classId":"e_4","part":"s23v1","offsets":[{"start":482,"text":"Ross dependency"}],"coordinates":[],"confidence":{"state":"pre-added","who":["ml:dpeker"],"prob":0.924},"fields":{},"normalizations":{"n_34":{"source":{"name":"GeoNamesSCAR","id":"134188","url":null},"recName":"Ross Dependency","confidence":{"state":"pre-added","who":["ml:dpeker"],"prob":0.924}}}},{"classId":"e_4","part":"s23v1","offsets":[{"start":663,"text":"Transantarctic Mountains"}],"coordinates":[],"confidence":{"state":"pre-added","who":["ml:dpeker"],"prob":0.9754},"fields":{},"normalizations":{"n_34":{"source":{"name":"GeoNamesSCAR","id":"132843","url":null},"recName":"Transantarctic Mountains","confidence":{"state":"pre-added","who":["ml:dpeker"],"prob":0.9754}}}},{"classId":"e_4","part":"s23v1","offsets":[{"start":708,"text":"mountain ranges"}],"coordinates":[],"confidence":{"state":"pre-added","who":["ml:dpeker"],"prob":0.6747},"fields":{},"normalizations":{"n_34":{"source":{"name":"GeoNamesSCAR","id":"129157","url":null},"recName":"Mountaineer Range","confidence":{"state":"pre-added","who":["ml:dpeker"],"prob":0.6747}}}},{"classId":"e_7","part":"s24v1","offsets":[{"start":362,"text":"Buellia frigida"}],"coordinates":[],"confidence":{"state":"pre-added","who":["ml:dpeker"],"prob":0.9558},"fields":{},"normalizations":{"n_31":{"source":{"name":"LichenNames","id":"bufrig","url":null},"recName":"Buellia frigida","confidence":{"state":"pre-added","who":["ml:dpeker"],"prob":0.9558}}}},{"classId":"e_4","part":"s24v1","offsets":[{"start":983,"text":"Taylor Valley"}],"coordinates":[],"confidence":{"state":"pre-added","who":["ml:dpeker"],"prob":0.9472},"fields":{},"normalizations":{"n_34":{"source":{"name":"GeoNamesSCAR","id":"132512","url":null},"recName":"Taylor Valley","confidence":{"state":"pre-added","who":["ml:dpeker"],"prob":0.9472}}}},{"classId":"e_4","part":"s24v1","offsets":[{"start":1075,"text":"Garwood Valley"}],"coordinates":[],"confidence":{"state":"pre-added","who":["ml:dpeker"],"prob":0.9518},"fields":{},"normalizations":{"n_34":{"source":{"name":"GeoNamesSCAR","id":"125553","url":null},"recName":"Garwood Valley","confidence":{"state":"pre-added","who":["ml:dpeker"],"prob":0.9518}}}},{"classId":"e_4","part":"s24v1","offsets":[{"start":1112,"text":"Joyce glaciers"}],"coordinates":[],"confidence":{"state":"pre-added","who":["ml:dpeker"],"prob":0.8457},"fields":{},"normalizations":{"n_34":{"source":{"name":"GeoNamesSCAR","id":"127182","url":null},"recName":"Joyce Glacier","confidence":{"state":"pre-added","who":["ml:dpeker"],"prob":0.8457}}}},{"classId":"e_4","part":"s24v1","offsets":[{"start":1326,"text":"Ross Dependency"}],"coordinates":[],"confidence":{"state":"pre-added","who":["ml:dpeker"],"prob":0.9558},"fields":{},"normalizations":{"n_34":{"source":{"name":"GeoNamesSCAR","id":"134188","url":null},"recName":"Ross Dependency","confidence":{"state":"pre-added","who":["ml:dpeker"],"prob":0.9558}}}},{"classId":"e_4","part":"s25v1","offsets":[{"start":207,"text":"BarwickValley"}],"coordinates":[],"confidence":{"state":"pre-added","who":["ml:dpeker"],"prob":0.8118},"fields":{},"normalizations":{"n_34":{"source":{"name":"GeoNamesSCAR","id":"122252","url":null},"recName":"Barwick Valley","confidence":{"state":"pre-added","who":["ml:dpeker"],"prob":0.8118}}}},{"classId":"e_4","part":"s25v1","offsets":[{"start":229,"text":"Taylor Valley"}],"coordinates":[],"confidence":{"state":"pre-added","who":["ml:dpeker"],"prob":0.9472},"fields":{},"normalizations":{"n_34":{"source":{"name":"GeoNamesSCAR","id":"132512","url":null},"recName":"Taylor Valley","confidence":{"state":"pre-added","who":["ml:dpeker"],"prob":0.9472}}}},{"classId":"e_4","part":"s25v1","offsets":[{"start":249,"text":"Taylor Valley"}],"coordinates":[],"confidence":{"state":"pre-added","who":["ml:dpeker"],"prob":0.9472},"fields":{},"normalizations":{"n_34":{"source":{"name":"GeoNamesSCAR","id":"132512","url":null},"recName":"Taylor Valley","confidence":{"state":"pre-added","who":["ml:dpeker"],"prob":0.9472}}}},{"classId":"e_4","part":"s25v1","offsets":[{"start":322,"text":"Taylor Glacier"}],"coordinates":[],"confidence":{"state":"pre-added","who":["ml:dpeker"],"prob":0.9518},"fields":{},"normalizations":{"n_34":{"source":{"name":"GeoNamesSCAR","id":"132500","url":null},"recName":"Taylor Glacier","confidence":{"state":"pre-added","who":["ml:dpeker"],"prob":0.9518}}}},{"classId":"e_4","part":"s25v1","offsets":[{"start":523,"text":"Canada glacier"}],"coordinates":[],"confidence":{"state":"pre-added","who":["ml:dpeker"],"prob":0.9178},"fields":{},"normalizations":{"n_34":{"source":{"name":"GeoNamesSCAR","id":"123257","url":null},"recName":"Canada Glacier","confidence":{"state":"pre-added","who":["ml:dpeker"],"prob":0.9178}}}},{"classId":"e_4","part":"s25v1","offsets":[{"start":559,"text":"Lake Fryxell"}],"coordinates":[],"confidence":{"state":"pre-added","who":["ml:dpeker"],"prob":0.9416},"fields":{},"normalizations":{"n_34":{"source":{"name":"GeoNamesSCAR","id":"125440","url":null},"recName":"Fryxell, Lake","confidence":{"state":"pre-added","who":["ml:dpeker"],"prob":0.9416}}}},{"classId":"e_4","part":"s26v1","offsets":[{"start":86,"text":"McMurdo Sound"}],"coordinates":[],"confidence":{"state":"pre-added","who":["ml:dpeker"],"prob":0.9472},"fields":{},"normalizations":{"n_34":{"source":{"name":"GeoNamesSCAR","id":"128724","url":null},"recName":"McMurdo Sound","confidence":{"state":"pre-added","who":["ml:dpeker"],"prob":0.9472}}}},{"classId":"e_4","part":"s26v1","offsets":[{"start":164,"text":"Taylor Valley"}],"coordinates":[],"confidence":{"state":"pre-added","who":["ml:dpeker"],"prob":0.9472},"fields":{},"normalizations":{"n_34":{"source":{"name":"GeoNamesSCAR","id":"132512","url":null},"recName":"Taylor Valley","confidence":{"state":"pre-added","who":["ml:dpeker"],"prob":0.9472}}}},{"classId":"e_4","part":"s27v1","offsets":[{"start":7,"text":"Lake Fryxell"}],"coordinates":[],"confidence":{"state":"pre-added","who":["ml:dpeker"],"prob":0.9416},"fields":{},"normalizations":{"n_34":{"source":{"name":"GeoNamesSCAR","id":"125440","url":null},"recName":"Fryxell, Lake","confidence":{"state":"pre-added","who":["ml:dpeker"],"prob":0.9416}}}},{"classId":"e_4","part":"s27v1","offsets":[{"start":189,"text":"Canada Glacier"}],"coordinates":[],"confidence":{"state":"pre-added","who":["ml:dpeker"],"prob":0.9518},"fields":{},"normalizations":{"n_34":{"source":{"name":"GeoNamesSCAR","id":"123257","url":null},"recName":"Canada Glacier","confidence":{"state":"pre-added","who":["ml:dpeker"],"prob":0.9518}}}},{"classId":"e_4","part":"s28v1","offsets":[{"start":57,"text":"Fryxell Stream\n\n("}],"coordinates":[],"confidence":{"state":"pre-added","who":["ml:dpeker"],"prob":0.8035},"fields":{},"normalizations":{"n_52":{"source":{"name":"GeoNamesCustom","id":"CKL008","url":null},"recName":"Fryxell Stream","confidence":{"state":"pre-added","who":["ml:dpeker"],"prob":0.8035}}}},{"classId":"e_4","part":"s28v1","offsets":[{"start":638,"text":"Canada Glacier"}],"coordinates":[],"confidence":{"state":"pre-added","who":["ml:dpeker"],"prob":0.9518},"fields":{},"normalizations":{"n_34":{"source":{"name":"GeoNamesSCAR","id":"123257","url":null},"recName":"Canada Glacier","confidence":{"state":"pre-added","who":["ml:dpeker"],"prob":0.9518}}}},{"classId":"e_4","part":"s28v1","offsets":[{"start":655,"text":"Lake Fryxell"}],"coordinates":[],"confidence":{"state":"pre-added","who":["ml:dpeker"],"prob":0.9416},"fields":{},"normalizations":{"n_34":{"source":{"name":"GeoNamesSCAR","id":"125440","url":null},"recName":"Fryxell, Lake","confidence":{"state":"pre-added","who":["ml:dpeker"],"prob":0.9416}}}},{"classId":"e_4","part":"s28v1","offsets":[{"start":693,"text":"Taylor Valley"}],"coordinates":[],"confidence":{"state":"pre-added","who":["ml:dpeker"],"prob":0.9472},"fields":{},"normalizations":{"n_34":{"source":{"name":"GeoNamesSCAR","id":"132512","url":null},"recName":"Taylor Valley","confidence":{"state":"pre-added","who":["ml:dpeker"],"prob":0.9472}}}},{"classId":"e_4","part":"s28v1","offsets":[{"start":723,"text":"Cape Geology"}],"coordinates":[],"confidence":{"state":"pre-added","who":["ml:dpeker"],"prob":0.9416},"fields":{},"normalizations":{"n_34":{"source":{"name":"GeoNamesSCAR","id":"125618","url":null},"recName":"Geology, Cape","confidence":{"state":"pre-added","who":["ml:dpeker"],"prob":0.9416}}}},{"classId":"e_4","part":"s28v1","offsets":[{"start":737,"text":"Botany Bay"}],"coordinates":[],"confidence":{"state":"pre-added","who":["ml:dpeker"],"prob":0.9266},"fields":{},"normalizations":{"n_34":{"source":{"name":"GeoNamesSCAR","id":"112844","url":null},"recName":"Botany Bay","confidence":{"state":"pre-added","who":["ml:dpeker"],"prob":0.9266}}}},{"classId":"e_4","part":"s28v1","offsets":[{"start":752,"text":"the\n\nFlatiron"}],"coordinates":[],"confidence":{"state":"pre-added","who":["ml:dpeker"],"prob":0.7605},"fields":{},"normalizations":{"n_34":{"source":{"name":"GeoNamesSCAR","id":"125175","url":null},"recName":"Flatiron, The","confidence":{"state":"pre-added","who":["ml:dpeker"],"prob":0.7605}}}},{"classId":"e_4","part":"s28v1","offsets":[{"start":1021,"text":"days"}],"coordinates":[],"confidence":{"state":"pre-added","who":["ml:dpeker"],"prob":0.4836},"fields":{},"normalizations":{"n_34":{"source":{"name":"GeoNamesSCAR","id":"124046","url":null},"recName":"Dais","confidence":{"state":"pre-added","who":["ml:dpeker"],"prob":0.4836}}}},{"classId":"e_4","part":"s29v1","offsets":[{"start":873,"text":"Canada Glacier"}],"coordinates":[],"confidence":{"state":"pre-added","who":["ml:dpeker"],"prob":0.9518},"fields":{},"normalizations":{"n_34":{"source":{"name":"GeoNamesSCAR","id":"123257","url":null},"recName":"Canada Glacier","confidence":{"state":"pre-added","who":["ml:dpeker"],"prob":0.9518}}}},{"classId":"e_4","part":"s29v1","offsets":[{"start":889,"text":"Lake Fryxell"}],"coordinates":[],"confidence":{"state":"pre-added","who":["ml:dpeker"],"prob":0.9416},"fields":{},"normalizations":{"n_34":{"source":{"name":"GeoNamesSCAR","id":"125440","url":null},"recName":"Fryxell, Lake","confidence":{"state":"pre-added","who":["ml:dpeker"],"prob":0.9416}}}},{"classId":"e_4","part":"s30v1","offsets":[{"start":59,"text":"Taylor Valley"}],"coordinates":[],"confidence":{"state":"pre-added","who":["ml:dpeker"],"prob":0.9472},"fields":{},"normalizations":{"n_34":{"source":{"name":"GeoNamesSCAR","id":"132512","url":null},"recName":"Taylor Valley","confidence":{"state":"pre-added","who":["ml:dpeker"],"prob":0.9472}}}},{"classId":"e_4","part":"s30v1","offsets":[{"start":258,"text":"Canada Glacier"}],"coordinates":[],"confidence":{"state":"pre-added","who":["ml:dpeker"],"prob":0.9518},"fields":{},"normalizations":{"n_34":{"source":{"name":"GeoNamesSCAR","id":"123257","url":null},"recName":"Canada Glacier","confidence":{"state":"pre-added","who":["ml:dpeker"],"prob":0.9518}}}},{"classId":"e_4","part":"s30v1","offsets":[{"start":304,"text":"Taylor Valley"}],"coordinates":[],"confidence":{"state":"pre-added","who":["ml:dpeker"],"prob":0.9472},"fields":{},"normalizations":{"n_34":{"source":{"name":"GeoNamesSCAR","id":"132512","url":null},"recName":"Taylor Valley","confidence":{"state":"pre-added","who":["ml:dpeker"],"prob":0.9472}}}},{"classId":"e_4","part":"s30v1","offsets":[{"start":358,"text":"Canada Glacier"}],"coordinates":[],"confidence":{"state":"pre-added","who":["ml:dpeker"],"prob":0.9518},"fields":{},"normalizations":{"n_34":{"source":{"name":"GeoNamesSCAR","id":"123257","url":null},"recName":"Canada Glacier","confidence":{"state":"pre-added","who":["ml:dpeker"],"prob":0.9518}}}},{"classId":"e_4","part":"s30v1","offsets":[{"start":730,"text":"Canada glacier"}],"coordinates":[],"confidence":{"state":"pre-added","who":["ml:dpeker"],"prob":0.9178},"fields":{},"normalizations":{"n_34":{"source":{"name":"GeoNamesSCAR","id":"123257","url":null},"recName":"Canada Glacier","confidence":{"state":"pre-added","who":["ml:dpeker"],"prob":0.9178}}}},{"classId":"e_4","part":"s30v1","offsets":[{"start":852,"text":"Canada Glacier"}],"coordinates":[],"confidence":{"state":"pre-added","who":["ml:dpeker"],"prob":0.9518},"fields":{},"normalizations":{"n_34":{"source":{"name":"GeoNamesSCAR","id":"123257","url":null},"recName":"Canada Glacier","confidence":{"state":"pre-added","who":["ml:dpeker"],"prob":0.9518}}}},{"classId":"e_4","part":"s30v1","offsets":[{"start":1180,"text":"Canada Glacier"}],"coordinates":[],"confidence":{"state":"pre-added","who":["ml:dpeker"],"prob":0.9518},"fields":{},"normalizations":{"n_34":{"source":{"name":"GeoNamesSCAR","id":"123257","url":null},"recName":"Canada Glacier","confidence":{"state":"pre-added","who":["ml:dpeker"],"prob":0.9518}}}},{"classId":"e_4","part":"s31v1","offsets":[{"start":318,"text":"Fryxell stream"}],"coordinates":[],"confidence":{"state":"pre-added","who":["ml:dpeker"],"prob":0.9178},"fields":{},"normalizations":{"n_52":{"source":{"name":"GeoNamesCustom","id":"CKL008","url":null},"recName":"Fryxell Stream","confidence":{"state":"pre-added","who":["ml:dpeker"],"prob":0.9178}}}},{"classId":"e_4","part":"s31v1","offsets":[{"start":1062,"text":"Canada Glacier"}],"coordinates":[],"confidence":{"state":"pre-added","who":["ml:dpeker"],"prob":0.9518},"fields":{},"normalizations":{"n_34":{"source":{"name":"GeoNamesSCAR","id":"123257","url":null},"recName":"Canada Glacier","confidence":{"state":"pre-added","who":["ml:dpeker"],"prob":0.9518}}}},{"classId":"e_4","part":"s31v1","offsets":[{"start":1107,"text":"Fryxell stream"}],"coordinates":[],"confidence":{"state":"pre-added","who":["ml:dpeker"],"prob":0.9178},"fields":{},"normalizations":{"n_52":{"source":{"name":"GeoNamesCustom","id":"CKL008","url":null},"recName":"Fryxell Stream","confidence":{"state":"pre-added","who":["ml:dpeker"],"prob":0.9178}}}},{"classId":"e_4","part":"s31v1","offsets":[{"start":1273,"text":"Fryxell stream"}],"coordinates":[],"confidence":{"state":"pre-added","who":["ml:dpeker"],"prob":0.9178},"fields":{},"normalizations":{"n_52":{"source":{"name":"GeoNamesCustom","id":"CKL008","url":null},"recName":"Fryxell Stream","confidence":{"state":"pre-added","who":["ml:dpeker"],"prob":0.9178}}}},{"classId":"e_4","part":"s31v1","offsets":[{"start":1367,"text":"Lake Fryxell"}],"coordinates":[],"confidence":{"state":"pre-added","who":["ml:dpeker"],"prob":0.9416},"fields":{},"normalizations":{"n_34":{"source":{"name":"GeoNamesSCAR","id":"125440","url":null},"recName":"Fryxell, Lake","confidence":{"state":"pre-added","who":["ml:dpeker"],"prob":0.9416}}}},{"classId":"e_4","part":"s35v1","offsets":[{"start":88,"text":"Fryxell stream"}],"coordinates":[],"confidence":{"state":"pre-added","who":["ml:dpeker"],"prob":0.9178},"fields":{},"normalizations":{"n_52":{"source":{"name":"GeoNamesCustom","id":"CKL008","url":null},"recName":"Fryxell Stream","confidence":{"state":"pre-added","who":["ml:dpeker"],"prob":0.9178}}}},{"classId":"e_4","part":"s37v1","offsets":[{"start":439,"text":"Canada glacier"}],"coordinates":[],"confidence":{"state":"pre-added","who":["ml:dpeker"],"prob":0.9178},"fields":{},"normalizations":{"n_34":{"source":{"name":"GeoNamesSCAR","id":"123257","url":null},"recName":"Canada Glacier","confidence":{"state":"pre-added","who":["ml:dpeker"],"prob":0.9178}}}},{"classId":"e_4","part":"s37v1","offsets":[{"start":497,"text":"Lake Hoare"}],"coordinates":[],"confidence":{"state":"pre-added","who":["ml:dpeker"],"prob":0.9266},"fields":{},"normalizations":{"n_34":{"source":{"name":"GeoNamesSCAR","id":"126559","url":null},"recName":"Hoare, Lake","confidence":{"state":"pre-added","who":["ml:dpeker"],"prob":0.9266}}}},{"classId":"e_4","part":"s37v1","offsets":[{"start":558,"text":"Canada Glacier"}],"coordinates":[],"confidence":{"state":"pre-added","who":["ml:dpeker"],"prob":0.9518},"fields":{},"normalizations":{"n_34":{"source":{"name":"GeoNamesSCAR","id":"123257","url":null},"recName":"Canada Glacier","confidence":{"state":"pre-added","who":["ml:dpeker"],"prob":0.9518}}}},{"classId":"e_4","part":"s38v1","offsets":[{"start":286,"text":"days"}],"coordinates":[],"confidence":{"state":"pre-added","who":["ml:dpeker"],"prob":0.4836},"fields":{},"normalizations":{"n_34":{"source":{"name":"GeoNamesSCAR","id":"124046","url":null},"recName":"Dais","confidence":{"state":"pre-added","who":["ml:dpeker"],"prob":0.4836}}}},{"classId":"e_4","part":"s38v1","offsets":[{"start":293,"text":"Day"}],"coordinates":[],"confidence":{"state":"pre-added","who":["ml:dpeker"],"prob":0.3413},"fields":{},"normalizations":{"n_34":{"source":{"name":"GeoNamesSCAR","id":"124046","url":null},"recName":"Dais","confidence":{"state":"pre-added","who":["ml:dpeker"],"prob":0.3413}}}},{"classId":"e_4","part":"s38v1","offsets":[{"start":362,"text":"Lake Hoare"}],"coordinates":[],"confidence":{"state":"pre-added","who":["ml:dpeker"],"prob":0.9266},"fields":{},"normalizations":{"n_34":{"source":{"name":"GeoNamesSCAR","id":"126559","url":null},"recName":"Hoare, Lake","confidence":{"state":"pre-added","who":["ml:dpeker"],"prob":0.9266}}}},{"classId":"e_4","part":"s39v1","offsets":[{"start":230,"text":"days"}],"coordinates":[],"confidence":{"state":"pre-added","who":["ml:dpeker"],"prob":0.4836},"fields":{},"normalizations":{"n_34":{"source":{"name":"GeoNamesSCAR","id":"124046","url":null},"recName":"Dais","confidence":{"state":"pre-added","who":["ml:dpeker"],"prob":0.4836}}}},{"classId":"e_4","part":"s39v1","offsets":[{"start":237,"text":"Day"}],"coordinates":[],"confidence":{"state":"pre-added","who":["ml:dpeker"],"prob":0.3413},"fields":{},"normalizations":{"n_34":{"source":{"name":"GeoNamesSCAR","id":"124046","url":null},"recName":"Dais","confidence":{"state":"pre-added","who":["ml:dpeker"],"prob":0.3413}}}},{"classId":"e_4","part":"s39v1","offsets":[{"start":311,"text":"Lake Hoare"}],"coordinates":[],"confidence":{"state":"pre-added","who":["ml:dpeker"],"prob":0.9266},"fields":{},"normalizations":{"n_34":{"source":{"name":"GeoNamesSCAR","id":"126559","url":null},"recName":"Hoare, Lake","confidence":{"state":"pre-added","who":["ml:dpeker"],"prob":0.9266}}}},{"classId":"e_4","part":"s40v1","offsets":[{"start":88,"text":"days"}],"coordinates":[],"confidence":{"state":"pre-added","who":["ml:dpeker"],"prob":0.4836},"fields":{},"normalizations":{"n_34":{"source":{"name":"GeoNamesSCAR","id":"124046","url":null},"recName":"Dais","confidence":{"state":"pre-added","who":["ml:dpeker"],"prob":0.4836}}}},{"classId":"e_4","part":"s40v1","offsets":[{"start":95,"text":"Day"}],"coordinates":[],"confidence":{"state":"pre-added","who":["ml:dpeker"],"prob":0.3413},"fields":{},"normalizations":{"n_34":{"source":{"name":"GeoNamesSCAR","id":"124046","url":null},"recName":"Dais","confidence":{"state":"pre-added","who":["ml:dpeker"],"prob":0.3413}}}},{"classId":"e_4","part":"s41v1","offsets":[{"start":239,"text":"Onyx River"}],"coordinates":[],"confidence":{"state":"pre-added","who":["ml:dpeker"],"prob":0.9266},"fields":{},"normalizations":{"n_34":{"source":{"name":"GeoNamesSCAR","id":"129676","url":null},"recName":"Onyx River","confidence":{"state":"pre-added","who":["ml:dpeker"],"prob":0.9266}}}},{"classId":"e_4","part":"s42v1","offsets":[{"start":331,"text":"Onyx River"}],"coordinates":[],"confidence":{"state":"pre-added","who":["ml:dpeker"],"prob":0.9266},"fields":{},"normalizations":{"n_34":{"source":{"name":"GeoNamesSCAR","id":"129676","url":null},"recName":"Onyx River","confidence":{"state":"pre-added","who":["ml:dpeker"],"prob":0.9266}}}},{"classId":"e_4","part":"s42v1","offsets":[{"start":349,"text":"Wright Valley"}],"coordinates":[],"confidence":{"state":"pre-added","who":["ml:dpeker"],"prob":0.9472},"fields":{},"normalizations":{"n_34":{"source":{"name":"GeoNamesSCAR","id":"133876","url":null},"recName":"Wright Valley","confidence":{"state":"pre-added","who":["ml:dpeker"],"prob":0.9472}}}},{"classId":"e_4","part":"s42v1","offsets":[{"start":1508,"text":"Cape Geology"}],"coordinates":[],"confidence":{"state":"pre-added","who":["ml:dpeker"],"prob":0.9416},"fields":{},"normalizations":{"n_34":{"source":{"name":"GeoNamesSCAR","id":"125618","url":null},"recName":"Geology, Cape","confidence":{"state":"pre-added","who":["ml:dpeker"],"prob":0.9416}}}},{"classId":"e_4","part":"s43v1","offsets":[{"start":132,"text":"Cape Geology"}],"coordinates":[],"confidence":{"state":"pre-added","who":["ml:dpeker"],"prob":0.9416},"fields":{},"normalizations":{"n_34":{"source":{"name":"GeoNamesSCAR","id":"125618","url":null},"recName":"Geology, Cape","confidence":{"state":"pre-added","who":["ml:dpeker"],"prob":0.9416}}}},{"classId":"e_4","part":"s43v1","offsets":[{"start":149,"text":"Botany\n\nBay"}],"coordinates":[],"confidence":{"state":"pre-added","who":["ml:dpeker"],"prob":0.7582},"fields":{},"normalizations":{"n_34":{"source":{"name":"GeoNamesSCAR","id":"112844","url":null},"recName":"Botany Bay","confidence":{"state":"pre-added","who":["ml:dpeker"],"prob":0.7582}}}},{"classId":"e_4","part":"s43v1","offsets":[{"start":182,"text":"Discovery Bluff"}],"coordinates":[],"confidence":{"state":"pre-added","who":["ml:dpeker"],"prob":0.9558},"fields":{},"normalizations":{"n_34":{"source":{"name":"GeoNamesSCAR","id":"113154","url":null},"recName":"Discovery Bluff","confidence":{"state":"pre-added","who":["ml:dpeker"],"prob":0.9558}}}},{"classId":"e_4","part":"s43v1","offsets":[{"start":199,"text":"Wilson Piedmont Glacier"}],"coordinates":[],"confidence":{"state":"pre-added","who":["ml:dpeker"],"prob":0.9741},"fields":{},"normalizations":{"n_34":{"source":{"name":"GeoNamesSCAR","id":"133762","url":null},"recName":"Wilson Piedmont Glacier","confidence":{"state":"pre-added","who":["ml:dpeker"],"prob":0.9741}}}},{"classId":"e_4","part":"s44v1","offsets":[{"start":101,"text":"Botany Bay"}],"coordinates":[],"confidence":{"state":"pre-added","who":["ml:dpeker"],"prob":0.9266},"fields":{},"normalizations":{"n_34":{"source":{"name":"GeoNamesSCAR","id":"112844","url":null},"recName":"Botany Bay","confidence":{"state":"pre-added","who":["ml:dpeker"],"prob":0.9266}}}},{"classId":"e_4","part":"s44v1","offsets":[{"start":386,"text":"Cape\n\nGeology"}],"coordinates":[],"confidence":{"state":"pre-added","who":["ml:dpeker"],"prob":0.7967},"fields":{},"normalizations":{"n_34":{"source":{"name":"GeoNamesSCAR","id":"125618","url":null},"recName":"Geology, Cape","confidence":{"state":"pre-added","who":["ml:dpeker"],"prob":0.7967}}}},{"classId":"e_4","part":"s44v1","offsets":[{"start":404,"text":"Botany Bay"}],"coordinates":[],"confidence":{"state":"pre-added","who":["ml:dpeker"],"prob":0.9266},"fields":{},"normalizations":{"n_34":{"source":{"name":"GeoNamesSCAR","id":"112844","url":null},"recName":"Botany Bay","confidence":{"state":"pre-added","who":["ml:dpeker"],"prob":0.9266}}}},{"classId":"e_4","part":"s44v1","offsets":[{"start":516,"text":"Wilson-Piedmont glacier"}],"coordinates":[],"confidence":{"state":"pre-added","who":["ml:dpeker"],"prob":0.9106},"fields":{},"normalizations":{"n_34":{"source":{"name":"GeoNamesSCAR","id":"133762","url":null},"recName":"Wilson Piedmont Glacier","confidence":{"state":"pre-added","who":["ml:dpeker"],"prob":0.9106}}}},{"classId":"e_4","part":"s44v1","offsets":[{"start":837,"text":"Canada\n\nGlacier"}],"coordinates":[],"confidence":{"state":"pre-added","who":["ml:dpeker"],"prob":0.8249},"fields":{},"normalizations":{"n_34":{"source":{"name":"GeoNamesSCAR","id":"123257","url":null},"recName":"Canada Glacier","confidence":{"state":"pre-added","who":["ml:dpeker"],"prob":0.8249}}}},{"classId":"e_4","part":"s44v1","offsets":[{"start":947,"text":"Cape Geology"}],"coordinates":[],"confidence":{"state":"pre-added","who":["ml:dpeker"],"prob":0.9416},"fields":{},"normalizations":{"n_34":{"source":{"name":"GeoNamesSCAR","id":"125618","url":null},"recName":"Geology, Cape","confidence":{"state":"pre-added","who":["ml:dpeker"],"prob":0.9416}}}},{"classId":"e_4","part":"s44v1","offsets":[{"start":1146,"text":"Botany Bay"}],"coordinates":[],"confidence":{"state":"pre-added","who":["ml:dpeker"],"prob":0.9266},"fields":{},"normalizations":{"n_34":{"source":{"name":"GeoNamesSCAR","id":"112844","url":null},"recName":"Botany Bay","confidence":{"state":"pre-added","who":["ml:dpeker"],"prob":0.9266}}}},{"classId":"e_1","part":"s44v1","offsets":[{"start":1503,"text":"Bryum argenteum"}],"coordinates":[],"confidence":{"state":"pre-added","who":["ml:dpeker"],"prob":0.9558},"fields":{},"normalizations":{"n_32":{"source":{"name":"MossNames","id":"brarge","url":null},"recName":"Bryum argenteum","confidence":{"state":"pre-added","who":["ml:dpeker"],"prob":0.9558}}}},{"classId":"e_1","part":"s44v1","offsets":[{"start":1528,"text":"B. antarcticum"}],"coordinates":[],"confidence":{"state":"pre-added","who":["ml:dpeker"],"prob":0.9518},"fields":{},"normalizations":{"n_32":{"source":{"name":"MossNames","id":"branta","url":null},"recName":"B. antarcticum","confidence":{"state":"pre-added","who":["ml:dpeker"],"prob":0.9518}}}},{"classId":"e_1","part":"s44v1","offsets":[{"start":1560,"text":"Sarconeurum glaciale"}],"coordinates":[],"confidence":{"state":"pre-added","who":["ml:dpeker"],"prob":0.9692},"fields":{},"normalizations":{"n_32":{"source":{"name":"MossNames","id":"sysarc","url":null},"recName":"Syntrichia sarconeurum","confidence":{"state":"pre-added","who":["ml:dpeker"],"prob":0.9692}}}},{"classId":"e_7","part":"s46v1","offsets":[{"start":4,"text":"Lecanora"}],"coordinates":[],"confidence":{"state":"pre-added","who":["ml:dpeker"],"prob":0.9031},"fields":{},"normalizations":{"n_31":{"source":{"name":"LichenNames","id":"lecasp","url":null},"recName":"Lecanora sp.","confidence":{"state":"pre-added","who":["ml:dpeker"],"prob":0.9031}}}},{"classId":"e_7","part":"s46v1","offsets":[{"start":51,"text":"Usnea antarctica"}],"coordinates":[],"confidence":{"state":"pre-added","who":["ml:dpeker"],"prob":0.9592},"fields":{},"normalizations":{"n_31":{"source":{"name":"LichenNames","id":"usanta","url":null},"recName":"Usnea antarctica","confidence":{"state":"pre-added","who":["ml:dpeker"],"prob":0.9592}}}},{"classId":"e_41","part":"s46v1","offsets":[{"start":118,"text":"Nostoc"}],"coordinates":[],"confidence":{"state":"pre-added","who":["ml:dpeker"],"prob":0.8617},"fields":{},"normalizations":{"n_55":{"source":{"name":"CyanobacteriaNames","id":"nostsp","url":null},"recName":"Nostoc","confidence":{"state":"pre-added","who":["ml:dpeker"],"prob":0.8617}}}},{"classId":"e_4","part":"s46v1","offsets":[{"start":421,"text":"Kar Plateau"}],"coordinates":[],"confidence":{"state":"pre-added","who":["ml:dpeker"],"prob":0.9349},"fields":{},"normalizations":{"n_34":{"source":{"name":"GeoNamesSCAR","id":"127253","url":null},"recName":"Kar Plateau","confidence":{"state":"pre-added","who":["ml:dpeker"],"prob":0.9349}}}},{"classId":"e_4","part":"s46v1","offsets":[{"start":682,"text":"Kar Plateau"}],"coordinates":[],"confidence":{"state":"pre-added","who":["ml:dpeker"],"prob":0.9349},"fields":{},"normalizations":{"n_34":{"source":{"name":"GeoNamesSCAR","id":"127253","url":null},"recName":"Kar Plateau","confidence":{"state":"pre-added","who":["ml:dpeker"],"prob":0.9349}}}},{"classId":"e_4","part":"s47v1","offsets":[{"start":47,"text":"Canada Glacier"}],"coordinates":[],"confidence":{"state":"pre-added","who":["ml:dpeker"],"prob":0.9518},"fields":{},"normalizations":{"n_34":{"source":{"name":"GeoNamesSCAR","id":"123257","url":null},"recName":"Canada Glacier","confidence":{"state":"pre-added","who":["ml:dpeker"],"prob":0.9518}}}},{"classId":"e_1","part":"s47v1","offsets":[{"start":1135,"text":"Bryum argenteum"}],"coordinates":[],"confidence":{"state":"pre-added","who":["ml:dpeker"],"prob":0.9558},"fields":{},"normalizations":{"n_32":{"source":{"name":"MossNames","id":"brarge","url":null},"recName":"Bryum argenteum","confidence":{"state":"pre-added","who":["ml:dpeker"],"prob":0.9558}}}},{"classId":"e_4","part":"s49v1","offsets":[{"start":34,"text":"days"}],"coordinates":[],"confidence":{"state":"pre-added","who":["ml:dpeker"],"prob":0.4836},"fields":{},"normalizations":{"n_34":{"source":{"name":"GeoNamesSCAR","id":"124046","url":null},"recName":"Dais","confidence":{"state":"pre-added","who":["ml:dpeker"],"prob":0.4836}}}},{"classId":"e_4","part":"s49v1","offsets":[{"start":775,"text":"Canada Glacier"}],"coordinates":[],"confidence":{"state":"pre-added","who":["ml:dpeker"],"prob":0.9518},"fields":{},"normalizations":{"n_34":{"source":{"name":"GeoNamesSCAR","id":"123257","url":null},"recName":"Canada Glacier","confidence":{"state":"pre-added","who":["ml:dpeker"],"prob":0.9518}}}},{"classId":"e_1","part":"s49v1","offsets":[{"start":818,"text":"Bryum argenteum"}],"coordinates":[],"confidence":{"state":"pre-added","who":["ml:dpeker"],"prob":0.9558},"fields":{},"normalizations":{"n_32":{"source":{"name":"MossNames","id":"brarge","url":null},"recName":"Bryum argenteum","confidence":{"state":"pre-added","who":["ml:dpeker"],"prob":0.9558}}}},{"classId":"e_1","part":"s49v1","offsets":[{"start":838,"text":"Bryum antarcticum"}],"coordinates":[{"x":"231.72","y":"481.98"},{"x":"344.57","y":"489.57"}],"confidence":{"state":"pre-added","who":["user:ICTAR"],"prob":1},"fields":{},"normalizations":{"n_32":{"source":{"name":"MossNames","id":"branta","url":null},"recName":"","confidence":{"state":"pre-added","who":["user:ICTAR"],"prob":1}}}},{"classId":"e_1","part":"s51v1","offsets":[{"start":201,"text":"B. argenteum"}],"coordinates":[],"confidence":{"state":"pre-added","who":["ml:dpeker"],"prob":0.9416},"fields":{},"normalizations":{"n_32":{"source":{"name":"MossNames","id":"brarge","url":null},"recName":"Bryum argenteum","confidence":{"state":"pre-added","who":["ml:dpeker"],"prob":0.9416}}}},{"classId":"e_41","part":"s51v1","offsets":[{"start":218,"text":"Nostoc"}],"coordinates":[],"confidence":{"state":"pre-added","who":["ml:dpeker"],"prob":0.8617},"fields":{},"normalizations":{"n_55":{"source":{"name":"CyanobacteriaNames","id":"nostsp","url":null},"recName":"Nostoc","confidence":{"state":"pre-added","who":["ml:dpeker"],"prob":0.8617}}}},{"classId":"e_4","part":"s54v1","offsets":[{"start":610,"text":"days\n\n("}],"coordinates":[],"confidence":{"state":"pre-added","who":["ml:dpeker"],"prob":0.315},"fields":{},"normalizations":{"n_34":{"source":{"name":"GeoNamesSCAR","id":"124046","url":null},"recName":"Dais","confidence":{"state":"pre-added","who":["ml:dpeker"],"prob":0.315}}}},{"classId":"e_4","part":"s56v1","offsets":[{"start":487,"text":"Botany bay"}],"coordinates":[],"confidence":{"state":"pre-added","who":["ml:dpeker"],"prob":0.8803},"fields":{},"normalizations":{"n_34":{"source":{"name":"GeoNamesSCAR","id":"112844","url":null},"recName":"Botany Bay","confidence":{"state":"pre-added","who":["ml:dpeker"],"prob":0.8803}}}},{"classId":"e_4","part":"s56v1","offsets":[{"start":507,"text":"the Flatiron"}],"coordinates":[],"confidence":{"state":"pre-added","who":["ml:dpeker"],"prob":0.9024},"fields":{},"normalizations":{"n_34":{"source":{"name":"GeoNamesSCAR","id":"125175","url":null},"recName":"Flatiron, The","confidence":{"state":"pre-added","who":["ml:dpeker"],"prob":0.9024}}}},{"classId":"e_4","part":"s56v1","offsets":[{"start":883,"text":"Botany bay"}],"coordinates":[],"confidence":{"state":"pre-added","who":["ml:dpeker"],"prob":0.8803},"fields":{},"normalizations":{"n_34":{"source":{"name":"GeoNamesSCAR","id":"112844","url":null},"recName":"Botany Bay","confidence":{"state":"pre-added","who":["ml:dpeker"],"prob":0.8803}}}},{"classId":"e_4","part":"s57v1","offsets":[{"start":43,"text":"Lake Fryxell"}],"coordinates":[],"confidence":{"state":"pre-added","who":["ml:dpeker"],"prob":0.9416},"fields":{},"normalizations":{"n_34":{"source":{"name":"GeoNamesSCAR","id":"125440","url":null},"recName":"Fryxell, Lake","confidence":{"state":"pre-added","who":["ml:dpeker"],"prob":0.9416}}}},{"classId":"e_4","part":"s57v1","offsets":[{"start":294,"text":"Canada Glacier"}],"coordinates":[],"confidence":{"state":"pre-added","who":["ml:dpeker"],"prob":0.9518},"fields":{},"normalizations":{"n_34":{"source":{"name":"GeoNamesSCAR","id":"123257","url":null},"recName":"Canada Glacier","confidence":{"state":"pre-added","who":["ml:dpeker"],"prob":0.9518}}}},{"classId":"e_4","part":"s57v1","offsets":[{"start":837,"text":"Canada Glacier"}],"coordinates":[],"confidence":{"state":"pre-added","who":["ml:dpeker"],"prob":0.9518},"fields":{},"normalizations":{"n_34":{"source":{"name":"GeoNamesSCAR","id":"123257","url":null},"recName":"Canada Glacier","confidence":{"state":"pre-added","who":["ml:dpeker"],"prob":0.9518}}}},{"classId":"e_4","part":"s58v1","offsets":[{"start":263,"text":"days"}],"coordinates":[],"confidence":{"state":"pre-added","who":["ml:dpeker"],"prob":0.4836},"fields":{},"normalizations":{"n_34":{"source":{"name":"GeoNamesSCAR","id":"124046","url":null},"recName":"Dais","confidence":{"state":"pre-added","who":["ml:dpeker"],"prob":0.4836}}}},{"classId":"e_4","part":"s58v1","offsets":[{"start":270,"text":"Day"}],"coordinates":[],"confidence":{"state":"pre-added","who":["ml:dpeker"],"prob":0.3413},"fields":{},"normalizations":{"n_34":{"source":{"name":"GeoNamesSCAR","id":"124046","url":null},"recName":"Dais","confidence":{"state":"pre-added","who":["ml:dpeker"],"prob":0.3413}}}},{"classId":"e_4","part":"s61v1","offsets":[{"start":198,"text":"days"}],"coordinates":[],"confidence":{"state":"pre-added","who":["ml:dpeker"],"prob":0.4836},"fields":{},"normalizations":{"n_34":{"source":{"name":"GeoNamesSCAR","id":"124046","url":null},"recName":"Dais","confidence":{"state":"pre-added","who":["ml:dpeker"],"prob":0.4836}}}},{"classId":"e_4","part":"s61v1","offsets":[{"start":205,"text":"Day"}],"coordinates":[],"confidence":{"state":"pre-added","who":["ml:dpeker"],"prob":0.3413},"fields":{},"normalizations":{"n_34":{"source":{"name":"GeoNamesSCAR","id":"124046","url":null},"recName":"Dais","confidence":{"state":"pre-added","who":["ml:dpeker"],"prob":0.3413}}}},{"classId":"e_4","part":"s68v1","offsets":[{"start":28,"text":"Lake Fryxell"}],"coordinates":[],"confidence":{"state":"pre-added","who":["ml:dpeker"],"prob":0.9416},"fields":{},"normalizations":{"n_34":{"source":{"name":"GeoNamesSCAR","id":"125440","url":null},"recName":"Fryxell, Lake","confidence":{"state":"pre-added","who":["ml:dpeker"],"prob":0.9416}}}},{"classId":"e_4","part":"s68v1","offsets":[{"start":128,"text":"Canada Glacier"}],"coordinates":[],"confidence":{"state":"pre-added","who":["ml:dpeker"],"prob":0.9518},"fields":{},"normalizations":{"n_34":{"source":{"name":"GeoNamesSCAR","id":"123257","url":null},"recName":"Canada Glacier","confidence":{"state":"pre-added","who":["ml:dpeker"],"prob":0.9518}}}},{"classId":"e_4","part":"s68v1","offsets":[{"start":937,"text":"Fryxell stream"}],"coordinates":[],"confidence":{"state":"pre-added","who":["ml:dpeker"],"prob":0.9178},"fields":{},"normalizations":{"n_52":{"source":{"name":"GeoNamesCustom","id":"CKL008","url":null},"recName":"Fryxell Stream","confidence":{"state":"pre-added","who":["ml:dpeker"],"prob":0.9178}}}},{"classId":"e_4","part":"s68v1","offsets":[{"start":1089,"text":"Canada Glacier"}],"coordinates":[],"confidence":{"state":"pre-added","who":["ml:dpeker"],"prob":0.9518},"fields":{},"normalizations":{"n_34":{"source":{"name":"GeoNamesSCAR","id":"123257","url":null},"recName":"Canada Glacier","confidence":{"state":"pre-added","who":["ml:dpeker"],"prob":0.9518}}}},{"classId":"e_1","part":"s69v1","offsets":[{"start":12,"text":"Bryum argenteum"}],"coordinates":[],"confidence":{"state":"pre-added","who":["ml:dpeker"],"prob":0.9558},"fields":{},"normalizations":{"n_32":{"source":{"name":"MossNames","id":"brarge","url":null},"recName":"Bryum argenteum","confidence":{"state":"pre-added","who":["ml:dpeker"],"prob":0.9558}}}},{"classId":"e_1","part":"s69v1","offsets":[{"start":35,"text":"Bryum pseudotriquetrum"}],"coordinates":[],"confidence":{"state":"pre-added","who":["ml:dpeker"],"prob":0.9726},"fields":{},"normalizations":{"n_32":{"source":{"name":"MossNames","id":"brpseu","url":null},"recName":"Bryum pseudotriquetrum","confidence":{"state":"pre-added","who":["ml:dpeker"],"prob":0.9726}}}},{"classId":"e_1","part":"s69v1","offsets":[{"start":75,"text":"Pottia heimii"}],"coordinates":[{"x":"95.46","y":"312.47"},{"x":"168.64","y":"319.84"}],"confidence":{"state":"pre-added","who":["user:ICTAR"],"prob":1},"fields":{},"normalizations":{"n_32":{"source":{"name":"MossNames","id":"heheim","url":null},"recName":"","confidence":{"state":"pre-added","who":["user:ICTAR"],"prob":1}}}},{"classId":"e_1","part":"s69v1","offsets":[{"start":106,"text":"B. argenteum"}],"coordinates":[],"confidence":{"state":"pre-added","who":["ml:dpeker"],"prob":0.9416},"fields":{},"normalizations":{"n_32":{"source":{"name":"MossNames","id":"brarge","url":null},"recName":"Bryum argenteum","confidence":{"state":"pre-added","who":["ml:dpeker"],"prob":0.9416}}}},{"classId":"e_1","part":"s69v1","offsets":[{"start":700,"text":"B. argenteum"}],"coordinates":[],"confidence":{"state":"pre-added","who":["ml:dpeker"],"prob":0.9416},"fields":{},"normalizations":{"n_32":{"source":{"name":"MossNames","id":"brarge","url":null},"recName":"Bryum argenteum","confidence":{"state":"pre-added","who":["ml:dpeker"],"prob":0.9416}}}},{"classId":"e_1","part":"s69v1","offsets":[{"start":741,"text":"B. pseudotriquetrum"}],"coordinates":[],"confidence":{"state":"pre-added","who":["ml:dpeker"],"prob":0.9671},"fields":{},"normalizations":{"n_32":{"source":{"name":"MossNames","id":"brpseu","url":null},"recName":"Bryum pseudotriquetrum","confidence":{"state":"pre-added","who":["ml:dpeker"],"prob":0.9671}}}},{"classId":"e_1","part":"s69v1","offsets":[{"start":887,"text":"B. pseudotriquetrum"}],"coordinates":[],"confidence":{"state":"pre-added","who":["ml:dpeker"],"prob":0.9671},"fields":{},"normalizations":{"n_32":{"source":{"name":"MossNames","id":"brpseu","url":null},"recName":"Bryum pseudotriquetrum","confidence":{"state":"pre-added","who":["ml:dpeker"],"prob":0.9671}}}},{"classId":"e_1","part":"s70v1","offsets":[{"start":54,"text":"B. antarcticum"}],"coordinates":[],"confidence":{"state":"pre-added","who":["ml:dpeker"],"prob":0.9518},"fields":{},"normalizations":{"n_32":{"source":{"name":"MossNames","id":"branta","url":null},"recName":"B. antarcticum","confidence":{"state":"pre-added","who":["ml:dpeker"],"prob":0.9518}}}},{"classId":"e_4","part":"s70v1","offsets":[{"start":674,"text":"Cape Bird"}],"coordinates":[],"confidence":{"state":"pre-added","who":["ml:dpeker"],"prob":0.9163},"fields":{},"normalizations":{"n_34":{"source":{"name":"GeoNamesSCAR","id":"122545","url":null},"recName":"Bird, Cape","confidence":{"state":"pre-added","who":["ml:dpeker"],"prob":0.9163}}}},{"classId":"e_7","part":"s70v1","offsets":[{"start":1258,"text":"Caloplaca citrina"}],"coordinates":[{"x":"94.91","y":"731.76"},{"x":"191.79","y":"739.24"}],"confidence":{"state":"pre-added","who":["user:ICTAR"],"prob":1},"fields":{},"normalizations":{"n_31":{"source":{"name":"LichenNames","id":"audarb","url":null},"recName":"","confidence":{"state":"pre-added","who":["user:ICTAR"],"prob":1}}}},{"classId":"e_7","part":"s71v1","offsets":[{"start":4,"text":"Carbonea capsulata"}],"coordinates":[{"x":"86.82","y":"87.76"},{"x":"198.07","y":"95.02"}],"confidence":{"state":"pre-added","who":["user:ICTAR"],"prob":1},"fields":{},"normalizations":{"n_31":{"source":{"name":"LichenNames","id":"cacaps","url":null},"recName":"","confidence":{"state":"pre-added","who":["user:ICTAR"],"prob":1}}}},{"classId":"e_7","part":"s71v1","offsets":[{"start":57,"text":"Lecarwra expectans"}],"coordinates":[{"x":"86.67","y":"143.55"},{"x":"195.38","y":"150.81"}],"confidence":{"state":"pre-added","who":["user:ICTAR"],"prob":1},"fields":{},"normalizations":{"n_31":{"source":{"name":"LichenNames","id":"leexpe","url":null},"recName":"","confidence":{"state":"pre-added","who":["user:ICTAR"],"prob":1}}}},{"classId":"e_41","part":"s71v1","offsets":[{"start":543,"text":"Nostoc commune"}],"coordinates":[],"confidence":{"state":"pre-added","who":["ml:dpeker"],"prob":0.9518},"fields":{},"normalizations":{"n_55":{"source":{"name":"CyanobacteriaNames","id":"nocomm","url":null},"recName":"Nostoc commune","confidence":{"state":"pre-added","who":["ml:dpeker"],"prob":0.9518}}}},{"classId":"e_1","part":"s71v1","offsets":[{"start":831,"text":"Bryum argenteum"}],"coordinates":[],"confidence":{"state":"pre-added","who":["ml:dpeker"],"prob":0.9558},"fields":{},"normalizations":{"n_32":{"source":{"name":"MossNames","id":"brarge","url":null},"recName":"Bryum argenteum","confidence":{"state":"pre-added","who":["ml:dpeker"],"prob":0.9558}}}},{"classId":"e_1","part":"s71v1","offsets":[{"start":851,"text":"Pottia Mmii"}],"coordinates":[{"x":"459.24","y":"645.93"},{"x":"523.16","y":"653.19"}],"confidence":{"state":"pre-added","who":["user:ICTAR"],"prob":1},"fields":{},"normalizations":{"n_32":{"source":{"name":"MossNames","id":"heheim","url":null},"recName":"","confidence":{"state":"pre-added","who":["user:ICTAR"],"prob":1}}}},{"classId":"e_41","part":"s71v1","offsets":[{"start":888,"text":"Nostoc"}],"coordinates":[],"confidence":{"state":"pre-added","who":["ml:dpeker"],"prob":0.8617},"fields":{},"normalizations":{"n_55":{"source":{"name":"CyanobacteriaNames","id":"nostsp","url":null},"recName":"Nostoc","confidence":{"state":"pre-added","who":["ml:dpeker"],"prob":0.8617}}}},{"classId":"e_1","part":"s71v1","offsets":[{"start":959,"text":"Bryum argenteum"}],"coordinates":[],"confidence":{"state":"pre-added","who":["ml:dpeker"],"prob":0.9558},"fields":{},"normalizations":{"n_32":{"source":{"name":"MossNames","id":"brarge","url":null},"recName":"Bryum argenteum","confidence":{"state":"pre-added","who":["ml:dpeker"],"prob":0.9558}}}},{"classId":"e_1","part":"s72v1","offsets":[{"start":213,"text":"Bryum argenteum"}],"coordinates":[],"confidence":{"state":"pre-added","who":["ml:dpeker"],"prob":0.9558},"fields":{},"normalizations":{"n_32":{"source":{"name":"MossNames","id":"brarge","url":null},"recName":"Bryum argenteum","confidence":{"state":"pre-added","who":["ml:dpeker"],"prob":0.9558}}}},{"classId":"e_1","part":"s72v1","offsets":[{"start":1062,"text":"Bryum argenteum"}],"coordinates":[],"confidence":{"state":"pre-added","who":["ml:dpeker"],"prob":0.9558},"fields":{},"normalizations":{"n_32":{"source":{"name":"MossNames","id":"brarge","url":null},"recName":"Bryum argenteum","confidence":{"state":"pre-added","who":["ml:dpeker"],"prob":0.9558}}}},{"classId":"e_1","part":"s72v1","offsets":[{"start":1148,"text":"Bryum pseudotriquetrum"}],"coordinates":[],"confidence":{"state":"pre-added","who":["ml:dpeker"],"prob":0.9726},"fields":{},"normalizations":{"n_32":{"source":{"name":"MossNames","id":"brpseu","url":null},"recName":"Bryum pseudotriquetrum","confidence":{"state":"pre-added","who":["ml:dpeker"],"prob":0.9726}}}},{"classId":"e_1","part":"s72v1","offsets":[{"start":1188,"text":"B. argenteum"}],"coordinates":[],"confidence":{"state":"pre-added","who":["ml:dpeker"],"prob":0.9416},"fields":{},"normalizations":{"n_32":{"source":{"name":"MossNames","id":"brarge","url":null},"recName":"Bryum argenteum","confidence":{"state":"pre-added","who":["ml:dpeker"],"prob":0.9416}}}},{"classId":"e_41","part":"s74v1","offsets":[{"start":67,"text":"Nostoc"}],"coordinates":[],"confidence":{"state":"pre-added","who":["ml:dpeker"],"prob":0.8617},"fields":{},"normalizations":{"n_55":{"source":{"name":"CyanobacteriaNames","id":"nostsp","url":null},"recName":"Nostoc","confidence":{"state":"pre-added","who":["ml:dpeker"],"prob":0.8617}}}},{"classId":"e_1","part":"s74v1","offsets":[{"start":85,"text":"Bryum argenteum"}],"coordinates":[],"confidence":{"state":"pre-added","who":["ml:dpeker"],"prob":0.9558},"fields":{},"normalizations":{"n_32":{"source":{"name":"MossNames","id":"brarge","url":null},"recName":"Bryum argenteum","confidence":{"state":"pre-added","who":["ml:dpeker"],"prob":0.9558}}}},{"classId":"e_1","part":"s80v1","offsets":[{"start":479,"text":"B. argenteum"}],"coordinates":[],"confidence":{"state":"pre-added","who":["ml:dpeker"],"prob":0.9416},"fields":{},"normalizations":{"n_32":{"source":{"name":"MossNames","id":"brarge","url":null},"recName":"Bryum argenteum","confidence":{"state":"pre-added","who":["ml:dpeker"],"prob":0.9416}}}},{"classId":"e_41","part":"s80v1","offsets":[{"start":596,"text":"Nostoc"}],"coordinates":[],"confidence":{"state":"pre-added","who":["ml:dpeker"],"prob":0.8617},"fields":{},"normalizations":{"n_55":{"source":{"name":"CyanobacteriaNames","id":"nostsp","url":null},"recName":"Nostoc","confidence":{"state":"pre-added","who":["ml:dpeker"],"prob":0.8617}}}},{"classId":"e_1","part":"s80v1","offsets":[{"start":639,"text":"B. pseudotriquetrum"}],"coordinates":[],"confidence":{"state":"pre-added","who":["ml:dpeker"],"prob":0.9671},"fields":{},"normalizations":{"n_32":{"source":{"name":"MossNames","id":"brpseu","url":null},"recName":"Bryum pseudotriquetrum","confidence":{"state":"pre-added","who":["ml:dpeker"],"prob":0.9671}}}},{"classId":"e_1","part":"s80v1","offsets":[{"start":723,"text":"B. argenteum"}],"coordinates":[],"confidence":{"state":"pre-added","who":["ml:dpeker"],"prob":0.9416},"fields":{},"normalizations":{"n_32":{"source":{"name":"MossNames","id":"brarge","url":null},"recName":"Bryum argenteum","confidence":{"state":"pre-added","who":["ml:dpeker"],"prob":0.9416}}}},{"classId":"e_1","part":"s80v1","offsets":[{"start":802,"text":"B. argenteum"}],"coordinates":[],"confidence":{"state":"pre-added","who":["ml:dpeker"],"prob":0.9416},"fields":{},"normalizations":{"n_32":{"source":{"name":"MossNames","id":"brarge","url":null},"recName":"Bryum argenteum","confidence":{"state":"pre-added","who":["ml:dpeker"],"prob":0.9416}}}},{"classId":"e_41","part":"s80v1","offsets":[{"start":952,"text":"Nostoc"}],"coordinates":[],"confidence":{"state":"pre-added","who":["ml:dpeker"],"prob":0.8617},"fields":{},"normalizations":{"n_55":{"source":{"name":"CyanobacteriaNames","id":"nostsp","url":null},"recName":"Nostoc","confidence":{"state":"pre-added","who":["ml:dpeker"],"prob":0.8617}}}},{"classId":"e_41","part":"s81v1","offsets":[{"start":320,"text":"Nostoc"}],"coordinates":[],"confidence":{"state":"pre-added","who":["ml:dpeker"],"prob":0.8617},"fields":{},"normalizations":{"n_55":{"source":{"name":"CyanobacteriaNames","id":"nostsp","url":null},"recName":"Nostoc","confidence":{"state":"pre-added","who":["ml:dpeker"],"prob":0.8617}}}},{"classId":"e_1","part":"s81v1","offsets":[{"start":332,"text":"Bryum argenteum"}],"coordinates":[],"confidence":{"state":"pre-added","who":["ml:dpeker"],"prob":0.9558},"fields":{},"normalizations":{"n_32":{"source":{"name":"MossNames","id":"brarge","url":null},"recName":"Bryum argenteum","confidence":{"state":"pre-added","who":["ml:dpeker"],"prob":0.9558}}}},{"classId":"e_41","part":"s81v1","offsets":[{"start":377,"text":"Nostoc"}],"coordinates":[],"confidence":{"state":"pre-added","who":["ml:dpeker"],"prob":0.8617},"fields":{},"normalizations":{"n_55":{"source":{"name":"CyanobacteriaNames","id":"nostsp","url":null},"recName":"Nostoc","confidence":{"state":"pre-added","who":["ml:dpeker"],"prob":0.8617}}}},{"classId":"e_41","part":"s81v1","offsets":[{"start":450,"text":"Nostoc"}],"coordinates":[],"confidence":{"state":"pre-added","who":["ml:dpeker"],"prob":0.8617},"fields":{},"normalizations":{"n_55":{"source":{"name":"CyanobacteriaNames","id":"nostsp","url":null},"recName":"Nostoc","confidence":{"state":"pre-added","who":["ml:dpeker"],"prob":0.8617}}}},{"classId":"e_1","part":"s81v1","offsets":[{"start":460,"text":"B. argenteum"}],"coordinates":[],"confidence":{"state":"pre-added","who":["ml:dpeker"],"prob":0.9416},"fields":{},"normalizations":{"n_32":{"source":{"name":"MossNames","id":"brarge","url":null},"recName":"Bryum argenteum","confidence":{"state":"pre-added","who":["ml:dpeker"],"prob":0.9416}}}},{"classId":"e_1","part":"s81v1","offsets":[{"start":478,"text":"B.pseudotriquetrum\n\n.' \". '\n\n.'\n\n\"\n\n\""}],"coordinates":[],"confidence":{"state":"pre-added","who":["ml:dpeker"],"prob":0.4574},"fields":{},"normalizations":{"n_32":{"source":{"name":"MossNames","id":"brpseu","url":null},"recName":"Bryum pseudotriquetrum","confidence":{"state":"pre-added","who":["ml:dpeker"],"prob":0.4574}}}},{"classId":"e_41","part":"s81v1","offsets":[{"start":550,"text":"Nostoc"}],"coordinates":[],"confidence":{"state":"pre-added","who":["ml:dpeker"],"prob":0.8617},"fields":{},"normalizations":{"n_55":{"source":{"name":"CyanobacteriaNames","id":"nostsp","url":null},"recName":"Nostoc","confidence":{"state":"pre-added","who":["ml:dpeker"],"prob":0.8617}}}},{"classId":"e_1","part":"s81v1","offsets":[{"start":560,"text":"B.pseudotriqUetrum"}],"coordinates":[],"confidence":{"state":"pre-added","who":["ml:dpeker"],"prob":0.8557},"fields":{},"normalizations":{"n_32":{"source":{"name":"MossNames","id":"brpseu","url":null},"recName":"Bryum pseudotriquetrum","confidence":{"state":"pre-added","who":["ml:dpeker"],"prob":0.8557}}}},{"classId":"e_1","part":"s83v1","offsets":[{"start":469,"text":"B.argenteum"}],"coordinates":[],"confidence":{"state":"pre-added","who":["ml:dpeker"],"prob":0.8063},"fields":{},"normalizations":{"n_32":{"source":{"name":"MossNames","id":"brarge","url":null},"recName":"Bryum argenteum","confidence":{"state":"pre-added","who":["ml:dpeker"],"prob":0.8063}}}},{"classId":"e_1","part":"s83v1","offsets":[{"start":512,"text":"B. argenteum"}],"coordinates":[],"confidence":{"state":"pre-added","who":["ml:dpeker"],"prob":0.9416},"fields":{},"normalizations":{"n_32":{"source":{"name":"MossNames","id":"brarge","url":null},"recName":"Bryum argenteum","confidence":{"state":"pre-added","who":["ml:dpeker"],"prob":0.9416}}}},{"classId":"e_41","part":"s83v1","offsets":[{"start":547,"text":"Nostoc"}],"coordinates":[],"confidence":{"state":"pre-added","who":["ml:dpeker"],"prob":0.8617},"fields":{},"normalizations":{"n_55":{"source":{"name":"CyanobacteriaNames","id":"nostsp","url":null},"recName":"Nostoc","confidence":{"state":"pre-added","who":["ml:dpeker"],"prob":0.8617}}}},{"classId":"e_41","part":"s83v1","offsets":[{"start":588,"text":"Nostoc"}],"coordinates":[],"confidence":{"state":"pre-added","who":["ml:dpeker"],"prob":0.8617},"fields":{},"normalizations":{"n_55":{"source":{"name":"CyanobacteriaNames","id":"nostsp","url":null},"recName":"Nostoc","confidence":{"state":"pre-added","who":["ml:dpeker"],"prob":0.8617}}}},{"classId":"e_1","part":"s83v1","offsets":[{"start":646,"text":"B. argenteum"}],"coordinates":[],"confidence":{"state":"pre-added","who":["ml:dpeker"],"prob":0.9416},"fields":{},"normalizations":{"n_32":{"source":{"name":"MossNames","id":"brarge","url":null},"recName":"Bryum argenteum","confidence":{"state":"pre-added","who":["ml:dpeker"],"prob":0.9416}}}},{"classId":"e_41","part":"s83v1","offsets":[{"start":694,"text":"Nostoc"}],"coordinates":[],"confidence":{"state":"pre-added","who":["ml:dpeker"],"prob":0.8617},"fields":{},"normalizations":{"n_55":{"source":{"name":"CyanobacteriaNames","id":"nostsp","url":null},"recName":"Nostoc","confidence":{"state":"pre-added","who":["ml:dpeker"],"prob":0.8617}}}},{"classId":"e_1","part":"s84v1","offsets":[{"start":227,"text":"B~argenteum"}],"coordinates":[],"confidence":{"state":"pre-added","who":["ml:dpeker"],"prob":0.8063},"fields":{},"normalizations":{"n_32":{"source":{"name":"MossNames","id":"brarge","url":null},"recName":"Bryum argenteum","confidence":{"state":"pre-added","who":["ml:dpeker"],"prob":0.8063}}}},{"classId":"e_41","part":"s84v1","offsets":[{"start":242,"text":"Nostoc"}],"coordinates":[],"confidence":{"state":"pre-added","who":["ml:dpeker"],"prob":0.8617},"fields":{},"normalizations":{"n_55":{"source":{"name":"CyanobacteriaNames","id":"nostsp","url":null},"recName":"Nostoc","confidence":{"state":"pre-added","who":["ml:dpeker"],"prob":0.8617}}}},{"classId":"e_1","part":"s85v1","offsets":[{"start":412,"text":"B. argenteum"}],"coordinates":[],"confidence":{"state":"pre-added","who":["ml:dpeker"],"prob":0.9416},"fields":{},"normalizations":{"n_32":{"source":{"name":"MossNames","id":"brarge","url":null},"recName":"Bryum argenteum","confidence":{"state":"pre-added","who":["ml:dpeker"],"prob":0.9416}}}},{"classId":"e_41","part":"s85v1","offsets":[{"start":461,"text":"Nostoc"}],"coordinates":[],"confidence":{"state":"pre-added","who":["ml:dpeker"],"prob":0.8617},"fields":{},"normalizations":{"n_55":{"source":{"name":"CyanobacteriaNames","id":"nostsp","url":null},"recName":"Nostoc","confidence":{"state":"pre-added","who":["ml:dpeker"],"prob":0.8617}}}},{"classId":"e_1","part":"s85v1","offsets":[{"start":472,"text":"B. argenteum"}],"coordinates":[],"confidence":{"state":"pre-added","who":["ml:dpeker"],"prob":0.9416},"fields":{},"normalizations":{"n_32":{"source":{"name":"MossNames","id":"brarge","url":null},"recName":"Bryum argenteum","confidence":{"state":"pre-added","who":["ml:dpeker"],"prob":0.9416}}}},{"classId":"e_41","part":"s85v1","offsets":[{"start":588,"text":"Nostoc"}],"coordinates":[],"confidence":{"state":"pre-added","who":["ml:dpeker"],"prob":0.8617},"fields":{},"normalizations":{"n_55":{"source":{"name":"CyanobacteriaNames","id":"nostsp","url":null},"recName":"Nostoc","confidence":{"state":"pre-added","who":["ml:dpeker"],"prob":0.8617}}}},{"classId":"e_1","part":"s85v1","offsets":[{"start":645,"text":"B. argenteum"}],"coordinates":[],"confidence":{"state":"pre-added","who":["ml:dpeker"],"prob":0.9416},"fields":{},"normalizations":{"n_32":{"source":{"name":"MossNames","id":"brarge","url":null},"recName":"Bryum argenteum","confidence":{"state":"pre-added","who":["ml:dpeker"],"prob":0.9416}}}},{"classId":"e_41","part":"s85v1","offsets":[{"start":825,"text":"Nostoc"}],"coordinates":[],"confidence":{"state":"pre-added","who":["ml:dpeker"],"prob":0.8617},"fields":{},"normalizations":{"n_55":{"source":{"name":"CyanobacteriaNames","id":"nostsp","url":null},"recName":"Nostoc","confidence":{"state":"pre-added","who":["ml:dpeker"],"prob":0.8617}}}},{"classId":"e_41","part":"s85v1","offsets":[{"start":952,"text":"Nostoc"}],"coordinates":[],"confidence":{"state":"pre-added","who":["ml:dpeker"],"prob":0.8617},"fields":{},"normalizations":{"n_55":{"source":{"name":"CyanobacteriaNames","id":"nostsp","url":null},"recName":"Nostoc","confidence":{"state":"pre-added","who":["ml:dpeker"],"prob":0.8617}}}},{"classId":"e_1","part":"s86v1","offsets":[{"start":440,"text":"Bryum argenteum"}],"coordinates":[],"confidence":{"state":"pre-added","who":["ml:dpeker"],"prob":0.9558},"fields":{},"normalizations":{"n_32":{"source":{"name":"MossNames","id":"brarge","url":null},"recName":"Bryum argenteum","confidence":{"state":"pre-added","who":["ml:dpeker"],"prob":0.9558}}}},{"classId":"e_41","part":"s86v1","offsets":[{"start":456,"text":"Nostoc"}],"coordinates":[],"confidence":{"state":"pre-added","who":["ml:dpeker"],"prob":0.8617},"fields":{},"normalizations":{"n_55":{"source":{"name":"CyanobacteriaNames","id":"nostsp","url":null},"recName":"Nostoc","confidence":{"state":"pre-added","who":["ml:dpeker"],"prob":0.8617}}}},{"classId":"e_41","part":"s87v1","offsets":[{"start":264,"text":"Nostoc"}],"coordinates":[],"confidence":{"state":"pre-added","who":["ml:dpeker"],"prob":0.8617},"fields":{},"normalizations":{"n_55":{"source":{"name":"CyanobacteriaNames","id":"nostsp","url":null},"recName":"Nostoc","confidence":{"state":"pre-added","who":["ml:dpeker"],"prob":0.8617}}}},{"classId":"e_41","part":"s87v1","offsets":[{"start":395,"text":"Nostoc"}],"coordinates":[],"confidence":{"state":"pre-added","who":["ml:dpeker"],"prob":0.8617},"fields":{},"normalizations":{"n_55":{"source":{"name":"CyanobacteriaNames","id":"nostsp","url":null},"recName":"Nostoc","confidence":{"state":"pre-added","who":["ml:dpeker"],"prob":0.8617}}}},{"classId":"e_41","part":"s87v1","offsets":[{"start":504,"text":"Nostoc"}],"coordinates":[],"confidence":{"state":"pre-added","who":["ml:dpeker"],"prob":0.8617},"fields":{},"normalizations":{"n_55":{"source":{"name":"CyanobacteriaNames","id":"nostsp","url":null},"recName":"Nostoc","confidence":{"state":"pre-added","who":["ml:dpeker"],"prob":0.8617}}}},{"classId":"e_41","part":"s87v1","offsets":[{"start":641,"text":"Nostoc"}],"coordinates":[],"confidence":{"state":"pre-added","who":["ml:dpeker"],"prob":0.8617},"fields":{},"normalizations":{"n_55":{"source":{"name":"CyanobacteriaNames","id":"nostsp","url":null},"recName":"Nostoc","confidence":{"state":"pre-added","who":["ml:dpeker"],"prob":0.8617}}}},{"classId":"e_4","part":"s87v1","offsets":[{"start":1342,"text":"Canada Glacier"}],"coordinates":[],"confidence":{"state":"pre-added","who":["ml:dpeker"],"prob":0.9518},"fields":{},"normalizations":{"n_34":{"source":{"name":"GeoNamesSCAR","id":"123257","url":null},"recName":"Canada Glacier","confidence":{"state":"pre-added","who":["ml:dpeker"],"prob":0.9518}}}},{"classId":"e_4","part":"s88v1","offsets":[{"start":57,"text":"Fryxell~\n\nStream\n\n/"}],"coordinates":[],"confidence":{"state":"pre-added","who":["ml:dpeker"],"prob":0.6863},"fields":{},"normalizations":{"n_52":{"source":{"name":"GeoNamesCustom","id":"CKL008","url":null},"recName":"Fryxell Stream","confidence":{"state":"pre-added","who":["ml:dpeker"],"prob":0.6863}}}},{"classId":"e_41","part":"s88v1","offsets":[{"start":125,"text":"Nostoc"}],"coordinates":[],"confidence":{"state":"pre-added","who":["ml:dpeker"],"prob":0.8617},"fields":{},"normalizations":{"n_55":{"source":{"name":"CyanobacteriaNames","id":"nostsp","url":null},"recName":"Nostoc","confidence":{"state":"pre-added","who":["ml:dpeker"],"prob":0.8617}}}},{"classId":"e_41","part":"s88v1","offsets":[{"start":154,"text":"Nostoc"}],"coordinates":[],"confidence":{"state":"pre-added","who":["ml:dpeker"],"prob":0.8617},"fields":{},"normalizations":{"n_55":{"source":{"name":"CyanobacteriaNames","id":"nostsp","url":null},"recName":"Nostoc","confidence":{"state":"pre-added","who":["ml:dpeker"],"prob":0.8617}}}},{"classId":"e_4","part":"s89v1","offsets":[{"start":34,"text":"Canada Glacier"}],"coordinates":[],"confidence":{"state":"pre-added","who":["ml:dpeker"],"prob":0.9518},"fields":{},"normalizations":{"n_34":{"source":{"name":"GeoNamesSCAR","id":"123257","url":null},"recName":"Canada Glacier","confidence":{"state":"pre-added","who":["ml:dpeker"],"prob":0.9518}}}},{"classId":"e_4","part":"s89v1","offsets":[{"start":96,"text":"Fryxell Stream"}],"coordinates":[],"confidence":{"state":"pre-added","who":["ml:dpeker"],"prob":0.9518},"fields":{},"normalizations":{"n_52":{"source":{"name":"GeoNamesCustom","id":"CKL008","url":null},"recName":"Fryxell Stream","confidence":{"state":"pre-added","who":["ml:dpeker"],"prob":0.9518}}}},{"classId":"e_4","part":"s89v1","offsets":[{"start":743,"text":"Canada Glacier"}],"coordinates":[],"confidence":{"state":"pre-added","who":["ml:dpeker"],"prob":0.9518},"fields":{},"normalizations":{"n_34":{"source":{"name":"GeoNamesSCAR","id":"123257","url":null},"recName":"Canada Glacier","confidence":{"state":"pre-added","who":["ml:dpeker"],"prob":0.9518}}}},{"classId":"e_41","part":"s90v1","offsets":[{"start":36,"text":"Nostoc"}],"coordinates":[],"confidence":{"state":"pre-added","who":["ml:dpeker"],"prob":0.8617},"fields":{},"normalizations":{"n_55":{"source":{"name":"CyanobacteriaNames","id":"nostsp","url":null},"recName":"Nostoc","confidence":{"state":"pre-added","who":["ml:dpeker"],"prob":0.8617}}}},{"classId":"e_41","part":"s90v1","offsets":[{"start":66,"text":"Nostoc"}],"coordinates":[],"confidence":{"state":"pre-added","who":["ml:dpeker"],"prob":0.8617},"fields":{},"normalizations":{"n_55":{"source":{"name":"CyanobacteriaNames","id":"nostsp","url":null},"recName":"Nostoc","confidence":{"state":"pre-added","who":["ml:dpeker"],"prob":0.8617}}}},{"classId":"e_7","part":"s93v1","offsets":[{"start":254,"text":"Lecanora expectans"}],"coordinates":[],"confidence":{"state":"pre-added","who":["ml:dpeker"],"prob":0.9648},"fields":{},"normalizations":{"n_31":{"source":{"name":"LichenNames","id":"leexpe","url":null},"recName":"Lecanora expectans","confidence":{"state":"pre-added","who":["ml:dpeker"],"prob":0.9648}}}},{"classId":"e_1","part":"s97v1","offsets":[{"start":281,"text":"B. argenteum"}],"coordinates":[],"confidence":{"state":"pre-added","who":["ml:dpeker"],"prob":0.9416},"fields":{},"normalizations":{"n_32":{"source":{"name":"MossNames","id":"brarge","url":null},"recName":"Bryum argenteum","confidence":{"state":"pre-added","who":["ml:dpeker"],"prob":0.9416}}}},{"classId":"e_41","part":"s97v1","offsets":[{"start":567,"text":"Nostoc"}],"coordinates":[],"confidence":{"state":"pre-added","who":["ml:dpeker"],"prob":0.8617},"fields":{},"normalizations":{"n_55":{"source":{"name":"CyanobacteriaNames","id":"nostsp","url":null},"recName":"Nostoc","confidence":{"state":"pre-added","who":["ml:dpeker"],"prob":0.8617}}}},{"classId":"e_1","part":"s97v1","offsets":[{"start":627,"text":"B. argenteum"}],"coordinates":[],"confidence":{"state":"pre-added","who":["ml:dpeker"],"prob":0.9416},"fields":{},"normalizations":{"n_32":{"source":{"name":"MossNames","id":"brarge","url":null},"recName":"Bryum argenteum","confidence":{"state":"pre-added","who":["ml:dpeker"],"prob":0.9416}}}},{"classId":"e_1","part":"s97v1","offsets":[{"start":673,"text":"B. argenteum"}],"coordinates":[],"confidence":{"state":"pre-added","who":["ml:dpeker"],"prob":0.9416},"fields":{},"normalizations":{"n_32":{"source":{"name":"MossNames","id":"brarge","url":null},"recName":"Bryum argenteum","confidence":{"state":"pre-added","who":["ml:dpeker"],"prob":0.9416}}}},{"classId":"e_1","part":"s98v1","offsets":[{"start":539,"text":"B. argenteum"}],"coordinates":[],"confidence":{"state":"pre-added","who":["ml:dpeker"],"prob":0.9416},"fields":{},"normalizations":{"n_32":{"source":{"name":"MossNames","id":"brarge","url":null},"recName":"Bryum argenteum","confidence":{"state":"pre-added","who":["ml:dpeker"],"prob":0.9416}}}},{"classId":"e_41","part":"s98v1","offsets":[{"start":965,"text":"Nostoc"}],"coordinates":[],"confidence":{"state":"pre-added","who":["ml:dpeker"],"prob":0.8617},"fields":{},"normalizations":{"n_55":{"source":{"name":"CyanobacteriaNames","id":"nostsp","url":null},"recName":"Nostoc","confidence":{"state":"pre-added","who":["ml:dpeker"],"prob":0.8617}}}},{"classId":"e_1","part":"s98v1","offsets":[{"start":1123,"text":"B. argenteum"}],"coordinates":[],"confidence":{"state":"pre-added","who":["ml:dpeker"],"prob":0.9416},"fields":{},"normalizations":{"n_32":{"source":{"name":"MossNames","id":"brarge","url":null},"recName":"Bryum argenteum","confidence":{"state":"pre-added","who":["ml:dpeker"],"prob":0.9416}}}},{"classId":"e_1","part":"s98v1","offsets":[{"start":1384,"text":"B. argenteum"}],"coordinates":[],"confidence":{"state":"pre-added","who":["ml:dpeker"],"prob":0.9416},"fields":{},"normalizations":{"n_32":{"source":{"name":"MossNames","id":"brarge","url":null},"recName":"Bryum argenteum","confidence":{"state":"pre-added","who":["ml:dpeker"],"prob":0.9416}}}},{"classId":"e_1","part":"s99v1","offsets":[{"start":237,"text":"B. argenteum"}],"coordinates":[],"confidence":{"state":"pre-added","who":["ml:dpeker"],"prob":0.9416},"fields":{},"normalizations":{"n_32":{"source":{"name":"MossNames","id":"brarge","url":null},"recName":"Bryum argenteum","confidence":{"state":"pre-added","who":["ml:dpeker"],"prob":0.9416}}}},{"classId":"e_1","part":"s99v1","offsets":[{"start":464,"text":"B. argenteum"}],"coordinates":[],"confidence":{"state":"pre-added","who":["ml:dpeker"],"prob":0.9416},"fields":{},"normalizations":{"n_32":{"source":{"name":"MossNames","id":"brarge","url":null},"recName":"Bryum argenteum","confidence":{"state":"pre-added","who":["ml:dpeker"],"prob":0.9416}}}},{"classId":"e_1","part":"s99v1","offsets":[{"start":1151,"text":"B. argenteum"}],"coordinates":[],"confidence":{"state":"pre-added","who":["ml:dpeker"],"prob":0.9416},"fields":{},"normalizations":{"n_32":{"source":{"name":"MossNames","id":"brarge","url":null},"recName":"Bryum argenteum","confidence":{"state":"pre-added","who":["ml:dpeker"],"prob":0.9416}}}},{"classId":"e_1","part":"s99v1","offsets":[{"start":1248,"text":"B. argenteum"}],"coordinates":[],"confidence":{"state":"pre-added","who":["ml:dpeker"],"prob":0.9416},"fields":{},"normalizations":{"n_32":{"source":{"name":"MossNames","id":"brarge","url":null},"recName":"Bryum argenteum","confidence":{"state":"pre-added","who":["ml:dpeker"],"prob":0.9416}}}},{"classId":"e_41","part":"s100v1","offsets":[{"start":154,"text":"Nostoc"}],"coordinates":[],"confidence":{"state":"pre-added","who":["ml:dpeker"],"prob":0.8617},"fields":{},"normalizations":{"n_55":{"source":{"name":"CyanobacteriaNames","id":"nostsp","url":null},"recName":"Nostoc","confidence":{"state":"pre-added","who":["ml:dpeker"],"prob":0.8617}}}},{"classId":"e_1","part":"s100v1","offsets":[{"start":256,"text":"B. argenteum"}],"coordinates":[],"confidence":{"state":"pre-added","who":["ml:dpeker"],"prob":0.9416},"fields":{},"normalizations":{"n_32":{"source":{"name":"MossNames","id":"brarge","url":null},"recName":"Bryum argenteum","confidence":{"state":"pre-added","who":["ml:dpeker"],"prob":0.9416}}}},{"classId":"e_1","part":"s100v1","offsets":[{"start":351,"text":"B. argenteum"}],"coordinates":[],"confidence":{"state":"pre-added","who":["ml:dpeker"],"prob":0.9416},"fields":{},"normalizations":{"n_32":{"source":{"name":"MossNames","id":"brarge","url":null},"recName":"Bryum argenteum","confidence":{"state":"pre-added","who":["ml:dpeker"],"prob":0.9416}}}},{"classId":"e_1","part":"s100v1","offsets":[{"start":1310,"text":"B. argenteum"}],"coordinates":[],"confidence":{"state":"pre-added","who":["ml:dpeker"],"prob":0.9416},"fields":{},"normalizations":{"n_32":{"source":{"name":"MossNames","id":"brarge","url":null},"recName":"Bryum argenteum","confidence":{"state":"pre-added","who":["ml:dpeker"],"prob":0.9416}}}},{"classId":"e_41","part":"s101v1","offsets":[{"start":148,"text":"Nostoc"}],"coordinates":[],"confidence":{"state":"pre-added","who":["ml:dpeker"],"prob":0.8617},"fields":{},"normalizations":{"n_55":{"source":{"name":"CyanobacteriaNames","id":"nostsp","url":null},"recName":"Nostoc","confidence":{"state":"pre-added","who":["ml:dpeker"],"prob":0.8617}}}},{"classId":"e_41","part":"s101v1","offsets":[{"start":231,"text":"Nostoc"}],"coordinates":[],"confidence":{"state":"pre-added","who":["ml:dpeker"],"prob":0.8617},"fields":{},"normalizations":{"n_55":{"source":{"name":"CyanobacteriaNames","id":"nostsp","url":null},"recName":"Nostoc","confidence":{"state":"pre-added","who":["ml:dpeker"],"prob":0.8617}}}},{"classId":"e_41","part":"s101v1","offsets":[{"start":555,"text":"Nostoc"}],"coordinates":[],"confidence":{"state":"pre-added","who":["ml:dpeker"],"prob":0.8617},"fields":{},"normalizations":{"n_55":{"source":{"name":"CyanobacteriaNames","id":"nostsp","url":null},"recName":"Nostoc","confidence":{"state":"pre-added","who":["ml:dpeker"],"prob":0.8617}}}},{"classId":"e_1","part":"s101v1","offsets":[{"start":893,"text":"B.argenteum"}],"coordinates":[],"confidence":{"state":"pre-added","who":["ml:dpeker"],"prob":0.8063},"fields":{},"normalizations":{"n_32":{"source":{"name":"MossNames","id":"brarge","url":null},"recName":"Bryum argenteum","confidence":{"state":"pre-added","who":["ml:dpeker"],"prob":0.8063}}}},{"classId":"e_1","part":"s101v1","offsets":[{"start":931,"text":"B. argenteum"}],"coordinates":[],"confidence":{"state":"pre-added","who":["ml:dpeker"],"prob":0.9416},"fields":{},"normalizations":{"n_32":{"source":{"name":"MossNames","id":"brarge","url":null},"recName":"Bryum argenteum","confidence":{"state":"pre-added","who":["ml:dpeker"],"prob":0.9416}}}},{"classId":"e_41","part":"s101v1","offsets":[{"start":952,"text":"Nostoc"}],"coordinates":[],"confidence":{"state":"pre-added","who":["ml:dpeker"],"prob":0.8617},"fields":{},"normalizations":{"n_55":{"source":{"name":"CyanobacteriaNames","id":"nostsp","url":null},"recName":"Nostoc","confidence":{"state":"pre-added","who":["ml:dpeker"],"prob":0.8617}}}},{"classId":"e_41","part":"s101v1","offsets":[{"start":967,"text":"Nostoc"}],"coordinates":[],"confidence":{"state":"pre-added","who":["ml:dpeker"],"prob":0.8617},"fields":{},"normalizations":{"n_55":{"source":{"name":"CyanobacteriaNames","id":"nostsp","url":null},"recName":"Nostoc","confidence":{"state":"pre-added","who":["ml:dpeker"],"prob":0.8617}}}},{"classId":"e_41","part":"s102v1","offsets":[{"start":172,"text":"Nostoc\n\n~"}],"coordinates":[],"confidence":{"state":"pre-added","who":["ml:dpeker"],"prob":0.6079},"fields":{},"normalizations":{"n_55":{"source":{"name":"CyanobacteriaNames","id":"nostsp","url":null},"recName":"Nostoc","confidence":{"state":"pre-added","who":["ml:dpeker"],"prob":0.6079}}}},{"classId":"e_4","part":"s106v1","offsets":[{"start":30,"text":"Lake Fryxell.S"}],"coordinates":[],"confidence":{"state":"pre-added","who":["ml:dpeker"],"prob":0.8306},"fields":{},"normalizations":{"n_34":{"source":{"name":"GeoNamesSCAR","id":"125440","url":null},"recName":"Fryxell, Lake","confidence":{"state":"pre-added","who":["ml:dpeker"],"prob":0.8306}}}},{"classId":"e_41","part":"s106v1","offsets":[{"start":830,"text":"Nostoc"}],"coordinates":[],"confidence":{"state":"pre-added","who":["ml:dpeker"],"prob":0.8617},"fields":{},"normalizations":{"n_55":{"source":{"name":"CyanobacteriaNames","id":"nostsp","url":null},"recName":"Nostoc","confidence":{"state":"pre-added","who":["ml:dpeker"],"prob":0.8617}}}},{"classId":"e_1","part":"s106v1","offsets":[{"start":854,"text":"B.argenteum"}],"coordinates":[],"confidence":{"state":"pre-added","who":["ml:dpeker"],"prob":0.8063},"fields":{},"normalizations":{"n_32":{"source":{"name":"MossNames","id":"brarge","url":null},"recName":"Bryum argenteum","confidence":{"state":"pre-added","who":["ml:dpeker"],"prob":0.8063}}}},{"classId":"e_1","part":"s106v1","offsets":[{"start":957,"text":"B. argenteum"}],"coordinates":[],"confidence":{"state":"pre-added","who":["ml:dpeker"],"prob":0.9416},"fields":{},"normalizations":{"n_32":{"source":{"name":"MossNames","id":"brarge","url":null},"recName":"Bryum argenteum","confidence":{"state":"pre-added","who":["ml:dpeker"],"prob":0.9416}}}},{"classId":"e_1","part":"s106v1","offsets":[{"start":973,"text":"P. heimii"}],"coordinates":[{"x":"362.06","y":"594.11"},{"x":"412.72","y":"601.54"}],"confidence":{"state":"pre-added","who":["user:ICTAR"],"prob":1},"fields":{},"normalizations":{"n_32":{"source":{"name":"MossNames","id":"heheim","url":null},"recName":"","confidence":{"state":"pre-added","who":["user:ICTAR"],"prob":1}}}},{"classId":"e_1","part":"s107v1","offsets":[{"start":99,"text":"P. heimii"}],"coordinates":[{"x":"276.66","y":"147.42"},{"x":"326.35","y":"154.41"}],"confidence":{"state":"pre-added","who":["user:ICTAR"],"prob":1},"fields":{},"normalizations":{"n_32":{"source":{"name":"MossNames","id":"heheim","url":null},"recName":"","confidence":{"state":"pre-added","who":["user:ICTAR"],"prob":1}}}},{"classId":"e_1","part":"s107v1","offsets":[{"start":156,"text":"P. heimii"}],"coordinates":[{"x":"364.78","y":"202.66"},{"x":"416.50","y":"210.03"}],"confidence":{"state":"pre-added","who":["user:ICTAR"],"prob":1},"fields":{},"normalizations":{"n_32":{"source":{"name":"MossNames","id":"heheim","url":null},"recName":"","confidence":{"state":"pre-added","who":["user:ICTAR"],"prob":1}}}},{"classId":"e_4","part":"s108v1","offsets":[{"start":485,"text":"days"}],"coordinates":[],"confidence":{"state":"pre-added","who":["ml:dpeker"],"prob":0.4836},"fields":{},"normalizations":{"n_34":{"source":{"name":"GeoNamesSCAR","id":"124046","url":null},"recName":"Dais","confidence":{"state":"pre-added","who":["ml:dpeker"],"prob":0.4836}}}},{"classId":"e_4","part":"s108v1","offsets":[{"start":667,"text":"days"}],"coordinates":[],"confidence":{"state":"pre-added","who":["ml:dpeker"],"prob":0.4836},"fields":{},"normalizations":{"n_34":{"source":{"name":"GeoNamesSCAR","id":"124046","url":null},"recName":"Dais","confidence":{"state":"pre-added","who":["ml:dpeker"],"prob":0.4836}}}},{"classId":"e_41","part":"s110v1","offsets":[{"start":954,"text":"Nostoc"}],"coordinates":[],"confidence":{"state":"pre-added","who":["ml:dpeker"],"prob":0.8617},"fields":{},"normalizations":{"n_55":{"source":{"name":"CyanobacteriaNames","id":"nostsp","url":null},"recName":"Nostoc","confidence":{"state":"pre-added","who":["ml:dpeker"],"prob":0.8617}}}},{"classId":"e_1","part":"s110v1","offsets":[{"start":966,"text":"Bryum argenteum"}],"coordinates":[],"confidence":{"state":"pre-added","who":["ml:dpeker"],"prob":0.9558},"fields":{},"normalizations":{"n_32":{"source":{"name":"MossNames","id":"brarge","url":null},"recName":"Bryum argenteum","confidence":{"state":"pre-added","who":["ml:dpeker"],"prob":0.9558}}}},{"classId":"e_4","part":"s111v1","offsets":[{"start":64,"text":"Canada\n\nGlacier"}],"coordinates":[],"confidence":{"state":"pre-added","who":["ml:dpeker"],"prob":0.8249},"fields":{},"normalizations":{"n_34":{"source":{"name":"GeoNamesSCAR","id":"123257","url":null},"recName":"Canada Glacier","confidence":{"state":"pre-added","who":["ml:dpeker"],"prob":0.8249}}}},{"classId":"e_4","part":"s112v1","offsets":[{"start":48,"text":"Taylor Valley"}],"coordinates":[],"confidence":{"state":"pre-added","who":["ml:dpeker"],"prob":0.9472},"fields":{},"normalizations":{"n_34":{"source":{"name":"GeoNamesSCAR","id":"132512","url":null},"recName":"Taylor Valley","confidence":{"state":"pre-added","who":["ml:dpeker"],"prob":0.9472}}}},{"classId":"e_4","part":"s112v1","offsets":[{"start":287,"text":"days"}],"coordinates":[],"confidence":{"state":"pre-added","who":["ml:dpeker"],"prob":0.4836},"fields":{},"normalizations":{"n_34":{"source":{"name":"GeoNamesSCAR","id":"124046","url":null},"recName":"Dais","confidence":{"state":"pre-added","who":["ml:dpeker"],"prob":0.4836}}}},{"classId":"e_4","part":"s112v1","offsets":[{"start":670,"text":"Taylor Valley"}],"coordinates":[],"confidence":{"state":"pre-added","who":["ml:dpeker"],"prob":0.9472},"fields":{},"normalizations":{"n_34":{"source":{"name":"GeoNamesSCAR","id":"132512","url":null},"recName":"Taylor Valley","confidence":{"state":"pre-added","who":["ml:dpeker"],"prob":0.9472}}}},{"classId":"e_4","part":"s112v1","offsets":[{"start":705,"text":"Lake Fryxell"}],"coordinates":[],"confidence":{"state":"pre-added","who":["ml:dpeker"],"prob":0.9416},"fields":{},"normalizations":{"n_34":{"source":{"name":"GeoNamesSCAR","id":"125440","url":null},"recName":"Fryxell, Lake","confidence":{"state":"pre-added","who":["ml:dpeker"],"prob":0.9416}}}},{"classId":"e_4","part":"s114v1","offsets":[{"start":41,"text":"Canada Glacier"}],"coordinates":[],"confidence":{"state":"pre-added","who":["ml:dpeker"],"prob":0.9518},"fields":{},"normalizations":{"n_34":{"source":{"name":"GeoNamesSCAR","id":"123257","url":null},"recName":"Canada Glacier","confidence":{"state":"pre-added","who":["ml:dpeker"],"prob":0.9518}}}},{"classId":"e_49","part":"s114v1","offsets":[{"start":189,"text":"Philodina"}],"coordinates":[{"x":"272.22","y":"282.50"},{"x":"326.86","y":"289.60"}],"confidence":{"state":"pre-added","who":["user:ICTAR"],"prob":1},"fields":{},"normalizations":{"n_53":{"source":{"name":"RotiferNames","id":"philsp","url":null},"recName":"","confidence":{"state":"pre-added","who":["user:ICTAR"],"prob":1}}}},{"classId":"e_49","part":"s114v1","offsets":[{"start":199,"text":"Epiphanes"}],"coordinates":[{"x":"272.03","y":"296.54"},{"x":"330.76","y":"303.64"}],"confidence":{"state":"pre-added","who":["user:ICTAR"],"prob":1},"fields":{},"normalizations":{"n_53":{"source":{"name":"RotiferNames","id":"epipsp","url":null},"recName":"","confidence":{"state":"pre-added","who":["user:ICTAR"],"prob":1}}}},{"classId":"e_49","part":"s114v1","offsets":[{"start":209,"text":"Habrotrocha"}],"coordinates":[{"x":"272.05","y":"310.76"},{"x":"342.02","y":"317.86"}],"confidence":{"state":"pre-added","who":["user:ICTAR"],"prob":1},"fields":{},"normalizations":{"n_53":{"source":{"name":"RotiferNames","id":"habrsp","url":null},"recName":"","confidence":{"state":"pre-added","who":["user:ICTAR"],"prob":1}}}},{"classId":"e_2","part":"s114v1","offsets":[{"start":222,"text":"Plectus"}],"coordinates":[],"confidence":{"state":"pre-added","who":["ml:dpeker"],"prob":0.8856},"fields":{},"normalizations":{"n_33":{"source":{"name":"NematodeNames","id":"plecsp","url":null},"recName":"Plectus spp.","confidence":{"state":"pre-added","who":["ml:dpeker"],"prob":0.8856}}}},{"classId":"e_48","part":"s114v1","offsets":[{"start":231,"text":"Macrobiotus"}],"coordinates":[{"x":"272.97","y":"366.74"},{"x":"340.90","y":"373.84"}],"confidence":{"state":"pre-added","who":["user:ICTAR"],"prob":1},"fields":{},"normalizations":{"n_51":{"source":{"name":"TardigradeNames","id":"macrsp","url":null},"recName":"","confidence":{"state":"pre-added","who":["user:ICTAR"],"prob":1}}}},{"classId":"e_38","part":"s114v1","offsets":[{"start":244,"text":"Stereotydeus molUs"}],"coordinates":[{"x":"273.17","y":"394.48"},{"x":"307.22","y":"415.80"}],"confidence":{"state":"pre-added","who":["user:ICTAR"],"prob":1},"fields":{},"normalizations":{"n_43":{"source":{"name":"MiteNames","id":"stmoll","url":null},"recName":"","confidence":{"state":"pre-added","who":["user:ICTAR"],"prob":1}}}},{"classId":"e_4","part":"s116v1","offsets":[{"start":984,"text":"days"}],"coordinates":[],"confidence":{"state":"pre-added","who":["ml:dpeker"],"prob":0.4836},"fields":{},"normalizations":{"n_34":{"source":{"name":"GeoNamesSCAR","id":"124046","url":null},"recName":"Dais","confidence":{"state":"pre-added","who":["ml:dpeker"],"prob":0.4836}}}},{"classId":"e_4","part":"s122v1","offsets":[{"start":58,"text":"Kar plateau"}],"coordinates":[],"confidence":{"state":"pre-added","who":["ml:dpeker"],"prob":0.8924},"fields":{},"normalizations":{"n_34":{"source":{"name":"GeoNamesSCAR","id":"127253","url":null},"recName":"Kar Plateau","confidence":{"state":"pre-added","who":["ml:dpeker"],"prob":0.8924}}}},{"classId":"e_4","part":"s122v1","offsets":[{"start":307,"text":"Kar plateau"}],"coordinates":[],"confidence":{"state":"pre-added","who":["ml:dpeker"],"prob":0.8924},"fields":{},"normalizations":{"n_34":{"source":{"name":"GeoNamesSCAR","id":"127253","url":null},"recName":"Kar Plateau","confidence":{"state":"pre-added","who":["ml:dpeker"],"prob":0.8924}}}},{"classId":"e_4","part":"s122v1","offsets":[{"start":439,"text":"Kar plateau"}],"coordinates":[],"confidence":{"state":"pre-added","who":["ml:dpeker"],"prob":0.8924},"fields":{},"normalizations":{"n_34":{"source":{"name":"GeoNamesSCAR","id":"127253","url":null},"recName":"Kar Plateau","confidence":{"state":"pre-added","who":["ml:dpeker"],"prob":0.8924}}}},{"classId":"e_4","part":"s123v1","offsets":[{"start":146,"text":"Taylor Valley"}],"coordinates":[],"confidence":{"state":"pre-added","who":["ml:dpeker"],"prob":0.9472},"fields":{},"normalizations":{"n_34":{"source":{"name":"GeoNamesSCAR","id":"132512","url":null},"recName":"Taylor Valley","confidence":{"state":"pre-added","who":["ml:dpeker"],"prob":0.9472}}}},{"classId":"e_4","part":"s123v1","offsets":[{"start":214,"text":"days"}],"coordinates":[],"confidence":{"state":"pre-added","who":["ml:dpeker"],"prob":0.4836},"fields":{},"normalizations":{"n_34":{"source":{"name":"GeoNamesSCAR","id":"124046","url":null},"recName":"Dais","confidence":{"state":"pre-added","who":["ml:dpeker"],"prob":0.4836}}}},{"classId":"e_4","part":"s123v1","offsets":[{"start":620,"text":"Botany Bay"}],"coordinates":[],"confidence":{"state":"pre-added","who":["ml:dpeker"],"prob":0.9266},"fields":{},"normalizations":{"n_34":{"source":{"name":"GeoNamesSCAR","id":"112844","url":null},"recName":"Botany Bay","confidence":{"state":"pre-added","who":["ml:dpeker"],"prob":0.9266}}}},{"classId":"e_4","part":"s123v1","offsets":[{"start":953,"text":"the amphitheatre"}],"coordinates":[],"confidence":{"state":"pre-added","who":["ml:dpeker"],"prob":0.8993},"fields":{},"normalizations":{"n_34":{"source":{"name":"GeoNamesSCAR","id":"112646","url":null},"recName":"Amphitheatre, The","confidence":{"state":"pre-added","who":["ml:dpeker"],"prob":0.8993}}}},{"classId":"e_4","part":"s124v1","offsets":[{"start":56,"text":"Cape Geology"}],"coordinates":[],"confidence":{"state":"pre-added","who":["ml:dpeker"],"prob":0.9416},"fields":{},"normalizations":{"n_34":{"source":{"name":"GeoNamesSCAR","id":"125618","url":null},"recName":"Geology, Cape","confidence":{"state":"pre-added","who":["ml:dpeker"],"prob":0.9416}}}},{"classId":"e_4","part":"s125v1","offsets":[{"start":36,"text":"Granite Harbour"}],"coordinates":[{"x":"273.96","y":"229.62"},{"x":"368.16","y":"237.04"}],"confidence":{"state":"pre-added","who":["user:ICTAR"],"prob":1},"fields":{},"normalizations":{"n_34":{"source":{"name":"GeoNamesSCAR","id":"125876","url":null},"recName":"","confidence":{"state":"pre-added","who":["user:ICTAR"],"prob":1}}}},{"classId":"e_41","part":"s125v1","offsets":[{"start":59,"text":"Nostoc"}],"coordinates":[],"confidence":{"state":"pre-added","who":["ml:dpeker"],"prob":0.8617},"fields":{},"normalizations":{"n_55":{"source":{"name":"CyanobacteriaNames","id":"nostsp","url":null},"recName":"Nostoc","confidence":{"state":"pre-added","who":["ml:dpeker"],"prob":0.8617}}}},{"classId":"e_40","part":"s125v1","offsets":[{"start":67,"text":"Prasiola crispa"}],"coordinates":[],"confidence":{"state":"pre-added","who":["ml:dpeker"],"prob":0.9558},"fields":{},"normalizations":{"n_75":{"source":{"name":"AlgaeNames","id":"prcris","url":null},"recName":"Prasiola crispa","confidence":{"state":"pre-added","who":["ml:dpeker"],"prob":0.9558}}}},{"classId":"e_1","part":"s125v1","offsets":[{"start":159,"text":"Pottia heimii"}],"coordinates":[{"x":"83.40","y":"369.52"},{"x":"156.94","y":"376.89"}],"confidence":{"state":"pre-added","who":["user:ICTAR"],"prob":1},"fields":{},"normalizations":{"n_32":{"source":{"name":"MossNames","id":"heheim","url":null},"recName":"","confidence":{"state":"pre-added","who":["user:ICTAR"],"prob":1}}}},{"classId":"e_1","part":"s125v1","offsets":[{"start":205,"text":"Bryum argenteum"}],"coordinates":[],"confidence":{"state":"pre-added","who":["ml:dpeker"],"prob":0.9558},"fields":{},"normalizations":{"n_32":{"source":{"name":"MossNames","id":"brarge","url":null},"recName":"Bryum argenteum","confidence":{"state":"pre-added","who":["ml:dpeker"],"prob":0.9558}}}},{"classId":"e_1","part":"s125v1","offsets":[{"start":232,"text":"Bryum pseudotriquetrum"}],"coordinates":[],"confidence":{"state":"pre-added","who":["ml:dpeker"],"prob":0.9726},"fields":{},"normalizations":{"n_32":{"source":{"name":"MossNames","id":"brpseu","url":null},"recName":"Bryum pseudotriquetrum","confidence":{"state":"pre-added","who":["ml:dpeker"],"prob":0.9726}}}},{"classId":"e_1","part":"s125v1","offsets":[{"start":299,"text":"B.argenteum"}],"coordinates":[],"confidence":{"state":"pre-added","who":["ml:dpeker"],"prob":0.8063},"fields":{},"normalizations":{"n_32":{"source":{"name":"MossNames","id":"brarge","url":null},"recName":"Bryum argenteum","confidence":{"state":"pre-added","who":["ml:dpeker"],"prob":0.8063}}}},{"classId":"e_1","part":"s125v1","offsets":[{"start":311,"text":"Sarconeurum glaciale"}],"coordinates":[],"confidence":{"state":"pre-added","who":["ml:dpeker"],"prob":0.9692},"fields":{},"normalizations":{"n_32":{"source":{"name":"MossNames","id":"sysarc","url":null},"recName":"Syntrichia sarconeurum","confidence":{"state":"pre-added","who":["ml:dpeker"],"prob":0.9692}}}},{"classId":"e_1","part":"s125v1","offsets":[{"start":373,"text":"Ceratadon purpureus"}],"coordinates":[{"x":"84.83","y":"495.16"},{"x":"204.39","y":"502.53"}],"confidence":{"state":"pre-added","who":["user:ICTAR"],"prob":1},"fields":{},"normalizations":{"n_32":{"source":{"name":"MossNames","id":"cepurp","url":null},"recName":"","confidence":{"state":"pre-added","who":["user:ICTAR"],"prob":1}}}},{"classId":"e_4","part":"s125v1","offsets":[{"start":494,"text":"Botany Bay"}],"coordinates":[],"confidence":{"state":"pre-added","who":["ml:dpeker"],"prob":0.9266},"fields":{},"normalizations":{"n_34":{"source":{"name":"GeoNamesSCAR","id":"112844","url":null},"recName":"Botany Bay","confidence":{"state":"pre-added","who":["ml:dpeker"],"prob":0.9266}}}},{"classId":"e_7","part":"s126v1","offsets":[{"start":29,"text":"Acarospora gwynnii"}],"coordinates":[],"confidence":{"state":"pre-added","who":["ml:dpeker"],"prob":0.9648},"fields":{},"normalizations":{"n_31":{"source":{"name":"LichenNames","id":"acgwyn","url":null},"recName":"Acarospora gwynnii","confidence":{"state":"pre-added","who":["ml:dpeker"],"prob":0.9648}}}},{"classId":"e_7","part":"s126v1","offsets":[{"start":65,"text":"Buellia frigida"}],"coordinates":[],"confidence":{"state":"pre-added","who":["ml:dpeker"],"prob":0.9558},"fields":{},"normalizations":{"n_31":{"source":{"name":"LichenNames","id":"bufrig","url":null},"recName":"Buellia frigida","confidence":{"state":"pre-added","who":["ml:dpeker"],"prob":0.9558}}}},{"classId":"e_7","part":"s126v1","offsets":[{"start":87,"text":"Caloplaca"}],"coordinates":[],"confidence":{"state":"pre-added","who":["ml:dpeker"],"prob":0.9163},"fields":{},"normalizations":{"n_31":{"source":{"name":"LichenNames","id":"calosp","url":null},"recName":"Caloplaca sp.","confidence":{"state":"pre-added","who":["ml:dpeker"],"prob":0.9163}}}},{"classId":"e_7","part":"s126v1","offsets":[{"start":122,"text":"Caloplaca athallina"}],"coordinates":[],"confidence":{"state":"pre-added","who":["ml:dpeker"],"prob":0.9671},"fields":{},"normalizations":{"n_31":{"source":{"name":"LichenNames","id":"paatha","url":null},"recName":"Parvoplaca athallina","confidence":{"state":"pre-added","who":["ml:dpeker"],"prob":0.9671}}}},{"classId":"e_7","part":"s126v1","offsets":[{"start":246,"text":"Candelariella halletensis"}],"coordinates":[{"x":"88.97","y":"314.21"},{"x":"228.42","y":"321.64"}],"confidence":{"state":"pre-added","who":["user:ICTAR"],"prob":1},"fields":{},"normalizations":{"n_31":{"source":{"name":"LichenNames","id":"caflav","url":null},"recName":"","confidence":{"state":"pre-added","who":["user:ICTAR"],"prob":1}}}},{"classId":"e_7","part":"s126v1","offsets":[{"start":307,"text":"Lecanora expectans"}],"coordinates":[],"confidence":{"state":"pre-added","who":["ml:dpeker"],"prob":0.9648},"fields":{},"normalizations":{"n_31":{"source":{"name":"LichenNames","id":"leexpe","url":null},"recName":"Lecanora expectans","confidence":{"state":"pre-added","who":["ml:dpeker"],"prob":0.9648}}}},{"classId":"e_7","part":"s126v1","offsets":[{"start":361,"text":"Lecidia phillipsiana"}],"coordinates":[{"x":"88.66","y":"341.75"},{"x":"202.27","y":"349.18"}],"confidence":{"state":"pre-added","who":["user:ICTAR"],"prob":1},"fields":{},"normalizations":{"n_31":{"source":{"name":"LichenNames","id":"lephil","url":null},"recName":"","confidence":{"state":"pre-added","who":["user:ICTAR"],"prob":1}}}},{"classId":"e_7","part":"s126v1","offsets":[{"start":408,"text":"Lepraria sp"}],"coordinates":[{"x":"88.84","y":"355.80"},{"x":"155.03","y":"363.22"}],"confidence":{"state":"pre-added","who":["user:ICTAR"],"prob":1},"fields":{},"normalizations":{"n_31":{"source":{"name":"LichenNames","id":"leprsp","url":null},"recName":"","confidence":{"state":"pre-added","who":["user:ICTAR"],"prob":1}}}},{"classId":"e_7","part":"s126v1","offsets":[{"start":436,"text":"Physcia caesia"}],"coordinates":[],"confidence":{"state":"pre-added","who":["ml:dpeker"],"prob":0.9518},"fields":{},"normalizations":{"n_31":{"source":{"name":"LichenNames","id":"phcaes","url":null},"recName":"Physcia caesia","confidence":{"state":"pre-added","who":["ml:dpeker"],"prob":0.9518}}}},{"classId":"e_4","part":"s126v1","offsets":[{"start":488,"text":"Botany Bay"}],"coordinates":[],"confidence":{"state":"pre-added","who":["ml:dpeker"],"prob":0.9266},"fields":{},"normalizations":{"n_34":{"source":{"name":"GeoNamesSCAR","id":"112844","url":null},"recName":"Botany Bay","confidence":{"state":"pre-added","who":["ml:dpeker"],"prob":0.9266}}}},{"classId":"e_7","part":"s126v1","offsets":[{"start":499,"text":"Physcia dubia"}],"coordinates":[],"confidence":{"state":"pre-added","who":["ml:dpeker"],"prob":0.9472},"fields":{},"normalizations":{"n_31":{"source":{"name":"LichenNames","id":"phdubi","url":null},"recName":"Physcia dubia","confidence":{"state":"pre-added","who":["ml:dpeker"],"prob":0.9472}}}},{"classId":"e_7","part":"s126v1","offsets":[{"start":542,"text":"Physcia sp"}],"coordinates":[{"x":"89.34","y":"397.55"},{"x":"149.45","y":"404.97"}],"confidence":{"state":"pre-added","who":["user:ICTAR"],"prob":1},"fields":{},"normalizations":{"n_31":{"source":{"name":"LichenNames","id":"physsp","url":null},"recName":"","confidence":{"state":"pre-added","who":["user:ICTAR"],"prob":1}}}},{"classId":"e_7","part":"s126v1","offsets":[{"start":559,"text":"Rhizocarpan geographicum"}],"coordinates":[{"x":"89.16","y":"411.95"},{"x":"242.38","y":"419.38"}],"confidence":{"state":"pre-added","who":["user:ICTAR"],"prob":1},"fields":{},"normalizations":{"n_31":{"source":{"name":"LichenNames","id":"rhgeog","url":null},"recName":"","confidence":{"state":"pre-added","who":["user:ICTAR"],"prob":1}}}},{"classId":"e_4","part":"s126v1","offsets":[{"start":613,"text":"Botany Bay"}],"coordinates":[],"confidence":{"state":"pre-added","who":["ml:dpeker"],"prob":0.9266},"fields":{},"normalizations":{"n_34":{"source":{"name":"GeoNamesSCAR","id":"112844","url":null},"recName":"Botany Bay","confidence":{"state":"pre-added","who":["ml:dpeker"],"prob":0.9266}}}},{"classId":"e_7","part":"s126v1","offsets":[{"start":624,"text":"Rhizoplaca melanophthalma"}],"coordinates":[],"confidence":{"state":"pre-added","who":["ml:dpeker"],"prob":0.9766},"fields":{},"normalizations":{"n_31":{"source":{"name":"LichenNames","id":"rhmela","url":null},"recName":"Rhizoplaca melanophthalma","confidence":{"state":"pre-added","who":["ml:dpeker"],"prob":0.9766}}}},{"classId":"e_7","part":"s126v1","offsets":[{"start":673,"text":"Umbilicaria aprina"}],"coordinates":[],"confidence":{"state":"pre-added","who":["ml:dpeker"],"prob":0.9648},"fields":{},"normalizations":{"n_31":{"source":{"name":"LichenNames","id":"umapri","url":null},"recName":"Umbilicaria aprina","confidence":{"state":"pre-added","who":["ml:dpeker"],"prob":0.9648}}}},{"classId":"e_7","part":"s126v1","offsets":[{"start":697,"text":"Xanthoria elegans"}],"coordinates":[],"confidence":{"state":"pre-added","who":["ml:dpeker"],"prob":0.9622},"fields":{},"normalizations":{"n_31":{"source":{"name":"LichenNames","id":"rueleg","url":null},"recName":"Rusavskia elegans","confidence":{"state":"pre-added","who":["ml:dpeker"],"prob":0.9622}}}},{"classId":"e_7","part":"s126v1","offsets":[{"start":730,"text":"Xanthoria mawsonii"}],"coordinates":[],"confidence":{"state":"pre-added","who":["ml:dpeker"],"prob":0.9648},"fields":{},"normalizations":{"n_31":{"source":{"name":"LichenNames","id":"xabore","url":null},"recName":"Xanthomendoza borealis","confidence":{"state":"pre-added","who":["ml:dpeker"],"prob":0.9648}}}},{"classId":"e_7","part":"s127v1","offsets":[{"start":55,"text":"Lecanora"}],"coordinates":[],"confidence":{"state":"pre-added","who":["ml:dpeker"],"prob":0.9031},"fields":{},"normalizations":{"n_31":{"source":{"name":"LichenNames","id":"lecasp","url":null},"recName":"Lecanora sp.","confidence":{"state":"pre-added","who":["ml:dpeker"],"prob":0.9031}}}},{"classId":"e_7","part":"s127v1","offsets":[{"start":72,"text":"Xanthoria"}],"coordinates":[],"confidence":{"state":"pre-added","who":["ml:dpeker"],"prob":0.9163},"fields":{},"normalizations":{"n_31":{"source":{"name":"LichenNames","id":"xantsp","url":null},"recName":"Xanthoria","confidence":{"state":"pre-added","who":["ml:dpeker"],"prob":0.9163}}}},{"classId":"e_4","part":"s129v1","offsets":[{"start":35,"text":"Granite Harbour"}],"coordinates":[{"x":"258.30","y":"160.31"},{"x":"353.40","y":"167.73"}],"confidence":{"state":"pre-added","who":["user:ICTAR"],"prob":1},"fields":{},"normalizations":{"n_34":{"source":{"name":"GeoNamesSCAR","id":"125876","url":null},"recName":"","confidence":{"state":"pre-added","who":["user:ICTAR"],"prob":1}}}},{"classId":"e_49","part":"s129v1","offsets":[{"start":78,"text":"Philodina"}],"coordinates":[{"x":"230.64","y":"230.19"},{"x":"285.27","y":"237.40"}],"confidence":{"state":"pre-added","who":["user:ICTAR"],"prob":1},"fields":{},"normalizations":{"n_53":{"source":{"name":"RotiferNames","id":"philsp","url":null},"recName":"","confidence":{"state":"pre-added","who":["user:ICTAR"],"prob":1}}}},{"classId":"e_49","part":"s129v1","offsets":[{"start":88,"text":"Habrotrocha"}],"coordinates":[{"x":"230.29","y":"244.04"},{"x":"300.24","y":"251.25"}],"confidence":{"state":"pre-added","who":["user:ICTAR"],"prob":1},"fields":{},"normalizations":{"n_53":{"source":{"name":"RotiferNames","id":"habrsp","url":null},"recName":"","confidence":{"state":"pre-added","who":["user:ICTAR"],"prob":1}}}},{"classId":"e_2","part":"s129v1","offsets":[{"start":111,"text":"Plectus"}],"coordinates":[],"confidence":{"state":"pre-added","who":["ml:dpeker"],"prob":0.8856},"fields":{},"normalizations":{"n_33":{"source":{"name":"NematodeNames","id":"plecsp","url":null},"recName":"Plectus spp.","confidence":{"state":"pre-added","who":["ml:dpeker"],"prob":0.8856}}}},{"classId":"e_48","part":"s129v1","offsets":[{"start":132,"text":"Macrobiotus"}],"coordinates":[{"x":"231.21","y":"300.22"},{"x":"299.14","y":"307.43"}],"confidence":{"state":"pre-added","who":["user:ICTAR"],"prob":1},"fields":{},"normalizations":{"n_51":{"source":{"name":"TardigradeNames","id":"macrsp","url":null},"recName":"","confidence":{"state":"pre-added","who":["user:ICTAR"],"prob":1}}}},{"classId":"e_38","part":"s129v1","offsets":[{"start":156,"text":"Stereotydeus"}],"coordinates":[{"x":"231.42","y":"328.11"},{"x":"301.03","y":"335.32"}],"confidence":{"state":"pre-added","who":["user:ICTAR"],"prob":1},"fields":{},"normalizations":{"n_43":{"source":{"name":"MiteNames","id":"stersp","url":null},"recName":"","confidence":{"state":"pre-added","who":["user:ICTAR"],"prob":1}}}},{"classId":"e_39","part":"s129v1","offsets":[{"start":179,"text":"Cryptopygus"}],"coordinates":[{"x":"231.72","y":"355.65"},{"x":"300.30","y":"362.86"}],"confidence":{"state":"pre-added","who":["user:ICTAR"],"prob":1},"fields":{},"normalizations":{"n_44":{"source":{"name":"SpringtailNames","id":"crypsp","url":null},"recName":"","confidence":{"state":"pre-added","who":["user:ICTAR"],"prob":1}}}},{"classId":"e_4","part":"s130v1","offsets":[{"start":136,"text":"Lake Fryxell"}],"coordinates":[],"confidence":{"state":"pre-added","who":["ml:dpeker"],"prob":0.9416},"fields":{},"normalizations":{"n_34":{"source":{"name":"GeoNamesSCAR","id":"125440","url":null},"recName":"Fryxell, Lake","confidence":{"state":"pre-added","who":["ml:dpeker"],"prob":0.9416}}}},{"classId":"e_1","part":"s130v1","offsets":[{"start":166,"text":"B. argenteum"}],"coordinates":[],"confidence":{"state":"pre-added","who":["ml:dpeker"],"prob":0.9416},"fields":{},"normalizations":{"n_32":{"source":{"name":"MossNames","id":"brarge","url":null},"recName":"Bryum argenteum","confidence":{"state":"pre-added","who":["ml:dpeker"],"prob":0.9416}}}},{"classId":"e_1","part":"s130v1","offsets":[{"start":183,"text":"B. antaretieum"}],"coordinates":[{"x":"377.70","y":"214.91"},{"x":"461.03","y":"222.28"}],"confidence":{"state":"pre-added","who":["user:ICTAR"],"prob":1},"fields":{},"normalizations":{"n_32":{"source":{"name":"MossNames","id":"branta","url":null},"recName":"","confidence":{"state":"pre-added","who":["user:ICTAR"],"prob":1}}}},{"classId":"e_1","part":"s130v1","offsets":[{"start":272,"text":"B. pseudotriquetrum"}],"coordinates":[],"confidence":{"state":"pre-added","who":["ml:dpeker"],"prob":0.9671},"fields":{},"normalizations":{"n_32":{"source":{"name":"MossNames","id":"brpseu","url":null},"recName":"Bryum pseudotriquetrum","confidence":{"state":"pre-added","who":["ml:dpeker"],"prob":0.9671}}}},{"classId":"e_1","part":"s130v1","offsets":[{"start":638,"text":"B. argenteum"}],"coordinates":[],"confidence":{"state":"pre-added","who":["ml:dpeker"],"prob":0.9416},"fields":{},"normalizations":{"n_32":{"source":{"name":"MossNames","id":"brarge","url":null},"recName":"Bryum argenteum","confidence":{"state":"pre-added","who":["ml:dpeker"],"prob":0.9416}}}},{"classId":"e_1","part":"s130v1","offsets":[{"start":655,"text":"B. pseudotriquetrum"}],"coordinates":[],"confidence":{"state":"pre-added","who":["ml:dpeker"],"prob":0.9671},"fields":{},"normalizations":{"n_32":{"source":{"name":"MossNames","id":"brpseu","url":null},"recName":"Bryum pseudotriquetrum","confidence":{"state":"pre-added","who":["ml:dpeker"],"prob":0.9671}}}},{"classId":"e_1","part":"s130v1","offsets":[{"start":772,"text":"B. argenteum"}],"coordinates":[],"confidence":{"state":"pre-added","who":["ml:dpeker"],"prob":0.9416},"fields":{},"normalizations":{"n_32":{"source":{"name":"MossNames","id":"brarge","url":null},"recName":"Bryum argenteum","confidence":{"state":"pre-added","who":["ml:dpeker"],"prob":0.9416}}}},{"classId":"e_4","part":"s131v1","offsets":[{"start":776,"text":"Canada Glacier"}],"coordinates":[],"confidence":{"state":"pre-added","who":["ml:dpeker"],"prob":0.9518},"fields":{},"normalizations":{"n_34":{"source":{"name":"GeoNamesSCAR","id":"123257","url":null},"recName":"Canada Glacier","confidence":{"state":"pre-added","who":["ml:dpeker"],"prob":0.9518}}}},{"classId":"e_4","part":"s132v1","offsets":[{"start":532,"text":"Kar plateau"}],"coordinates":[],"confidence":{"state":"pre-added","who":["ml:dpeker"],"prob":0.8924},"fields":{},"normalizations":{"n_34":{"source":{"name":"GeoNamesSCAR","id":"127253","url":null},"recName":"Kar Plateau","confidence":{"state":"pre-added","who":["ml:dpeker"],"prob":0.8924}}}},{"classId":"e_1","part":"s132v1","offsets":[{"start":549,"text":"B. argenteum"}],"coordinates":[],"confidence":{"state":"pre-added","who":["ml:dpeker"],"prob":0.9416},"fields":{},"normalizations":{"n_32":{"source":{"name":"MossNames","id":"brarge","url":null},"recName":"Bryum argenteum","confidence":{"state":"pre-added","who":["ml:dpeker"],"prob":0.9416}}}},{"classId":"e_4","part":"s132v1","offsets":[{"start":778,"text":"Canada Glacier"}],"coordinates":[],"confidence":{"state":"pre-added","who":["ml:dpeker"],"prob":0.9518},"fields":{},"normalizations":{"n_34":{"source":{"name":"GeoNamesSCAR","id":"123257","url":null},"recName":"Canada Glacier","confidence":{"state":"pre-added","who":["ml:dpeker"],"prob":0.9518}}}},{"classId":"e_4","part":"s132v1","offsets":[{"start":887,"text":"Canada Glacier"}],"coordinates":[],"confidence":{"state":"pre-added","who":["ml:dpeker"],"prob":0.9518},"fields":{},"normalizations":{"n_34":{"source":{"name":"GeoNamesSCAR","id":"123257","url":null},"recName":"Canada Glacier","confidence":{"state":"pre-added","who":["ml:dpeker"],"prob":0.9518}}}},{"classId":"e_4","part":"s132v1","offsets":[{"start":914,"text":"Taylor Valley"}],"coordinates":[],"confidence":{"state":"pre-added","who":["ml:dpeker"],"prob":0.9472},"fields":{},"normalizations":{"n_34":{"source":{"name":"GeoNamesSCAR","id":"132512","url":null},"recName":"Taylor Valley","confidence":{"state":"pre-added","who":["ml:dpeker"],"prob":0.9472}}}},{"classId":"e_4","part":"s132v1","offsets":[{"start":944,"text":"Cape Geology"}],"coordinates":[],"confidence":{"state":"pre-added","who":["ml:dpeker"],"prob":0.9416},"fields":{},"normalizations":{"n_34":{"source":{"name":"GeoNamesSCAR","id":"125618","url":null},"recName":"Geology, Cape","confidence":{"state":"pre-added","who":["ml:dpeker"],"prob":0.9416}}}},{"classId":"e_4","part":"s132v1","offsets":[{"start":961,"text":"Botany Bay"}],"coordinates":[],"confidence":{"state":"pre-added","who":["ml:dpeker"],"prob":0.9266},"fields":{},"normalizations":{"n_34":{"source":{"name":"GeoNamesSCAR","id":"112844","url":null},"recName":"Botany Bay","confidence":{"state":"pre-added","who":["ml:dpeker"],"prob":0.9266}}}},{"classId":"e_4","part":"s132v1","offsets":[{"start":1048,"text":"Wilson Piedmont Glacier"}],"coordinates":[],"confidence":{"state":"pre-added","who":["ml:dpeker"],"prob":0.9741},"fields":{},"normalizations":{"n_34":{"source":{"name":"GeoNamesSCAR","id":"133762","url":null},"recName":"Wilson Piedmont Glacier","confidence":{"state":"pre-added","who":["ml:dpeker"],"prob":0.9741}}}},{"classId":"e_4","part":"s132v1","offsets":[{"start":1111,"text":"Discovery Bluff"}],"coordinates":[],"confidence":{"state":"pre-added","who":["ml:dpeker"],"prob":0.9558},"fields":{},"normalizations":{"n_34":{"source":{"name":"GeoNamesSCAR","id":"113154","url":null},"recName":"Discovery Bluff","confidence":{"state":"pre-added","who":["ml:dpeker"],"prob":0.9558}}}},{"classId":"e_4","part":"s132v1","offsets":[{"start":1172,"text":"Botany Bay"}],"coordinates":[],"confidence":{"state":"pre-added","who":["ml:dpeker"],"prob":0.9266},"fields":{},"normalizations":{"n_34":{"source":{"name":"GeoNamesSCAR","id":"112844","url":null},"recName":"Botany Bay","confidence":{"state":"pre-added","who":["ml:dpeker"],"prob":0.9266}}}},{"classId":"e_4","part":"s132v1","offsets":[{"start":1220,"text":"Cape Geology"}],"coordinates":[],"confidence":{"state":"pre-added","who":["ml:dpeker"],"prob":0.9416},"fields":{},"normalizations":{"n_34":{"source":{"name":"GeoNamesSCAR","id":"125618","url":null},"recName":"Geology, Cape","confidence":{"state":"pre-added","who":["ml:dpeker"],"prob":0.9416}}}},{"classId":"e_4","part":"s133v1","offsets":[{"start":68,"text":"Canada Glacier"}],"coordinates":[],"confidence":{"state":"pre-added","who":["ml:dpeker"],"prob":0.9518},"fields":{},"normalizations":{"n_34":{"source":{"name":"GeoNamesSCAR","id":"123257","url":null},"recName":"Canada Glacier","confidence":{"state":"pre-added","who":["ml:dpeker"],"prob":0.9518}}}},{"classId":"e_4","part":"s133v1","offsets":[{"start":245,"text":"Ross Island"}],"coordinates":[],"confidence":{"state":"pre-added","who":["ml:dpeker"],"prob":0.9349},"fields":{},"normalizations":{"n_34":{"source":{"name":"GeoNamesSCAR","id":"130958","url":null},"recName":"Ross Island","confidence":{"state":"pre-added","who":["ml:dpeker"],"prob":0.9349}}}},{"classId":"e_1","part":"s133v1","offsets":[{"start":388,"text":"B.argenteum"}],"coordinates":[],"confidence":{"state":"pre-added","who":["ml:dpeker"],"prob":0.8063},"fields":{},"normalizations":{"n_32":{"source":{"name":"MossNames","id":"brarge","url":null},"recName":"Bryum argenteum","confidence":{"state":"pre-added","who":["ml:dpeker"],"prob":0.8063}}}},{"classId":"e_4","part":"s133v1","offsets":[{"start":1439,"text":"Canada Glacier"}],"coordinates":[],"confidence":{"state":"pre-added","who":["ml:dpeker"],"prob":0.9518},"fields":{},"normalizations":{"n_34":{"source":{"name":"GeoNamesSCAR","id":"123257","url":null},"recName":"Canada Glacier","confidence":{"state":"pre-added","who":["ml:dpeker"],"prob":0.9518}}}},{"classId":"e_41","part":"s134v1","offsets":[{"start":53,"text":"Nostoc"}],"coordinates":[],"confidence":{"state":"pre-added","who":["ml:dpeker"],"prob":0.8617},"fields":{},"normalizations":{"n_55":{"source":{"name":"CyanobacteriaNames","id":"nostsp","url":null},"recName":"Nostoc","confidence":{"state":"pre-added","who":["ml:dpeker"],"prob":0.8617}}}},{"classId":"e_4","part":"s134v1","offsets":[{"start":88,"text":"Canada Glacier"}],"coordinates":[],"confidence":{"state":"pre-added","who":["ml:dpeker"],"prob":0.9518},"fields":{},"normalizations":{"n_34":{"source":{"name":"GeoNamesSCAR","id":"123257","url":null},"recName":"Canada Glacier","confidence":{"state":"pre-added","who":["ml:dpeker"],"prob":0.9518}}}},{"classId":"e_4","part":"s134v1","offsets":[{"start":379,"text":"Canada\n\nGlacier"}],"coordinates":[],"confidence":{"state":"pre-added","who":["ml:dpeker"],"prob":0.8249},"fields":{},"normalizations":{"n_34":{"source":{"name":"GeoNamesSCAR","id":"123257","url":null},"recName":"Canada Glacier","confidence":{"state":"pre-added","who":["ml:dpeker"],"prob":0.8249}}}},{"classId":"e_41","part":"s134v1","offsets":[{"start":527,"text":"Nostoc"}],"coordinates":[],"confidence":{"state":"pre-added","who":["ml:dpeker"],"prob":0.8617},"fields":{},"normalizations":{"n_55":{"source":{"name":"CyanobacteriaNames","id":"nostsp","url":null},"recName":"Nostoc","confidence":{"state":"pre-added","who":["ml:dpeker"],"prob":0.8617}}}},{"classId":"e_4","part":"s134v1","offsets":[{"start":767,"text":"Canada Glacier"}],"coordinates":[],"confidence":{"state":"pre-added","who":["ml:dpeker"],"prob":0.9518},"fields":{},"normalizations":{"n_34":{"source":{"name":"GeoNamesSCAR","id":"123257","url":null},"recName":"Canada Glacier","confidence":{"state":"pre-added","who":["ml:dpeker"],"prob":0.9518}}}},{"classId":"e_4","part":"s134v1","offsets":[{"start":883,"text":"Canada Glacier"}],"coordinates":[],"confidence":{"state":"pre-added","who":["ml:dpeker"],"prob":0.9518},"fields":{},"normalizations":{"n_34":{"source":{"name":"GeoNamesSCAR","id":"123257","url":null},"recName":"Canada Glacier","confidence":{"state":"pre-added","who":["ml:dpeker"],"prob":0.9518}}}},{"classId":"e_41","part":"s134v1","offsets":[{"start":1043,"text":"Nostoc"}],"coordinates":[],"confidence":{"state":"pre-added","who":["ml:dpeker"],"prob":0.8617},"fields":{},"normalizations":{"n_55":{"source":{"name":"CyanobacteriaNames","id":"nostsp","url":null},"recName":"Nostoc","confidence":{"state":"pre-added","who":["ml:dpeker"],"prob":0.8617}}}},{"classId":"e_4","part":"s135v1","offsets":[{"start":828,"text":"Fryxell stream"}],"coordinates":[],"confidence":{"state":"pre-added","who":["ml:dpeker"],"prob":0.9178},"fields":{},"normalizations":{"n_52":{"source":{"name":"GeoNamesCustom","id":"CKL008","url":null},"recName":"Fryxell Stream","confidence":{"state":"pre-added","who":["ml:dpeker"],"prob":0.9178}}}},{"classId":"e_4","part":"s135v1","offsets":[{"start":1061,"text":"Fryxell Stream"}],"coordinates":[],"confidence":{"state":"pre-added","who":["ml:dpeker"],"prob":0.9518},"fields":{},"normalizations":{"n_52":{"source":{"name":"GeoNamesCustom","id":"CKL008","url":null},"recName":"Fryxell Stream","confidence":{"state":"pre-added","who":["ml:dpeker"],"prob":0.9518}}}},{"classId":"e_41","part":"s137v1","offsets":[{"start":63,"text":"Nostoc"}],"coordinates":[],"confidence":{"state":"pre-added","who":["ml:dpeker"],"prob":0.8617},"fields":{},"normalizations":{"n_55":{"source":{"name":"CyanobacteriaNames","id":"nostsp","url":null},"recName":"Nostoc","confidence":{"state":"pre-added","who":["ml:dpeker"],"prob":0.8617}}}},{"classId":"e_4","part":"s137v1","offsets":[{"start":82,"text":"Adams stream"}],"coordinates":[],"confidence":{"state":"pre-added","who":["ml:dpeker"],"prob":0.9024},"fields":{},"normalizations":{"n_34":{"source":{"name":"GeoNamesSCAR","id":"112601","url":null},"recName":"Adams Stream","confidence":{"state":"pre-added","who":["ml:dpeker"],"prob":0.9024}}}},{"classId":"e_4","part":"s137v1","offsets":[{"start":102,"text":"Miers Valley"}],"coordinates":[],"confidence":{"state":"pre-added","who":["ml:dpeker"],"prob":0.9416},"fields":{},"normalizations":{"n_34":{"source":{"name":"GeoNamesSCAR","id":"128868","url":null},"recName":"Miers Valley","confidence":{"state":"pre-added","who":["ml:dpeker"],"prob":0.9416}}}},{"classId":"e_4","part":"s137v1","offsets":[{"start":123,"text":"Fryxell Stream"}],"coordinates":[],"confidence":{"state":"pre-added","who":["ml:dpeker"],"prob":0.9518},"fields":{},"normalizations":{"n_52":{"source":{"name":"GeoNamesCustom","id":"CKL008","url":null},"recName":"Fryxell Stream","confidence":{"state":"pre-added","who":["ml:dpeker"],"prob":0.9518}}}},{"classId":"e_4","part":"s137v1","offsets":[{"start":145,"text":"Taylor\n\nValley"}],"coordinates":[],"confidence":{"state":"pre-added","who":["ml:dpeker"],"prob":0.8118},"fields":{},"normalizations":{"n_34":{"source":{"name":"GeoNamesSCAR","id":"132512","url":null},"recName":"Taylor Valley","confidence":{"state":"pre-added","who":["ml:dpeker"],"prob":0.8118}}}},{"classId":"e_1","part":"s137v1","offsets":[{"start":242,"text":"B. argenteum"}],"coordinates":[],"confidence":{"state":"pre-added","who":["ml:dpeker"],"prob":0.9416},"fields":{},"normalizations":{"n_32":{"source":{"name":"MossNames","id":"brarge","url":null},"recName":"Bryum argenteum","confidence":{"state":"pre-added","who":["ml:dpeker"],"prob":0.9416}}}},{"classId":"e_4","part":"s137v1","offsets":[{"start":264,"text":"Ross Island"}],"coordinates":[],"confidence":{"state":"pre-added","who":["ml:dpeker"],"prob":0.9349},"fields":{},"normalizations":{"n_34":{"source":{"name":"GeoNamesSCAR","id":"130958","url":null},"recName":"Ross Island","confidence":{"state":"pre-added","who":["ml:dpeker"],"prob":0.9349}}}},{"classId":"e_47","part":"s137v1","offsets":[{"start":416,"text":"It may be possible that nitrogen fixation by Nostoc in the flush systems may be able to supply the entire nitrogen requirement of the mosses.\n\nIt seems very unlikely that nitrogen could be limiting to the mosses in this system because of:\n\n1) the position of the mosses at water flows where nutrient levels are high\n\n2) high nitrogen fixation by epiphytic and surrounding Nostoc and\n\n3) slow growth rates implying a low nutrient requirement."}],"coordinates":[{"x":"329.43","y":"228.76"},{"x":"430.05","y":"431.62"}],"confidence":{"state":"pre-added","who":["user:ICTAR"],"prob":1},"fields":{},"normalizations":{}},{"classId":"e_41","part":"s137v1","offsets":[{"start":461,"text":"Nostoc"}],"coordinates":[],"confidence":{"state":"pre-added","who":["ml:dpeker"],"prob":0.8617},"fields":{},"normalizations":{"n_55":{"source":{"name":"CyanobacteriaNames","id":"nostsp","url":null},"recName":"Nostoc","confidence":{"state":"pre-added","who":["ml:dpeker"],"prob":0.8617}}}},{"classId":"e_41","part":"s137v1","offsets":[{"start":788,"text":"Nostoc"}],"coordinates":[],"confidence":{"state":"pre-added","who":["ml:dpeker"],"prob":0.8617},"fields":{},"normalizations":{"n_55":{"source":{"name":"CyanobacteriaNames","id":"nostsp","url":null},"recName":"Nostoc","confidence":{"state":"pre-added","who":["ml:dpeker"],"prob":0.8617}}}},{"classId":"e_1","part":"s138v1","offsets":[{"start":688,"text":"B. argenteum"}],"coordinates":[],"confidence":{"state":"pre-added","who":["ml:dpeker"],"prob":0.9416},"fields":{},"normalizations":{"n_32":{"source":{"name":"MossNames","id":"brarge","url":null},"recName":"Bryum argenteum","confidence":{"state":"pre-added","who":["ml:dpeker"],"prob":0.9416}}}},{"classId":"e_41","part":"s138v1","offsets":[{"start":706,"text":"Nostoc"}],"coordinates":[],"confidence":{"state":"pre-added","who":["ml:dpeker"],"prob":0.8617},"fields":{},"normalizations":{"n_55":{"source":{"name":"CyanobacteriaNames","id":"nostsp","url":null},"recName":"Nostoc","confidence":{"state":"pre-added","who":["ml:dpeker"],"prob":0.8617}}}},{"classId":"e_41","part":"s138v1","offsets":[{"start":918,"text":"Nostoc"}],"coordinates":[],"confidence":{"state":"pre-added","who":["ml:dpeker"],"prob":0.8617},"fields":{},"normalizations":{"n_55":{"source":{"name":"CyanobacteriaNames","id":"nostsp","url":null},"recName":"Nostoc","confidence":{"state":"pre-added","who":["ml:dpeker"],"prob":0.8617}}}},{"classId":"e_1","part":"s138v1","offsets":[{"start":964,"text":"B. argenteum"}],"coordinates":[],"confidence":{"state":"pre-added","who":["ml:dpeker"],"prob":0.9416},"fields":{},"normalizations":{"n_32":{"source":{"name":"MossNames","id":"brarge","url":null},"recName":"Bryum argenteum","confidence":{"state":"pre-added","who":["ml:dpeker"],"prob":0.9416}}}},{"classId":"e_1","part":"s138v1","offsets":[{"start":1177,"text":"B. argenteum"}],"coordinates":[],"confidence":{"state":"pre-added","who":["ml:dpeker"],"prob":0.9416},"fields":{},"normalizations":{"n_32":{"source":{"name":"MossNames","id":"brarge","url":null},"recName":"Bryum argenteum","confidence":{"state":"pre-added","who":["ml:dpeker"],"prob":0.9416}}}},{"classId":"e_1","part":"s138v1","offsets":[{"start":1267,"text":"B. argenteum"}],"coordinates":[],"confidence":{"state":"pre-added","who":["ml:dpeker"],"prob":0.9416},"fields":{},"normalizations":{"n_32":{"source":{"name":"MossNames","id":"brarge","url":null},"recName":"Bryum argenteum","confidence":{"state":"pre-added","who":["ml:dpeker"],"prob":0.9416}}}},{"classId":"e_1","part":"s139v1","offsets":[{"start":49,"text":"B.argenteum"}],"coordinates":[],"confidence":{"state":"pre-added","who":["ml:dpeker"],"prob":0.8063},"fields":{},"normalizations":{"n_32":{"source":{"name":"MossNames","id":"brarge","url":null},"recName":"Bryum argenteum","confidence":{"state":"pre-added","who":["ml:dpeker"],"prob":0.8063}}}},{"classId":"e_47","part":"s139v1","offsets":[{"start":175,"text":"Wind and water dispersal of vegetative fragments are probably the most important factors for plants on the Canada Glacier bryophyte flushes."}],"coordinates":[{"x":"121.41","y":"167.27"},{"x":"478.74","y":"202.48"}],"confidence":{"state":"pre-added","who":["user:ICTAR"],"prob":1},"fields":{},"normalizations":{}},{"classId":"e_4","part":"s139v1","offsets":[{"start":282,"text":"Canada Glacier"}],"coordinates":[],"confidence":{"state":"pre-added","who":["ml:dpeker"],"prob":0.9518},"fields":{},"normalizations":{"n_34":{"source":{"name":"GeoNamesSCAR","id":"123257","url":null},"recName":"Canada Glacier","confidence":{"state":"pre-added","who":["ml:dpeker"],"prob":0.9518}}}},{"classId":"e_47","part":"s139v1","offsets":[{"start":1063,"text":"The evidence suggests that growth is limited by exposure at the sand surface and that shelter is needed for any rapid growth. The overall growth rate of P. heimii may even be limited by the rate of arrival of fine sediment by wind or water"}],"coordinates":[{"x":"272.01","y":"498.28"},{"x":"334.27","y":"588.76"}],"confidence":{"state":"pre-added","who":["user:ICTAR"],"prob":1},"fields":{},"normalizations":{}},{"classId":"e_1","part":"s140v1","offsets":[{"start":319,"text":"B. argenteum"}],"coordinates":[],"confidence":{"state":"pre-added","who":["ml:dpeker"],"prob":0.9416},"fields":{},"normalizations":{"n_32":{"source":{"name":"MossNames","id":"brarge","url":null},"recName":"Bryum argenteum","confidence":{"state":"pre-added","who":["ml:dpeker"],"prob":0.9416}}}},{"classId":"e_4","part":"s140v1","offsets":[{"start":341,"text":"Ross Island"}],"coordinates":[],"confidence":{"state":"pre-added","who":["ml:dpeker"],"prob":0.9349},"fields":{},"normalizations":{"n_34":{"source":{"name":"GeoNamesSCAR","id":"130958","url":null},"recName":"Ross Island","confidence":{"state":"pre-added","who":["ml:dpeker"],"prob":0.9349}}}},{"classId":"e_1","part":"s140v1","offsets":[{"start":430,"text":"B. argenteum"}],"coordinates":[],"confidence":{"state":"pre-added","who":["ml:dpeker"],"prob":0.9416},"fields":{},"normalizations":{"n_32":{"source":{"name":"MossNames","id":"brarge","url":null},"recName":"Bryum argenteum","confidence":{"state":"pre-added","who":["ml:dpeker"],"prob":0.9416}}}},{"classId":"e_1","part":"s140v1","offsets":[{"start":469,"text":"B. pseudotriquetrum"}],"coordinates":[],"confidence":{"state":"pre-added","who":["ml:dpeker"],"prob":0.9671},"fields":{},"normalizations":{"n_32":{"source":{"name":"MossNames","id":"brpseu","url":null},"recName":"Bryum pseudotriquetrum","confidence":{"state":"pre-added","who":["ml:dpeker"],"prob":0.9671}}}},{"classId":"e_4","part":"s141v1","offsets":[{"start":639,"text":"Canada Glacier"}],"coordinates":[],"confidence":{"state":"pre-added","who":["ml:dpeker"],"prob":0.9518},"fields":{},"normalizations":{"n_34":{"source":{"name":"GeoNamesSCAR","id":"123257","url":null},"recName":"Canada Glacier","confidence":{"state":"pre-added","who":["ml:dpeker"],"prob":0.9518}}}},{"classId":"e_4","part":"s141v1","offsets":[{"start":864,"text":"Taylor Valley"}],"coordinates":[],"confidence":{"state":"pre-added","who":["ml:dpeker"],"prob":0.9472},"fields":{},"normalizations":{"n_34":{"source":{"name":"GeoNamesSCAR","id":"132512","url":null},"recName":"Taylor Valley","confidence":{"state":"pre-added","who":["ml:dpeker"],"prob":0.9472}}}},{"classId":"e_4","part":"s141v1","offsets":[{"start":914,"text":"Canada Glacier"}],"coordinates":[],"confidence":{"state":"pre-added","who":["ml:dpeker"],"prob":0.9518},"fields":{},"normalizations":{"n_34":{"source":{"name":"GeoNamesSCAR","id":"123257","url":null},"recName":"Canada Glacier","confidence":{"state":"pre-added","who":["ml:dpeker"],"prob":0.9518}}}},{"classId":"e_4","part":"s141v1","offsets":[{"start":1059,"text":"Taylor Valley"}],"coordinates":[],"confidence":{"state":"pre-added","who":["ml:dpeker"],"prob":0.9472},"fields":{},"normalizations":{"n_34":{"source":{"name":"GeoNamesSCAR","id":"132512","url":null},"recName":"Taylor Valley","confidence":{"state":"pre-added","who":["ml:dpeker"],"prob":0.9472}}}},{"classId":"e_4","part":"s141v1","offsets":[{"start":1349,"text":"Canada Glacier"}],"coordinates":[],"confidence":{"state":"pre-added","who":["ml:dpeker"],"prob":0.9518},"fields":{},"normalizations":{"n_34":{"source":{"name":"GeoNamesSCAR","id":"123257","url":null},"recName":"Canada Glacier","confidence":{"state":"pre-added","who":["ml:dpeker"],"prob":0.9518}}}},{"classId":"e_4","part":"s141v1","offsets":[{"start":1405,"text":"Canada Glacier"}],"coordinates":[],"confidence":{"state":"pre-added","who":["ml:dpeker"],"prob":0.9518},"fields":{},"normalizations":{"n_34":{"source":{"name":"GeoNamesSCAR","id":"123257","url":null},"recName":"Canada Glacier","confidence":{"state":"pre-added","who":["ml:dpeker"],"prob":0.9518}}}},{"classId":"e_4","part":"s142v1","offsets":[{"start":216,"text":"Lake Fryxell"}],"coordinates":[],"confidence":{"state":"pre-added","who":["ml:dpeker"],"prob":0.9416},"fields":{},"normalizations":{"n_34":{"source":{"name":"GeoNamesSCAR","id":"125440","url":null},"recName":"Fryxell, Lake","confidence":{"state":"pre-added","who":["ml:dpeker"],"prob":0.9416}}}},{"classId":"e_4","part":"s142v1","offsets":[{"start":384,"text":"Canada Glacier"}],"coordinates":[],"confidence":{"state":"pre-added","who":["ml:dpeker"],"prob":0.9518},"fields":{},"normalizations":{"n_34":{"source":{"name":"GeoNamesSCAR","id":"123257","url":null},"recName":"Canada Glacier","confidence":{"state":"pre-added","who":["ml:dpeker"],"prob":0.9518}}}},{"classId":"e_4","part":"s142v1","offsets":[{"start":406,"text":"Lake\n\nFryxell"}],"coordinates":[],"confidence":{"state":"pre-added","who":["ml:dpeker"],"prob":0.7967},"fields":{},"normalizations":{"n_34":{"source":{"name":"GeoNamesSCAR","id":"125440","url":null},"recName":"Fryxell, Lake","confidence":{"state":"pre-added","who":["ml:dpeker"],"prob":0.7967}}}},{"classId":"e_47","part":"s143v1","offsets":[{"start":5,"text":"My results show a tendency for animals to inhabit the upper zones of the mosses once free water is available on the flush."}],"coordinates":[{"x":"119.96","y":"91.43"},{"x":"355.97","y":"126.34"}],"confidence":{"state":"pre-added","who":["user:ICTAR"],"prob":1},"fields":{},"normalizations":{}},{"classId":"e_49","part":"s143v1","offsets":[{"start":631,"text":"Habrotrocha sp"}],"coordinates":[],"confidence":{"state":"pre-added","who":["ml:dpeker"],"prob":0.9106},"fields":{},"normalizations":{"n_53":{"source":{"name":"RotiferNames","id":"habrsp","url":null},"recName":"Habrotrocha sp.","confidence":{"state":"pre-added","who":["ml:dpeker"],"prob":0.9106}}}},{"classId":"e_47","part":"s145v1","offsets":[{"start":208,"text":"Rotifers which inhabit mosses must necessarily be forms that can survive drying, and for the most part be creeping species owing to the lack of room for swimming.\n\nBdelloids have the ability to pass into a state of anabiosis when dried and to remain in this condition for years."}],"coordinates":[{"x":"440.73","y":"143.80"},{"x":"286.74","y":"262.59"}],"confidence":{"state":"pre-added","who":["user:ICTAR"],"prob":1},"fields":{},"normalizations":{}},{"classId":"e_4","part":"s146v1","offsets":[{"start":865,"text":"Deep Lake"}],"coordinates":[],"confidence":{"state":"pre-added","who":["ml:dpeker"],"prob":0.9163},"fields":{},"normalizations":{"n_34":{"source":{"name":"GeoNamesSCAR","id":"124219","url":null},"recName":"Deep Lake","confidence":{"state":"pre-added","who":["ml:dpeker"],"prob":0.9163}}}},{"classId":"e_48","part":"s146v1","offsets":[{"start":1065,"text":"Macrobiotus sp"}],"coordinates":[],"confidence":{"state":"pre-added","who":["ml:dpeker"],"prob":0.9106},"fields":{},"normalizations":{"n_51":{"source":{"name":"TardigradeNames","id":"macrsp","url":null},"recName":"Macrobiotus sp.","confidence":{"state":"pre-added","who":["ml:dpeker"],"prob":0.9106}}}},{"classId":"e_4","part":"s147v1","offsets":[{"start":270,"text":"Taylor Valley"}],"coordinates":[],"confidence":{"state":"pre-added","who":["ml:dpeker"],"prob":0.9472},"fields":{},"normalizations":{"n_34":{"source":{"name":"GeoNamesSCAR","id":"132512","url":null},"recName":"Taylor Valley","confidence":{"state":"pre-added","who":["ml:dpeker"],"prob":0.9472}}}},{"classId":"e_4","part":"s147v1","offsets":[{"start":1373,"text":"Taylor Valley"}],"coordinates":[],"confidence":{"state":"pre-added","who":["ml:dpeker"],"prob":0.9472},"fields":{},"normalizations":{"n_34":{"source":{"name":"GeoNamesSCAR","id":"132512","url":null},"recName":"Taylor Valley","confidence":{"state":"pre-added","who":["ml:dpeker"],"prob":0.9472}}}},{"classId":"e_4","part":"s149v1","offsets":[{"start":449,"text":"Taylor Valley"}],"coordinates":[],"confidence":{"state":"pre-added","who":["ml:dpeker"],"prob":0.9472},"fields":{},"normalizations":{"n_34":{"source":{"name":"GeoNamesSCAR","id":"132512","url":null},"recName":"Taylor Valley","confidence":{"state":"pre-added","who":["ml:dpeker"],"prob":0.9472}}}},{"classId":"e_4","part":"s149v1","offsets":[{"start":464,"text":"McMurdo Dry Valleys"}],"coordinates":[],"confidence":{"state":"pre-added","who":["ml:dpeker"],"prob":0.9671},"fields":{},"normalizations":{"n_34":{"source":{"name":"GeoNamesSCAR","id":"113892","url":null},"recName":"McMurdo Dry Valleys","confidence":{"state":"pre-added","who":["ml:dpeker"],"prob":0.9671}}}},{"classId":"e_4","part":"s149v1","offsets":[{"start":493,"text":"Cape Chocolate"}],"coordinates":[],"confidence":{"state":"pre-added","who":["ml:dpeker"],"prob":0.9518},"fields":{},"normalizations":{"n_34":{"source":{"name":"GeoNamesSCAR","id":"112987","url":null},"recName":"Chocolate, Cape","confidence":{"state":"pre-added","who":["ml:dpeker"],"prob":0.9518}}}},{"classId":"e_4","part":"s149v1","offsets":[{"start":519,"text":"Ross\n\nIsland."}],"coordinates":[],"confidence":{"state":"pre-added","who":["ml:dpeker"],"prob":0.7443},"fields":{},"normalizations":{"n_34":{"source":{"name":"GeoNamesSCAR","id":"130958","url":null},"recName":"Ross Island","confidence":{"state":"pre-added","who":["ml:dpeker"],"prob":0.7443}}}},{"classId":"e_4","part":"s149v1","offsets":[{"start":670,"text":"McMurdo Dry Valleys"}],"coordinates":[],"confidence":{"state":"pre-added","who":["ml:dpeker"],"prob":0.9671},"fields":{},"normalizations":{"n_34":{"source":{"name":"GeoNamesSCAR","id":"113892","url":null},"recName":"McMurdo Dry Valleys","confidence":{"state":"pre-added","who":["ml:dpeker"],"prob":0.9671}}}},{"classId":"e_4","part":"s150v1","offsets":[{"start":357,"text":"McMurdo Dry Valley"}],"coordinates":[],"confidence":{"state":"pre-added","who":["ml:dpeker"],"prob":0.914},"fields":{},"normalizations":{"n_34":{"source":{"name":"GeoNamesSCAR","id":"113892","url":null},"recName":"McMurdo Dry Valleys","confidence":{"state":"pre-added","who":["ml:dpeker"],"prob":0.914}}}},{"classId":"e_1","part":"s150v1","offsets":[{"start":994,"text":"B. antarcticum"}],"coordinates":[],"confidence":{"state":"pre-added","who":["ml:dpeker"],"prob":0.9518},"fields":{},"normalizations":{"n_32":{"source":{"name":"MossNames","id":"branta","url":null},"recName":"B. antarcticum","confidence":{"state":"pre-added","who":["ml:dpeker"],"prob":0.9518}}}},{"classId":"e_4","part":"s150v1","offsets":[{"start":1082,"text":"Cape Bernacchi\n\n("}],"coordinates":[],"confidence":{"state":"pre-added","who":["ml:dpeker"],"prob":0.8035},"fields":{},"normalizations":{"n_34":{"source":{"name":"GeoNamesSCAR","id":"112784","url":null},"recName":"Bernacchi, Cape","confidence":{"state":"pre-added","who":["ml:dpeker"],"prob":0.8035}}}},{"classId":"e_4","part":"s150v1","offsets":[{"start":1114,"text":"Marble Point"}],"coordinates":[],"confidence":{"state":"pre-added","who":["ml:dpeker"],"prob":0.9416},"fields":{},"normalizations":{"n_34":{"source":{"name":"GeoNamesSCAR","id":"113829","url":null},"recName":"Marble Point","confidence":{"state":"pre-added","who":["ml:dpeker"],"prob":0.9416}}}},{"classId":"e_1","part":"s150v1","offsets":[{"start":1237,"text":"Bryum pseudotriquetrum"}],"coordinates":[],"confidence":{"state":"pre-added","who":["ml:dpeker"],"prob":0.9726},"fields":{},"normalizations":{"n_32":{"source":{"name":"MossNames","id":"brpseu","url":null},"recName":"Bryum pseudotriquetrum","confidence":{"state":"pre-added","who":["ml:dpeker"],"prob":0.9726}}}},{"classId":"e_1","part":"s150v1","offsets":[{"start":1314,"text":"Bryum pseudotriquetrum"}],"coordinates":[],"confidence":{"state":"pre-added","who":["ml:dpeker"],"prob":0.9726},"fields":{},"normalizations":{"n_32":{"source":{"name":"MossNames","id":"brpseu","url":null},"recName":"Bryum pseudotriquetrum","confidence":{"state":"pre-added","who":["ml:dpeker"],"prob":0.9726}}}},{"classId":"e_4","part":"s151v1","offsets":[{"start":567,"text":"McMurdo Dry Valleys"}],"coordinates":[],"confidence":{"state":"pre-added","who":["ml:dpeker"],"prob":0.9671},"fields":{},"normalizations":{"n_34":{"source":{"name":"GeoNamesSCAR","id":"113892","url":null},"recName":"McMurdo Dry Valleys","confidence":{"state":"pre-added","who":["ml:dpeker"],"prob":0.9671}}}},{"classId":"e_4","part":"s151v1","offsets":[{"start":592,"text":"Ross\n\nIsland ("}],"coordinates":[],"confidence":{"state":"pre-added","who":["ml:dpeker"],"prob":0.6244},"fields":{},"normalizations":{"n_34":{"source":{"name":"GeoNamesSCAR","id":"130958","url":null},"recName":"Ross Island","confidence":{"state":"pre-added","who":["ml:dpeker"],"prob":0.6244}}}},{"classId":"e_4","part":"s151v1","offsets":[{"start":616,"text":"Cape Chocolate"}],"coordinates":[],"confidence":{"state":"pre-added","who":["ml:dpeker"],"prob":0.9518},"fields":{},"normalizations":{"n_34":{"source":{"name":"GeoNamesSCAR","id":"112987","url":null},"recName":"Chocolate, Cape","confidence":{"state":"pre-added","who":["ml:dpeker"],"prob":0.9518}}}},{"classId":"e_4","part":"s151v1","offsets":[{"start":631,"text":"Hobbs Glacier"}],"coordinates":[],"confidence":{"state":"pre-added","who":["ml:dpeker"],"prob":0.9472},"fields":{},"normalizations":{"n_34":{"source":{"name":"GeoNamesSCAR","id":"113546","url":null},"recName":"Hobbs Glacier","confidence":{"state":"pre-added","who":["ml:dpeker"],"prob":0.9472}}}},{"classId":"e_4","part":"s151v1","offsets":[{"start":757,"text":"Cape Chocolate"}],"coordinates":[],"confidence":{"state":"pre-added","who":["ml:dpeker"],"prob":0.9518},"fields":{},"normalizations":{"n_34":{"source":{"name":"GeoNamesSCAR","id":"112987","url":null},"recName":"Chocolate, Cape","confidence":{"state":"pre-added","who":["ml:dpeker"],"prob":0.9518}}}},{"classId":"e_4","part":"s151v1","offsets":[{"start":793,"text":"Hobb's Glacier"}],"coordinates":[],"confidence":{"state":"pre-added","who":["ml:dpeker"],"prob":0.9032},"fields":{},"normalizations":{"n_34":{"source":{"name":"GeoNamesSCAR","id":"113546","url":null},"recName":"Hobbs Glacier","confidence":{"state":"pre-added","who":["ml:dpeker"],"prob":0.9032}}}},{"classId":"e_1","part":"s151v1","offsets":[{"start":864,"text":"Pottia heimii"}],"coordinates":[{"x":"338.09","y":"471.54"},{"x":"404.14","y":"478.42"}],"confidence":{"state":"pre-added","who":["user:ICTAR"],"prob":1},"fields":{},"normalizations":{"n_32":{"source":{"name":"MossNames","id":"heheim","url":null},"recName":"","confidence":{"state":"pre-added","who":["user:ICTAR"],"prob":1}}}},{"classId":"e_4","part":"s151v1","offsets":[{"start":956,"text":"Hobb's Glacier"}],"coordinates":[],"confidence":{"state":"pre-added","who":["ml:dpeker"],"prob":0.9032},"fields":{},"normalizations":{"n_34":{"source":{"name":"GeoNamesSCAR","id":"113546","url":null},"recName":"Hobbs Glacier","confidence":{"state":"pre-added","who":["ml:dpeker"],"prob":0.9032}}}},{"classId":"e_4","part":"s151v1","offsets":[{"start":1604,"text":"Blue Glacier"}],"coordinates":[],"confidence":{"state":"pre-added","who":["ml:dpeker"],"prob":0.9416},"fields":{},"normalizations":{"n_34":{"source":{"name":"GeoNamesSCAR","id":"112824","url":null},"recName":"Blue Glacier","confidence":{"state":"pre-added","who":["ml:dpeker"],"prob":0.9416}}}},{"classId":"e_4","part":"s151v1","offsets":[{"start":1697,"text":"Marble Point"}],"coordinates":[],"confidence":{"state":"pre-added","who":["ml:dpeker"],"prob":0.9416},"fields":{},"normalizations":{"n_34":{"source":{"name":"GeoNamesSCAR","id":"113829","url":null},"recName":"Marble Point","confidence":{"state":"pre-added","who":["ml:dpeker"],"prob":0.9416}}}},{"classId":"e_4","part":"s151v1","offsets":[{"start":1714,"text":"Cape Bernacchi"}],"coordinates":[],"confidence":{"state":"pre-added","who":["ml:dpeker"],"prob":0.9518},"fields":{},"normalizations":{"n_34":{"source":{"name":"GeoNamesSCAR","id":"112784","url":null},"recName":"Bernacchi, Cape","confidence":{"state":"pre-added","who":["ml:dpeker"],"prob":0.9518}}}},{"classId":"e_4","part":"s152v1","offsets":[{"start":5,"text":"Canada Glacier"}],"coordinates":[],"confidence":{"state":"pre-added","who":["ml:dpeker"],"prob":0.9518},"fields":{},"normalizations":{"n_34":{"source":{"name":"GeoNamesSCAR","id":"123257","url":null},"recName":"Canada Glacier","confidence":{"state":"pre-added","who":["ml:dpeker"],"prob":0.9518}}}},{"classId":"e_4","part":"s152v1","offsets":[{"start":77,"text":"Taylor Valley"}],"coordinates":[],"confidence":{"state":"pre-added","who":["ml:dpeker"],"prob":0.9472},"fields":{},"normalizations":{"n_34":{"source":{"name":"GeoNamesSCAR","id":"132512","url":null},"recName":"Taylor Valley","confidence":{"state":"pre-added","who":["ml:dpeker"],"prob":0.9472}}}},{"classId":"e_4","part":"s152v1","offsets":[{"start":92,"text":"McMurdo Dry\n\nValleys"}],"coordinates":[],"confidence":{"state":"pre-added","who":["ml:dpeker"],"prob":0.8704},"fields":{},"normalizations":{"n_34":{"source":{"name":"GeoNamesSCAR","id":"113892","url":null},"recName":"McMurdo Dry Valleys","confidence":{"state":"pre-added","who":["ml:dpeker"],"prob":0.8704}}}},{"classId":"e_4","part":"s152v1","offsets":[{"start":196,"text":"Canada Glacier"}],"coordinates":[],"confidence":{"state":"pre-added","who":["ml:dpeker"],"prob":0.9518},"fields":{},"normalizations":{"n_34":{"source":{"name":"GeoNamesSCAR","id":"123257","url":null},"recName":"Canada Glacier","confidence":{"state":"pre-added","who":["ml:dpeker"],"prob":0.9518}}}},{"classId":"e_4","part":"s152v1","offsets":[{"start":346,"text":"Canada\n\nGlacier"}],"coordinates":[],"confidence":{"state":"pre-added","who":["ml:dpeker"],"prob":0.8249},"fields":{},"normalizations":{"n_34":{"source":{"name":"GeoNamesSCAR","id":"123257","url":null},"recName":"Canada Glacier","confidence":{"state":"pre-added","who":["ml:dpeker"],"prob":0.8249}}}},{"classId":"e_4","part":"s152v1","offsets":[{"start":452,"text":"Taylor Valley"}],"coordinates":[],"confidence":{"state":"pre-added","who":["ml:dpeker"],"prob":0.9472},"fields":{},"normalizations":{"n_34":{"source":{"name":"GeoNamesSCAR","id":"132512","url":null},"recName":"Taylor Valley","confidence":{"state":"pre-added","who":["ml:dpeker"],"prob":0.9472}}}},{"classId":"e_4","part":"s152v1","offsets":[{"start":878,"text":"McMurdo Dry Valleys"}],"coordinates":[],"confidence":{"state":"pre-added","who":["ml:dpeker"],"prob":0.9671},"fields":{},"normalizations":{"n_34":{"source":{"name":"GeoNamesSCAR","id":"113892","url":null},"recName":"McMurdo Dry Valleys","confidence":{"state":"pre-added","who":["ml:dpeker"],"prob":0.9671}}}},{"classId":"e_1","part":"s152v1","offsets":[{"start":1041,"text":"Bryum argenteum"}],"coordinates":[],"confidence":{"state":"pre-added","who":["ml:dpeker"],"prob":0.9558},"fields":{},"normalizations":{"n_32":{"source":{"name":"MossNames","id":"brarge","url":null},"recName":"Bryum argenteum","confidence":{"state":"pre-added","who":["ml:dpeker"],"prob":0.9558}}}},{"classId":"e_1","part":"s152v1","offsets":[{"start":1061,"text":"P. heimii"}],"coordinates":[{"x":"485.69","y":"529.04"},{"x":"102.27","y":"565.00"}],"confidence":{"state":"pre-added","who":["user:ICTAR"],"prob":1},"fields":{},"normalizations":{"n_32":{"source":{"name":"MossNames","id":"heheim","url":null},"recName":"","confidence":{"state":"pre-added","who":["user:ICTAR"],"prob":1}}}},{"classId":"e_1","part":"s152v1","offsets":[{"start":1086,"text":"B. pseudotriquetrum"}],"coordinates":[],"confidence":{"state":"pre-added","who":["ml:dpeker"],"prob":0.9671},"fields":{},"normalizations":{"n_32":{"source":{"name":"MossNames","id":"brpseu","url":null},"recName":"Bryum pseudotriquetrum","confidence":{"state":"pre-added","who":["ml:dpeker"],"prob":0.9671}}}},{"classId":"e_41","part":"s152v1","offsets":[{"start":1258,"text":"Nostoc sp"}],"coordinates":[],"confidence":{"state":"pre-added","who":["ml:dpeker"],"prob":0.8568},"fields":{},"normalizations":{"n_55":{"source":{"name":"CyanobacteriaNames","id":"nostsp","url":null},"recName":"Nostoc","confidence":{"state":"pre-added","who":["ml:dpeker"],"prob":0.8568}}}},{"classId":"e_1","part":"s152v1","offsets":[{"start":1325,"text":"B. argenteum"}],"coordinates":[{"x":"101.81","y":"644.78"},{"x":"168.87","y":"651.93"}],"confidence":{"state":"pre-added","who":["user:ICTAR"],"prob":1},"fields":{},"normalizations":{"n_32":{"source":{"name":"MossNames","id":"brarge","url":null},"recName":"","confidence":{"state":"pre-added","who":["user:ICTAR"],"prob":1}}}},{"classId":"e_1","part":"s152v1","offsets":[{"start":1356,"text":"P. heimii"}],"coordinates":[{"x":"260.33","y":"644.78"},{"x":"304.54","y":"651.93"}],"confidence":{"state":"pre-added","who":["user:ICTAR"],"prob":1},"fields":{},"normalizations":{"n_32":{"source":{"name":"MossNames","id":"heheim","url":null},"recName":"","confidence":{"state":"pre-added","who":["user:ICTAR"],"prob":1}}}},{"classId":"e_1","part":"s152v1","offsets":[{"start":1393,"text":"B. argenteum"}],"coordinates":[],"confidence":{"state":"pre-added","who":["ml:dpeker"],"prob":0.9416},"fields":{},"normalizations":{"n_32":{"source":{"name":"MossNames","id":"brarge","url":null},"recName":"Bryum argenteum","confidence":{"state":"pre-added","who":["ml:dpeker"],"prob":0.9416}}}},{"classId":"e_1","part":"s152v1","offsets":[{"start":1492,"text":"P.\n\nheimii"}],"coordinates":[{"x":"484.56","y":"674.37"},{"x":"101.68","y":"709.71"}],"confidence":{"state":"pre-added","who":["user:ICTAR"],"prob":1},"fields":{},"normalizations":{"n_32":{"source":{"name":"MossNames","id":"heheim","url":null},"recName":"","confidence":{"state":"pre-added","who":["user:ICTAR"],"prob":1}}}},{"classId":"e_1","part":"s152v1","offsets":[{"start":1535,"text":"P. heimii"}],"coordinates":[{"x":"278.69","y":"702.56"},{"x":"323.80","y":"709.71"}],"confidence":{"state":"pre-added","who":["user:ICTAR"],"prob":1},"fields":{},"normalizations":{"n_32":{"source":{"name":"MossNames","id":"heheim","url":null},"recName":"","confidence":{"state":"pre-added","who":["user:ICTAR"],"prob":1}}}},{"classId":"e_1","part":"s153v1","offsets":[{"start":518,"text":"P. heimii"}],"coordinates":[{"x":"168.89","y":"347.43"},{"x":"214.53","y":"354.03"}],"confidence":{"state":"pre-added","who":["user:ICTAR"],"prob":1},"fields":{},"normalizations":{"n_32":{"source":{"name":"MossNames","id":"heheim","url":null},"recName":"","confidence":{"state":"pre-added","who":["user:ICTAR"],"prob":1}}}},{"classId":"e_4","part":"s154v1","offsets":[{"start":92,"text":"Taylor Valley"}],"coordinates":[],"confidence":{"state":"pre-added","who":["ml:dpeker"],"prob":0.9472},"fields":{},"normalizations":{"n_34":{"source":{"name":"GeoNamesSCAR","id":"132512","url":null},"recName":"Taylor Valley","confidence":{"state":"pre-added","who":["ml:dpeker"],"prob":0.9472}}}},{"classId":"e_4","part":"s154v1","offsets":[{"start":1325,"text":"Canada Glacier"}],"coordinates":[],"confidence":{"state":"pre-added","who":["ml:dpeker"],"prob":0.9518},"fields":{},"normalizations":{"n_34":{"source":{"name":"GeoNamesSCAR","id":"123257","url":null},"recName":"Canada Glacier","confidence":{"state":"pre-added","who":["ml:dpeker"],"prob":0.9518}}}},{"classId":"e_4","part":"s154v1","offsets":[{"start":1744,"text":"Canada Glacier"}],"coordinates":[],"confidence":{"state":"pre-added","who":["ml:dpeker"],"prob":0.9518},"fields":{},"normalizations":{"n_34":{"source":{"name":"GeoNamesSCAR","id":"123257","url":null},"recName":"Canada Glacier","confidence":{"state":"pre-added","who":["ml:dpeker"],"prob":0.9518}}}},{"classId":"e_4","part":"s155v1","offsets":[{"start":45,"text":"McMurdo\n\nSound"}],"coordinates":[],"confidence":{"state":"pre-added","who":["ml:dpeker"],"prob":0.8118},"fields":{},"normalizations":{"n_34":{"source":{"name":"GeoNamesSCAR","id":"128724","url":null},"recName":"McMurdo Sound","confidence":{"state":"pre-added","who":["ml:dpeker"],"prob":0.8118}}}},{"classId":"e_4","part":"s155v1","offsets":[{"start":85,"text":"Ross Island"}],"coordinates":[],"confidence":{"state":"pre-added","who":["ml:dpeker"],"prob":0.9349},"fields":{},"normalizations":{"n_34":{"source":{"name":"GeoNamesSCAR","id":"130958","url":null},"recName":"Ross Island","confidence":{"state":"pre-added","who":["ml:dpeker"],"prob":0.9349}}}},{"classId":"e_1","part":"s157v1","offsets":[{"start":123,"text":"Bryum argenteum"}],"coordinates":[],"confidence":{"state":"pre-added","who":["ml:dpeker"],"prob":0.9558},"fields":{},"normalizations":{"n_32":{"source":{"name":"MossNames","id":"brarge","url":null},"recName":"Bryum argenteum","confidence":{"state":"pre-added","who":["ml:dpeker"],"prob":0.9558}}}},{"classId":"e_41","part":"s157v1","offsets":[{"start":162,"text":"Nostoc"}],"coordinates":[],"confidence":{"state":"pre-added","who":["ml:dpeker"],"prob":0.8617},"fields":{},"normalizations":{"n_55":{"source":{"name":"CyanobacteriaNames","id":"nostsp","url":null},"recName":"Nostoc","confidence":{"state":"pre-added","who":["ml:dpeker"],"prob":0.8617}}}},{"classId":"e_4","part":"s158v1","offsets":[{"start":947,"text":"Cape Bird"}],"coordinates":[],"confidence":{"state":"pre-added","who":["ml:dpeker"],"prob":0.9163},"fields":{},"normalizations":{"n_34":{"source":{"name":"GeoNamesSCAR","id":"122545","url":null},"recName":"Bird, Cape","confidence":{"state":"pre-added","who":["ml:dpeker"],"prob":0.9163}}}},{"classId":"e_4","part":"s158v1","offsets":[{"start":957,"text":"Ross Island"}],"coordinates":[],"confidence":{"state":"pre-added","who":["ml:dpeker"],"prob":0.9349},"fields":{},"normalizations":{"n_34":{"source":{"name":"GeoNamesSCAR","id":"130958","url":null},"recName":"Ross Island","confidence":{"state":"pre-added","who":["ml:dpeker"],"prob":0.9349}}}},{"classId":"e_4","part":"s158v1","offsets":[{"start":973,"text":"Taylor Valley"}],"coordinates":[],"confidence":{"state":"pre-added","who":["ml:dpeker"],"prob":0.9472},"fields":{},"normalizations":{"n_34":{"source":{"name":"GeoNamesSCAR","id":"132512","url":null},"recName":"Taylor Valley","confidence":{"state":"pre-added","who":["ml:dpeker"],"prob":0.9472}}}},{"classId":"e_4","part":"s158v1","offsets":[{"start":1143,"text":"Ross Island"}],"coordinates":[],"confidence":{"state":"pre-added","who":["ml:dpeker"],"prob":0.9349},"fields":{},"normalizations":{"n_34":{"source":{"name":"GeoNamesSCAR","id":"130958","url":null},"recName":"Ross Island","confidence":{"state":"pre-added","who":["ml:dpeker"],"prob":0.9349}}}},{"classId":"e_4","part":"s159v1","offsets":[{"start":1146,"text":"Lake Hoare"}],"coordinates":[],"confidence":{"state":"pre-added","who":["ml:dpeker"],"prob":0.9266},"fields":{},"normalizations":{"n_34":{"source":{"name":"GeoNamesSCAR","id":"126559","url":null},"recName":"Hoare, Lake","confidence":{"state":"pre-added","who":["ml:dpeker"],"prob":0.9266}}}},{"classId":"e_4","part":"s160v1","offsets":[{"start":91,"text":"McMurdo Sound"}],"coordinates":[],"confidence":{"state":"pre-added","who":["ml:dpeker"],"prob":0.9472},"fields":{},"normalizations":{"n_34":{"source":{"name":"GeoNamesSCAR","id":"128724","url":null},"recName":"McMurdo Sound","confidence":{"state":"pre-added","who":["ml:dpeker"],"prob":0.9472}}}},{"classId":"e_4","part":"s160v1","offsets":[{"start":1154,"text":"Lake Fryxell"}],"coordinates":[],"confidence":{"state":"pre-added","who":["ml:dpeker"],"prob":0.9416},"fields":{},"normalizations":{"n_34":{"source":{"name":"GeoNamesSCAR","id":"125440","url":null},"recName":"Fryxell, Lake","confidence":{"state":"pre-added","who":["ml:dpeker"],"prob":0.9416}}}},{"classId":"e_4","part":"s161v1","offsets":[{"start":1670,"text":"Ross Island"}],"coordinates":[],"confidence":{"state":"pre-added","who":["ml:dpeker"],"prob":0.9349},"fields":{},"normalizations":{"n_34":{"source":{"name":"GeoNamesSCAR","id":"130958","url":null},"recName":"Ross Island","confidence":{"state":"pre-added","who":["ml:dpeker"],"prob":0.9349}}}},{"classId":"e_4","part":"s163v1","offsets":[{"start":1188,"text":"Ross Ice Shelf"}],"coordinates":[],"confidence":{"state":"pre-added","who":["ml:dpeker"],"prob":0.9518},"fields":{},"normalizations":{"n_34":{"source":{"name":"GeoNamesSCAR","id":"130957","url":null},"recName":"Ross Ice Shelf","confidence":{"state":"pre-added","who":["ml:dpeker"],"prob":0.9518}}}},{"classId":"e_4","part":"s163v1","offsets":[{"start":1618,"text":"McMurdo Sound"}],"coordinates":[],"confidence":{"state":"pre-added","who":["ml:dpeker"],"prob":0.9472},"fields":{},"normalizations":{"n_34":{"source":{"name":"GeoNamesSCAR","id":"128724","url":null},"recName":"McMurdo Sound","confidence":{"state":"pre-added","who":["ml:dpeker"],"prob":0.9472}}}},{"classId":"e_4","part":"s163v1","offsets":[{"start":1785,"text":"Kar Plateau"}],"coordinates":[],"confidence":{"state":"pre-added","who":["ml:dpeker"],"prob":0.9349},"fields":{},"normalizations":{"n_34":{"source":{"name":"GeoNamesSCAR","id":"127253","url":null},"recName":"Kar Plateau","confidence":{"state":"pre-added","who":["ml:dpeker"],"prob":0.9349}}}},{"classId":"e_4","part":"s164v1","offsets":[{"start":530,"text":"McMurdo Sound"}],"coordinates":[],"confidence":{"state":"pre-added","who":["ml:dpeker"],"prob":0.9472},"fields":{},"normalizations":{"n_34":{"source":{"name":"GeoNamesSCAR","id":"128724","url":null},"recName":"McMurdo Sound","confidence":{"state":"pre-added","who":["ml:dpeker"],"prob":0.9472}}}}],"relations":[{"classId":"r_18","type":"linked","directed":false,"entities":["s49v1|e_4|775,788","s49v1|e_1|818,832"],"confidence":{"state":"pre-added","who":["user:ICTAR"],"prob":1}},{"classId":"r_18","type":"linked","directed":false,"entities":["s49v1|e_1|838,854","s49v1|e_4|775,788"],"confidence":{"state":"pre-added","who":["user:ICTAR"],"prob":1}},{"classId":"r_18","type":"linked","directed":false,"entities":["s68v1|e_4|1089,1102","s69v1|e_1|12,26"],"confidence":{"state":"pre-added","who":["user:ICTAR"],"prob":1}},{"classId":"r_18","type":"linked","directed":false,"entities":["s69v1|e_1|35,56","s68v1|e_4|1089,1102"],"confidence":{"state":"pre-added","who":["user:ICTAR"],"prob":1}},{"classId":"r_18","type":"linked","directed":false,"entities":["s69v1|e_1|75,87","s68v1|e_4|1089,1102"],"confidence":{"state":"pre-added","who":["user:ICTAR"],"prob":1}},{"classId":"r_18","type":"linked","directed":false,"entities":["s106v1|e_1|854,864","s106v1|e_4|30,43"],"confidence":{"state":"pre-added","who":["user:ICTAR"],"prob":1}},{"classId":"r_18","type":"linked","directed":false,"entities":["s106v1|e_1|957,968","s106v1|e_4|30,43"],"confidence":{"state":"pre-added","who":["user:ICTAR"],"prob":1}},{"classId":"r_18","type":"linked","directed":false,"entities":["s106v1|e_1|973,981","s106v1|e_4|30,43"],"confidence":{"state":"pre-added","who":["user:ICTAR"],"prob":1}},{"classId":"r_18","type":"linked","directed":false,"entities":["s107v1|e_1|99,107","s106v1|e_4|30,43"],"confidence":{"state":"pre-added","who":["user:ICTAR"],"prob":1}},{"classId":"r_18","type":"linked","directed":false,"entities":["s107v1|e_1|156,164","s106v1|e_4|30,43"],"confidence":{"state":"pre-added","who":["user:ICTAR"],"prob":1}},{"classId":"r_18","type":"linked","directed":false,"entities":["s125v1|e_4|36,50","s125v1|e_1|205,219"],"confidence":{"state":"pre-added","who":["user:ICTAR"],"prob":1}},{"classId":"r_18","type":"linked","directed":false,"entities":["s125v1|e_4|36,50","s125v1|e_1|311,330"],"confidence":{"state":"pre-added","who":["user:ICTAR"],"prob":1}},{"classId":"r_18","type":"linked","directed":false,"entities":["s125v1|e_1|159,171","s125v1|e_4|36,50"],"confidence":{"state":"pre-added","who":["user:ICTAR"],"prob":1}},{"classId":"r_18","type":"linked","directed":false,"entities":["s125v1|e_1|232,253","s125v1|e_4|36,50"],"confidence":{"state":"pre-added","who":["user:ICTAR"],"prob":1}},{"classId":"r_18","type":"linked","directed":false,"entities":["s125v1|e_1|373,391","s125v1|e_4|36,50"],"confidence":{"state":"pre-added","who":["user:ICTAR"],"prob":1}},{"classId":"r_18","type":"linked","directed":false,"entities":["s130v1|e_4|136,147","s130v1|e_1|183,196"],"confidence":{"state":"pre-added","who":["user:ICTAR"],"prob":1}},{"classId":"r_18","type":"linked","directed":false,"entities":["s130v1|e_1|166,177","s130v1|e_4|136,147"],"confidence":{"state":"pre-added","who":["user:ICTAR"],"prob":1}},{"classId":"r_18","type":"linked","directed":false,"entities":["s132v1|e_4|532,542","s132v1|e_1|549,560"],"confidence":{"state":"pre-added","who":["user:ICTAR"],"prob":1}},{"classId":"r_18","type":"linked","directed":false,"entities":["s137v1|e_1|242,253","s137v1|e_4|264,274"],"confidence":{"state":"pre-added","who":["user:ICTAR"],"prob":1}},{"classId":"r_18","type":"linked","directed":false,"entities":["s140v1|e_1|319,330","s140v1|e_4|341,351"],"confidence":{"state":"pre-added","who":["user:ICTAR"],"prob":1}},{"classId":"r_18","type":"linked","directed":false,"entities":["s150v1|e_1|994,1007","s150v1|e_4|1082,1098"],"confidence":{"state":"pre-added","who":["user:ICTAR"],"prob":1}},{"classId":"r_18","type":"linked","directed":false,"entities":["s150v1|e_1|994,1007","s150v1|e_4|1114,1125"],"confidence":{"state":"pre-added","who":["user:ICTAR"],"prob":1}},{"classId":"r_18","type":"linked","directed":false,"entities":["s151v1|e_4|616,629","s151v1|e_1|864,876"],"confidence":{"state":"pre-added","who":["user:ICTAR"],"prob":1}},{"classId":"r_18","type":"linked","directed":false,"entities":["s151v1|e_1|864,876","s151v1|e_4|956,969"],"confidence":{"state":"pre-added","who":["user:ICTAR"],"prob":1}},{"classId":"r_18","type":"linked","directed":false,"entities":["s151v1|e_1|864,876","s151v1|e_4|631,643"],"confidence":{"state":"pre-added","who":["user:ICTAR"],"prob":1}},{"classId":"r_18","type":"linked","directed":false,"entities":["s152v1|e_4|5,18","s152v1|e_1|1041,1055"],"confidence":{"state":"pre-added","who":["user:ICTAR"],"prob":1}},{"classId":"r_18","type":"linked","directed":false,"entities":["s152v1|e_4|5,18","s152v1|e_1|1086,1104"],"confidence":{"state":"pre-added","who":["user:ICTAR"],"prob":1}},{"classId":"r_18","type":"linked","directed":false,"entities":["s152v1|e_4|5,18","s152v1|e_1|1535,1543"],"confidence":{"state":"pre-added","who":["user:ICTAR"],"prob":1}},{"classId":"r_18","type":"linked","directed":false,"entities":["s152v1|e_1|1061,1069","s152v1|e_4|5,18"],"confidence":{"state":"pre-added","who":["user:ICTAR"],"prob":1}},{"classId":"r_18","type":"linked","directed":false,"entities":["s152v1|e_1|1325,1336","s152v1|e_4|5,18"],"confidence":{"state":"pre-added","who":["user:ICTAR"],"prob":1}},{"classId":"r_18","type":"linked","directed":false,"entities":["s152v1|e_1|1356,1364","s152v1|e_4|5,18"],"confidence":{"state":"pre-added","who":["user:ICTAR"],"prob":1}},{"classId":"r_18","type":"linked","directed":false,"entities":["s152v1|e_1|1393,1404","s152v1|e_4|5,18"],"confidence":{"state":"pre-added","who":["user:ICTAR"],"prob":1}},{"classId":"r_18","type":"linked","directed":false,"entities":["s152v1|e_1|1492,1501","s152v1|e_4|5,18"],"confidence":{"state":"pre-added","who":["user:ICTAR"],"prob":1}},{"classId":"r_18","type":"linked","directed":false,"entities":["s153v1|e_1|518,526","s152v1|e_4|5,18"],"confidence":{"state":"pre-added","who":["user:ICTAR"],"prob":1}},{"classId":"r_20","type":"linked","directed":false,"entities":["s68v1|e_4|1089,1102","s71v1|e_7|57,74"],"confidence":{"state":"pre-added","who":["user:ICTAR"],"prob":1}},{"classId":"r_20","type":"linked","directed":false,"entities":["s68v1|e_4|1089,1102","s70v1|e_7|1258,1274"],"confidence":{"state":"pre-added","who":["user:ICTAR"],"prob":1}},{"classId":"r_20","type":"linked","directed":false,"entities":["s71v1|e_7|4,21","s68v1|e_4|1089,1102"],"confidence":{"state":"pre-added","who":["user:ICTAR"],"prob":1}},{"classId":"r_20","type":"linked","directed":false,"entities":["s125v1|e_4|36,50","s126v1|e_7|65,79"],"confidence":{"state":"pre-added","who":["user:ICTAR"],"prob":1}},{"classId":"r_20","type":"linked","directed":false,"entities":["s125v1|e_4|36,50","s126v1|e_7|122,140"],"confidence":{"state":"pre-added","who":["user:ICTAR"],"prob":1}},{"classId":"r_20","type":"linked","directed":false,"entities":["s125v1|e_4|36,50","s126v1|e_7|307,324"],"confidence":{"state":"pre-added","who":["user:ICTAR"],"prob":1}},{"classId":"r_20","type":"linked","directed":false,"entities":["s125v1|e_4|36,50","s126v1|e_7|408,418"],"confidence":{"state":"pre-added","who":["user:ICTAR"],"prob":1}},{"classId":"r_20","type":"linked","directed":false,"entities":["s125v1|e_4|36,50","s126v1|e_7|499,511"],"confidence":{"state":"pre-added","who":["user:ICTAR"],"prob":1}},{"classId":"r_20","type":"linked","directed":false,"entities":["s125v1|e_4|36,50","s126v1|e_7|559,582"],"confidence":{"state":"pre-added","who":["user:ICTAR"],"prob":1}},{"classId":"r_20","type":"linked","directed":false,"entities":["s125v1|e_4|36,50","s126v1|e_7|673,690"],"confidence":{"state":"pre-added","who":["user:ICTAR"],"prob":1}},{"classId":"r_20","type":"linked","directed":false,"entities":["s125v1|e_4|36,50","s126v1|e_7|730,747"],"confidence":{"state":"pre-added","who":["user:ICTAR"],"prob":1}},{"classId":"r_20","type":"linked","directed":false,"entities":["s126v1|e_7|29,46","s125v1|e_4|36,50"],"confidence":{"state":"pre-added","who":["user:ICTAR"],"prob":1}},{"classId":"r_20","type":"linked","directed":false,"entities":["s126v1|e_7|87,95","s125v1|e_4|36,50"],"confidence":{"state":"pre-added","who":["user:ICTAR"],"prob":1}},{"classId":"r_20","type":"linked","directed":false,"entities":["s126v1|e_7|246,270","s125v1|e_4|36,50"],"confidence":{"state":"pre-added","who":["user:ICTAR"],"prob":1}},{"classId":"r_20","type":"linked","directed":false,"entities":["s126v1|e_7|361,380","s125v1|e_4|36,50"],"confidence":{"state":"pre-added","who":["user:ICTAR"],"prob":1}},{"classId":"r_20","type":"linked","directed":false,"entities":["s126v1|e_7|436,449","s125v1|e_4|36,50"],"confidence":{"state":"pre-added","who":["user:ICTAR"],"prob":1}},{"classId":"r_20","type":"linked","directed":false,"entities":["s126v1|e_4|488,497","s126v1|e_7|436,449"],"confidence":{"state":"pre-added","who":["user:ICTAR"],"prob":1}},{"classId":"r_20","type":"linked","directed":false,"entities":["s126v1|e_7|542,551","s125v1|e_4|36,50"],"confidence":{"state":"pre-added","who":["user:ICTAR"],"prob":1}},{"classId":"r_20","type":"linked","directed":false,"entities":["s126v1|e_4|613,622","s126v1|e_7|559,582"],"confidence":{"state":"pre-added","who":["user:ICTAR"],"prob":1}},{"classId":"r_20","type":"linked","directed":false,"entities":["s126v1|e_7|624,648","s125v1|e_4|36,50"],"confidence":{"state":"pre-added","who":["user:ICTAR"],"prob":1}},{"classId":"r_20","type":"linked","directed":false,"entities":["s126v1|e_7|697,713","s125v1|e_4|36,50"],"confidence":{"state":"pre-added","who":["user:ICTAR"],"prob":1}},{"classId":"r_22","type":"linked","directed":false,"entities":["s114v1|e_4|41,54","s114v1|e_2|222,228"],"confidence":{"state":"pre-added","who":["user:ICTAR"],"prob":1}},{"classId":"r_22","type":"linked","directed":false,"entities":["s129v1|e_4|35,49","s129v1|e_2|111,117"],"confidence":{"state":"pre-added","who":["user:ICTAR"],"prob":1}},{"classId":"r_45","type":"linked","directed":false,"entities":["s114v1|e_38|244,261","s114v1|e_4|41,54"],"confidence":{"state":"pre-added","who":["user:ICTAR"],"prob":1}},{"classId":"r_45","type":"linked","directed":false,"entities":["s129v1|e_4|35,49","s129v1|e_38|156,167"],"confidence":{"state":"pre-added","who":["user:ICTAR"],"prob":1}},{"classId":"r_46","type":"linked","directed":false,"entities":["s129v1|e_39|179,189","s129v1|e_4|35,49"],"confidence":{"state":"pre-added","who":["user:ICTAR"],"prob":1}},{"classId":"r_58","type":"linked","directed":false,"entities":["s114v1|e_48|231,241","s114v1|e_4|41,54"],"confidence":{"state":"pre-added","who":["user:ICTAR"],"prob":1}},{"classId":"r_58","type":"linked","directed":false,"entities":["s129v1|e_48|132,142","s129v1|e_4|35,49"],"confidence":{"state":"pre-added","who":["user:ICTAR"],"prob":1}},{"classId":"r_59","type":"linked","directed":false,"entities":["s114v1|e_49|189,197","s114v1|e_4|41,54"],"confidence":{"state":"pre-added","who":["user:ICTAR"],"prob":1}},{"classId":"r_59","type":"linked","directed":false,"entities":["s114v1|e_49|199,207","s114v1|e_4|41,54"],"confidence":{"state":"pre-added","who":["user:ICTAR"],"prob":1}},{"classId":"r_59","type":"linked","directed":false,"entities":["s114v1|e_49|209,219","s114v1|e_4|41,54"],"confidence":{"state":"pre-added","who":["user:ICTAR"],"prob":1}},{"classId":"r_59","type":"linked","directed":false,"entities":["s129v1|e_4|35,49","s129v1|e_49|78,86"],"confidence":{"state":"pre-added","who":["user:ICTAR"],"prob":1}},{"classId":"r_59","type":"linked","directed":false,"entities":["s129v1|e_49|88,98","s129v1|e_4|35,49"],"confidence":{"state":"pre-added","who":["user:ICTAR"],"prob":1}},{"classId":"r_71","type":"linked","directed":false,"entities":["s125v1|e_40|67,81","s125v1|e_4|36,50"],"confidence":{"state":"pre-added","who":["user:ICTAR"],"prob":1}},{"classId":"r_72","type":"linked","directed":false,"entities":["s68v1|e_4|1089,1102","s71v1|e_41|888,893"],"confidence":{"state":"pre-added","who":["user:ICTAR"],"prob":1}},{"classId":"r_72","type":"linked","directed":false,"entities":["s71v1|e_41|543,556","s68v1|e_4|1089,1102"],"confidence":{"state":"pre-added","who":["user:ICTAR"],"prob":1}},{"classId":"r_72","type":"linked","directed":false,"entities":["s106v1|e_41|830,835","s106v1|e_4|30,43"],"confidence":{"state":"pre-added","who":["user:ICTAR"],"prob":1}},{"classId":"r_72","type":"linked","directed":false,"entities":["s125v1|e_4|36,50","s125v1|e_41|59,64"],"confidence":{"state":"pre-added","who":["user:ICTAR"],"prob":1}},{"classId":"r_72","type":"linked","directed":false,"entities":["s137v1|e_41|63,68","s137v1|e_4|82,93"],"confidence":{"state":"pre-added","who":["user:ICTAR"],"prob":1}},{"classId":"r_72","type":"linked","directed":false,"entities":["s137v1|e_4|102,113","s137v1|e_41|63,68"],"confidence":{"state":"pre-added","who":["user:ICTAR"],"prob":1}},{"classId":"r_72","type":"linked","directed":false,"entities":["s137v1|e_4|123,136","s137v1|e_41|63,68"],"confidence":{"state":"pre-added","who":["user:ICTAR"],"prob":1}},{"classId":"r_72","type":"linked","directed":false,"entities":["s137v1|e_4|145,158","s137v1|e_41|63,68"],"confidence":{"state":"pre-added","who":["user:ICTAR"],"prob":1}},{"classId":"r_72","type":"linked","directed":false,"entities":["s152v1|e_41|1258,1266","s152v1|e_4|5,18"],"confidence":{"state":"pre-added","who":["user:ICTAR"],"prob":1}}]}