{"annotatable":{"parts":["s1v1","s2v1","s3v1","s4v1","s5v1","s6v1","s7v1","s8v1","s9v1","s10v1","s11v1","s12v1","s13v1","s14v1","s15v1","s16v1","s17v1","s18v1","s19v1","s20v1","s21v1","s22v1","s23v1","s24v1","s25v1","s26v1","s27v1","s28v1"]},"anncomplete":true,"sources":[],"metas":{"m_11":{"value":false,"confidence":{"state":"pre-added","who":["user:ICTAR"],"prob":1}},"m_9":{"value":true,"confidence":{"state":"pre-added","who":["user:ICTAR"],"prob":1}},"m_10":{"value":true,"confidence":{"state":"pre-added","who":["user:ICTAR"],"prob":1}},"m_14":{"value":true,"confidence":{"state":"pre-added","who":["user:ICTAR"],"prob":1}},"m_16":{"value":"South Victoria Land","confidence":{"state":"pre-added","who":["user:ICTAR"],"prob":1}}},"entities":[{"classId":"e_4","part":"s2v1","offsets":[{"start":2419,"text":"deep lakes"}],"coordinates":[],"confidence":{"state":"pre-added","who":["ml:dpeker"],"prob":0.7331},"fields":{},"normalizations":{"n_34":{"source":{"name":"GeoNamesSCAR","id":"124219","url":null},"recName":"Deep Lake","confidence":{"state":"pre-added","who":["ml:dpeker"],"prob":0.7331}}}},{"classId":"e_4","part":"s2v1","offsets":[{"start":2933,"text":"McMurdo Dry Valleys"}],"coordinates":[],"confidence":{"state":"pre-added","who":["ml:dpeker"],"prob":0.9671},"fields":{},"normalizations":{"n_34":{"source":{"name":"GeoNamesSCAR","id":"113892","url":null},"recName":"McMurdo Dry Valleys","confidence":{"state":"pre-added","who":["ml:dpeker"],"prob":0.9671}}}},{"classId":"e_4","part":"s3v1","offsets":[{"start":1013,"text":"Lake Fryxell"}],"coordinates":[],"confidence":{"state":"pre-added","who":["ml:dpeker"],"prob":0.9416},"fields":{},"normalizations":{"n_34":{"source":{"name":"GeoNamesSCAR","id":"125440","url":null},"recName":"Fryxell, Lake","confidence":{"state":"pre-added","who":["ml:dpeker"],"prob":0.9416}}}},{"classId":"e_4","part":"s3v1","offsets":[{"start":1182,"text":"Edward VII Peninsula"}],"coordinates":[],"confidence":{"state":"pre-added","who":["ml:dpeker"],"prob":0.9692},"fields":{},"normalizations":{"n_34":{"source":{"name":"GeoNamesSCAR","id":"124691","url":null},"recName":"Edward VII Peninsula","confidence":{"state":"pre-added","who":["ml:dpeker"],"prob":0.9692}}}},{"classId":"e_4","part":"s3v1","offsets":[{"start":1214,"text":"Ross Island"}],"coordinates":[],"confidence":{"state":"pre-added","who":["ml:dpeker"],"prob":0.9349},"fields":{},"normalizations":{"n_34":{"source":{"name":"GeoNamesSCAR","id":"130958","url":null},"recName":"Ross Island","confidence":{"state":"pre-added","who":["ml:dpeker"],"prob":0.9349}}}},{"classId":"e_4","part":"s3v1","offsets":[{"start":1278,"text":"McMurdo Dry Valleys"}],"coordinates":[],"confidence":{"state":"pre-added","who":["ml:dpeker"],"prob":0.9671},"fields":{},"normalizations":{"n_34":{"source":{"name":"GeoNamesSCAR","id":"113892","url":null},"recName":"McMurdo Dry Valleys","confidence":{"state":"pre-added","who":["ml:dpeker"],"prob":0.9671}}}},{"classId":"e_4","part":"s3v1","offsets":[{"start":1303,"text":"Mount Howe"}],"coordinates":[],"confidence":{"state":"pre-added","who":["ml:dpeker"],"prob":0.9266},"fields":{},"normalizations":{"n_34":{"source":{"name":"GeoNamesSCAR","id":"126776","url":null},"recName":"Howe, Mount","confidence":{"state":"pre-added","who":["ml:dpeker"],"prob":0.9266}}}},{"classId":"e_4","part":"s3v1","offsets":[{"start":1337,"text":"Pyramid Trough"}],"coordinates":[],"confidence":{"state":"pre-added","who":["ml:dpeker"],"prob":0.9518},"fields":{},"normalizations":{"n_34":{"source":{"name":"GeoNamesSCAR","id":"130451","url":null},"recName":"Pyramid Trough","confidence":{"state":"pre-added","who":["ml:dpeker"],"prob":0.9518}}}},{"classId":"e_4","part":"s3v1","offsets":[{"start":1411,"text":"Taylor Valley"}],"coordinates":[],"confidence":{"state":"pre-added","who":["ml:dpeker"],"prob":0.9472},"fields":{},"normalizations":{"n_34":{"source":{"name":"GeoNamesSCAR","id":"132512","url":null},"recName":"Taylor Valley","confidence":{"state":"pre-added","who":["ml:dpeker"],"prob":0.9472}}}},{"classId":"e_41","part":"s5v1","offsets":[{"start":2036,"text":"Microcoleus vaginatus"}],"coordinates":[],"confidence":{"state":"pre-added","who":["ml:dpeker"],"prob":0.971},"fields":{},"normalizations":{"n_55":{"source":{"name":"CyanobacteriaNames","id":"micrva","url":null},"recName":"Microcoleus vaginatus","confidence":{"state":"pre-added","who":["ml:dpeker"],"prob":0.971}}}},{"classId":"e_41","part":"s5v1","offsets":[{"start":2059,"text":"Nostoc spp"}],"coordinates":[],"confidence":{"state":"pre-added","who":["ml:dpeker"],"prob":0.8719},"fields":{},"normalizations":{"n_55":{"source":{"name":"CyanobacteriaNames","id":"nostsp","url":null},"recName":"Nostoc","confidence":{"state":"pre-added","who":["ml:dpeker"],"prob":0.8719}}}},{"classId":"e_41","part":"s5v1","offsets":[{"start":2124,"text":"P. frigidum"}],"coordinates":[],"confidence":{"state":"pre-added","who":["ml:dpeker"],"prob":0.9349},"fields":{},"normalizations":{"n_55":{"source":{"name":"CyanobacteriaNames","id":"phfrig","url":null},"recName":"Phormidium frigidum","confidence":{"state":"pre-added","who":["ml:dpeker"],"prob":0.9349}}}},{"classId":"e_41","part":"s5v1","offsets":[{"start":2193,"text":"P. uncinatum"}],"coordinates":[],"confidence":{"state":"pre-added","who":["ml:dpeker"],"prob":0.9416},"fields":{},"normalizations":{"n_55":{"source":{"name":"CyanobacteriaNames","id":"phunci","url":null},"recName":"Phormidium uncinatum","confidence":{"state":"pre-added","who":["ml:dpeker"],"prob":0.9416}}}},{"classId":"e_4","part":"s5v1","offsets":[{"start":2344,"text":"Lake Fryxell"}],"coordinates":[],"confidence":{"state":"pre-added","who":["ml:dpeker"],"prob":0.9416},"fields":{},"normalizations":{"n_34":{"source":{"name":"GeoNamesSCAR","id":"125440","url":null},"recName":"Fryxell, Lake","confidence":{"state":"pre-added","who":["ml:dpeker"],"prob":0.9416}}}},{"classId":"e_41","part":"s5v1","offsets":[{"start":2382,"text":"Lyngbya spp"}],"coordinates":[{"x":"46.77","y":"646.69"},{"x":"98.73","y":"651.62"}],"confidence":{"state":"pre-added","who":["user:ICTAR"],"prob":1},"fields":{},"normalizations":{"n_55":{"source":{"name":"CyanobacteriaNames","id":"lyngsp","url":null},"recName":"","confidence":{"state":"pre-added","who":["user:ICTAR"],"prob":1}}}},{"classId":"e_41","part":"s5v1","offsets":[{"start":2399,"text":"Phormidium spp"}],"coordinates":[],"confidence":{"state":"pre-added","who":["ml:dpeker"],"prob":0.9106},"fields":{},"normalizations":{"n_55":{"source":{"name":"CyanobacteriaNames","id":"phorsp","url":null},"recName":"Phormidium sp.","confidence":{"state":"pre-added","who":["ml:dpeker"],"prob":0.9106}}}},{"classId":"e_2","part":"s8v1","offsets":[{"start":404,"text":"P. murrayi"}],"coordinates":[],"confidence":{"state":"pre-added","who":["ml:dpeker"],"prob":0.9266},"fields":{},"normalizations":{"n_33":{"source":{"name":"NematodeNames","id":"plmurr","url":null},"recName":"Plectus murrayi","confidence":{"state":"pre-added","who":["ml:dpeker"],"prob":0.9266}}}},{"classId":"e_41","part":"s9v1","offsets":[{"start":1013,"text":"Nostoc spp"}],"coordinates":[],"confidence":{"state":"pre-added","who":["ml:dpeker"],"prob":0.8719},"fields":{},"normalizations":{"n_55":{"source":{"name":"CyanobacteriaNames","id":"nostsp","url":null},"recName":"Nostoc","confidence":{"state":"pre-added","who":["ml:dpeker"],"prob":0.8719}}}},{"classId":"e_2","part":"s9v1","offsets":[{"start":1026,"text":"P. murrayi"}],"coordinates":[],"confidence":{"state":"pre-added","who":["ml:dpeker"],"prob":0.9266},"fields":{},"normalizations":{"n_33":{"source":{"name":"NematodeNames","id":"plmurr","url":null},"recName":"Plectus murrayi","confidence":{"state":"pre-added","who":["ml:dpeker"],"prob":0.9266}}}},{"classId":"e_41","part":"s10v1","offsets":[{"start":1013,"text":"Nostoc spp"}],"coordinates":[],"confidence":{"state":"pre-added","who":["ml:dpeker"],"prob":0.8719},"fields":{},"normalizations":{"n_55":{"source":{"name":"CyanobacteriaNames","id":"nostsp","url":null},"recName":"Nostoc","confidence":{"state":"pre-added","who":["ml:dpeker"],"prob":0.8719}}}},{"classId":"e_2","part":"s10v1","offsets":[{"start":1026,"text":"P. murrayi"}],"coordinates":[],"confidence":{"state":"pre-added","who":["ml:dpeker"],"prob":0.9266},"fields":{},"normalizations":{"n_33":{"source":{"name":"NematodeNames","id":"plmurr","url":null},"recName":"Plectus murrayi","confidence":{"state":"pre-added","who":["ml:dpeker"],"prob":0.9266}}}},{"classId":"e_41","part":"s11v1","offsets":[{"start":115,"text":"Calothrix spp"}],"coordinates":[],"confidence":{"state":"pre-added","who":["ml:dpeker"],"prob":0.9032},"fields":{},"normalizations":{"n_55":{"source":{"name":"CyanobacteriaNames","id":"calosp","url":null},"recName":"Calothrix sp.","confidence":{"state":"pre-added","who":["ml:dpeker"],"prob":0.9032}}}},{"classId":"e_41","part":"s11v1","offsets":[{"start":284,"text":"Nostoc spp"}],"coordinates":[],"confidence":{"state":"pre-added","who":["ml:dpeker"],"prob":0.8719},"fields":{},"normalizations":{"n_55":{"source":{"name":"CyanobacteriaNames","id":"nostsp","url":null},"recName":"Nostoc","confidence":{"state":"pre-added","who":["ml:dpeker"],"prob":0.8719}}}},{"classId":"e_41","part":"s11v1","offsets":[{"start":297,"text":"Oscillatoria spp"}],"coordinates":[],"confidence":{"state":"pre-added","who":["ml:dpeker"],"prob":0.9226},"fields":{},"normalizations":{"n_55":{"source":{"name":"CyanobacteriaNames","id":"oscisp","url":null},"recName":"Oscillatoria sp.","confidence":{"state":"pre-added","who":["ml:dpeker"],"prob":0.9226}}}},{"classId":"e_41","part":"s11v1","offsets":[{"start":316,"text":"Phormidium spp"}],"coordinates":[],"confidence":{"state":"pre-added","who":["ml:dpeker"],"prob":0.9106},"fields":{},"normalizations":{"n_55":{"source":{"name":"CyanobacteriaNames","id":"phorsp","url":null},"recName":"Phormidium sp.","confidence":{"state":"pre-added","who":["ml:dpeker"],"prob":0.9106}}}},{"classId":"e_41","part":"s11v1","offsets":[{"start":1297,"text":"Phormidium spp"}],"coordinates":[],"confidence":{"state":"pre-added","who":["ml:dpeker"],"prob":0.9106},"fields":{},"normalizations":{"n_55":{"source":{"name":"CyanobacteriaNames","id":"phorsp","url":null},"recName":"Phormidium sp.","confidence":{"state":"pre-added","who":["ml:dpeker"],"prob":0.9106}}}},{"classId":"e_4","part":"s11v1","offsets":[{"start":4592,"text":"McMurdo Ice Shelf"}],"coordinates":[],"confidence":{"state":"pre-added","who":["ml:dpeker"],"prob":0.9622},"fields":{},"normalizations":{"n_34":{"source":{"name":"GeoNamesSCAR","id":"128723","url":null},"recName":"McMurdo Ice Shelf","confidence":{"state":"pre-added","who":["ml:dpeker"],"prob":0.9622}}}},{"classId":"e_41","part":"s12v1","offsets":[{"start":939,"text":"O. sancta"}],"coordinates":[],"confidence":{"state":"pre-added","who":["ml:dpeker"],"prob":0.9163},"fields":{},"normalizations":{"n_55":{"source":{"name":"CyanobacteriaNames","id":"ossanc","url":null},"recName":"Oscillatoria sancta","confidence":{"state":"pre-added","who":["ml:dpeker"],"prob":0.9163}}}},{"classId":"e_41","part":"s12v1","offsets":[{"start":953,"text":"Nostoc spp"}],"coordinates":[],"confidence":{"state":"pre-added","who":["ml:dpeker"],"prob":0.8719},"fields":{},"normalizations":{"n_55":{"source":{"name":"CyanobacteriaNames","id":"nostsp","url":null},"recName":"Nostoc","confidence":{"state":"pre-added","who":["ml:dpeker"],"prob":0.8719}}}},{"classId":"e_4","part":"s12v1","offsets":[{"start":1385,"text":"Ross Island"}],"coordinates":[],"confidence":{"state":"pre-added","who":["ml:dpeker"],"prob":0.9349},"fields":{},"normalizations":{"n_34":{"source":{"name":"GeoNamesSCAR","id":"130958","url":null},"recName":"Ross Island","confidence":{"state":"pre-added","who":["ml:dpeker"],"prob":0.9349}}}},{"classId":"e_41","part":"s12v1","offsets":[{"start":3959,"text":"Anabaena sp"}],"coordinates":[],"confidence":{"state":"pre-added","who":["ml:dpeker"],"prob":0.8842},"fields":{},"normalizations":{"n_55":{"source":{"name":"CyanobacteriaNames","id":"anabsp","url":null},"recName":"Anabaena sp.","confidence":{"state":"pre-added","who":["ml:dpeker"],"prob":0.8842}}}},{"classId":"e_47","part":"s13v1","offsets":[{"start":3334,"text":"Filamentous strains isolated from McMurdo Ice Shelf were also considered psy- chrophilic (opt., ? 8 C; max., ? 24 C) as well as Oscillatoria sp. Ant-G16, P. autumnale Ant-Lunch and P. autumnale Ant-Orange (opt., from ? 8 to ? 12 C) (Nadeau & Castenholz, 2000)."}],"coordinates":[{"x":"352.18","y":"310.71"},{"x":"458.21","y":"377.63"}],"confidence":{"state":"pre-added","who":["user:ICTAR"],"prob":1},"fields":{},"normalizations":{}},{"classId":"e_4","part":"s13v1","offsets":[{"start":3368,"text":"McMurdo Ice Shelf"}],"coordinates":[],"confidence":{"state":"pre-added","who":["ml:dpeker"],"prob":0.9622},"fields":{},"normalizations":{"n_34":{"source":{"name":"GeoNamesSCAR","id":"128723","url":null},"recName":"McMurdo Ice Shelf","confidence":{"state":"pre-added","who":["ml:dpeker"],"prob":0.9622}}}},{"classId":"e_41","part":"s13v1","offsets":[{"start":3462,"text":"Oscillatoria sp"}],"coordinates":[],"confidence":{"state":"pre-added","who":["ml:dpeker"],"prob":0.917},"fields":{},"normalizations":{"n_55":{"source":{"name":"CyanobacteriaNames","id":"oscisp","url":null},"recName":"Oscillatoria sp.","confidence":{"state":"pre-added","who":["ml:dpeker"],"prob":0.917}}}},{"classId":"e_41","part":"s13v1","offsets":[{"start":3488,"text":"P. autumnale"}],"coordinates":[{"x":"396.34","y":"347.81"},{"x":"451.81","y":"352.74"}],"confidence":{"state":"pre-added","who":["user:ICTAR"],"prob":1},"fields":{},"normalizations":{"n_55":{"source":{"name":"CyanobacteriaNames","id":"phautu","url":null},"recName":"","confidence":{"state":"pre-added","who":["user:ICTAR"],"prob":1}}}},{"classId":"e_41","part":"s13v1","offsets":[{"start":3515,"text":"P. autumnale"}],"coordinates":[{"x":"304.78","y":"360.29"},{"x":"360.95","y":"365.22"}],"confidence":{"state":"pre-added","who":["user:ICTAR"],"prob":1},"fields":{},"normalizations":{"n_55":{"source":{"name":"CyanobacteriaNames","id":"phautu","url":null},"recName":"","confidence":{"state":"pre-added","who":["user:ICTAR"],"prob":1}}}},{"classId":"e_4","part":"s13v1","offsets":[{"start":4541,"text":"McMurdo Ice Shelf"}],"coordinates":[],"confidence":{"state":"pre-added","who":["ml:dpeker"],"prob":0.9622},"fields":{},"normalizations":{"n_34":{"source":{"name":"GeoNamesSCAR","id":"128723","url":null},"recName":"McMurdo Ice Shelf","confidence":{"state":"pre-added","who":["ml:dpeker"],"prob":0.9622}}}},{"classId":"e_2","part":"s14v1","offsets":[{"start":3073,"text":"P. murrayi"}],"coordinates":[],"confidence":{"state":"pre-added","who":["ml:dpeker"],"prob":0.9266},"fields":{},"normalizations":{"n_33":{"source":{"name":"NematodeNames","id":"plmurr","url":null},"recName":"Plectus murrayi","confidence":{"state":"pre-added","who":["ml:dpeker"],"prob":0.9266}}}},{"classId":"e_2","part":"s14v1","offsets":[{"start":3194,"text":"P. murrayi"}],"coordinates":[],"confidence":{"state":"pre-added","who":["ml:dpeker"],"prob":0.9266},"fields":{},"normalizations":{"n_33":{"source":{"name":"NematodeNames","id":"plmurr","url":null},"recName":"Plectus murrayi","confidence":{"state":"pre-added","who":["ml:dpeker"],"prob":0.9266}}}},{"classId":"e_4","part":"s14v1","offsets":[{"start":4143,"text":"McMurdo Dry Valleys"}],"coordinates":[],"confidence":{"state":"pre-added","who":["ml:dpeker"],"prob":0.9671},"fields":{},"normalizations":{"n_34":{"source":{"name":"GeoNamesSCAR","id":"113892","url":null},"recName":"McMurdo Dry Valleys","confidence":{"state":"pre-added","who":["ml:dpeker"],"prob":0.9671}}}},{"classId":"e_4","part":"s16v1","offsets":[{"start":2515,"text":"Lake Vanda"}],"coordinates":[],"confidence":{"state":"pre-added","who":["ml:dpeker"],"prob":0.9266},"fields":{},"normalizations":{"n_34":{"source":{"name":"GeoNamesSCAR","id":"133142","url":null},"recName":"Vanda, Lake","confidence":{"state":"pre-added","who":["ml:dpeker"],"prob":0.9266}}}},{"classId":"e_41","part":"s16v1","offsets":[{"start":3390,"text":"Nostoc spp"}],"coordinates":[],"confidence":{"state":"pre-added","who":["ml:dpeker"],"prob":0.8719},"fields":{},"normalizations":{"n_55":{"source":{"name":"CyanobacteriaNames","id":"nostsp","url":null},"recName":"Nostoc","confidence":{"state":"pre-added","who":["ml:dpeker"],"prob":0.8719}}}},{"classId":"e_41","part":"s16v1","offsets":[{"start":4377,"text":"Oscillatoria sancta"}],"coordinates":[],"confidence":{"state":"pre-added","who":["ml:dpeker"],"prob":0.9671},"fields":{},"normalizations":{"n_55":{"source":{"name":"CyanobacteriaNames","id":"ossanc","url":null},"recName":"Oscillatoria sancta","confidence":{"state":"pre-added","who":["ml:dpeker"],"prob":0.9671}}}},{"classId":"e_41","part":"s16v1","offsets":[{"start":4472,"text":"Nostoc"}],"coordinates":[],"confidence":{"state":"pre-added","who":["ml:dpeker"],"prob":0.8617},"fields":{},"normalizations":{"n_55":{"source":{"name":"CyanobacteriaNames","id":"nostsp","url":null},"recName":"Nostoc","confidence":{"state":"pre-added","who":["ml:dpeker"],"prob":0.8617}}}},{"classId":"e_41","part":"s17v1","offsets":[{"start":471,"text":"Gloeocapsa sp"}],"coordinates":[],"confidence":{"state":"pre-added","who":["ml:dpeker"],"prob":0.9032},"fields":{},"normalizations":{"n_55":{"source":{"name":"CyanobacteriaNames","id":"gloesp","url":null},"recName":"Gloeocapsa sp.","confidence":{"state":"pre-added","who":["ml:dpeker"],"prob":0.9032}}}},{"classId":"e_41","part":"s17v1","offsets":[{"start":521,"text":"Phormidium sp"}],"coordinates":[],"confidence":{"state":"pre-added","who":["ml:dpeker"],"prob":0.9032},"fields":{},"normalizations":{"n_55":{"source":{"name":"CyanobacteriaNames","id":"phorsp","url":null},"recName":"Phormidium sp.","confidence":{"state":"pre-added","who":["ml:dpeker"],"prob":0.9032}}}},{"classId":"e_4","part":"s18v1","offsets":[{"start":251,"text":"McMurdo Dry Valleys"}],"coordinates":[],"confidence":{"state":"pre-added","who":["ml:dpeker"],"prob":0.9671},"fields":{},"normalizations":{"n_34":{"source":{"name":"GeoNamesSCAR","id":"113892","url":null},"recName":"McMurdo Dry Valleys","confidence":{"state":"pre-added","who":["ml:dpeker"],"prob":0.9671}}}},{"classId":"e_41","part":"s18v1","offsets":[{"start":800,"text":"Nostoc spp"}],"coordinates":[],"confidence":{"state":"pre-added","who":["ml:dpeker"],"prob":0.8719},"fields":{},"normalizations":{"n_55":{"source":{"name":"CyanobacteriaNames","id":"nostsp","url":null},"recName":"Nostoc","confidence":{"state":"pre-added","who":["ml:dpeker"],"prob":0.8719}}}},{"classId":"e_41","part":"s18v1","offsets":[{"start":862,"text":"Phormidium spp"}],"coordinates":[],"confidence":{"state":"pre-added","who":["ml:dpeker"],"prob":0.9106},"fields":{},"normalizations":{"n_55":{"source":{"name":"CyanobacteriaNames","id":"phorsp","url":null},"recName":"Phormidium sp.","confidence":{"state":"pre-added","who":["ml:dpeker"],"prob":0.9106}}}},{"classId":"e_41","part":"s18v1","offsets":[{"start":1427,"text":"Phormidium spp"}],"coordinates":[],"confidence":{"state":"pre-added","who":["ml:dpeker"],"prob":0.9106},"fields":{},"normalizations":{"n_55":{"source":{"name":"CyanobacteriaNames","id":"phorsp","url":null},"recName":"Phormidium sp.","confidence":{"state":"pre-added","who":["ml:dpeker"],"prob":0.9106}}}},{"classId":"e_41","part":"s18v1","offsets":[{"start":1516,"text":"Nostoc spp"}],"coordinates":[],"confidence":{"state":"pre-added","who":["ml:dpeker"],"prob":0.8719},"fields":{},"normalizations":{"n_55":{"source":{"name":"CyanobacteriaNames","id":"nostsp","url":null},"recName":"Nostoc","confidence":{"state":"pre-added","who":["ml:dpeker"],"prob":0.8719}}}},{"classId":"e_4","part":"s18v1","offsets":[{"start":2191,"text":"McMurdo Dry Valleys"}],"coordinates":[],"confidence":{"state":"pre-added","who":["ml:dpeker"],"prob":0.9671},"fields":{},"normalizations":{"n_34":{"source":{"name":"GeoNamesSCAR","id":"113892","url":null},"recName":"McMurdo Dry Valleys","confidence":{"state":"pre-added","who":["ml:dpeker"],"prob":0.9671}}}},{"classId":"e_4","part":"s18v1","offsets":[{"start":2255,"text":"Lake Joyce"}],"coordinates":[],"confidence":{"state":"pre-added","who":["ml:dpeker"],"prob":0.9266},"fields":{},"normalizations":{"n_34":{"source":{"name":"GeoNamesSCAR","id":"127184","url":null},"recName":"Joyce, Lake","confidence":{"state":"pre-added","who":["ml:dpeker"],"prob":0.9266}}}},{"classId":"e_41","part":"s18v1","offsets":[{"start":3849,"text":"Nostoc"}],"coordinates":[],"confidence":{"state":"pre-added","who":["ml:dpeker"],"prob":0.8617},"fields":{},"normalizations":{"n_55":{"source":{"name":"CyanobacteriaNames","id":"nostsp","url":null},"recName":"Nostoc","confidence":{"state":"pre-added","who":["ml:dpeker"],"prob":0.8617}}}},{"classId":"e_41","part":"s19v1","offsets":[{"start":259,"text":"Nostoc"}],"coordinates":[],"confidence":{"state":"pre-added","who":["ml:dpeker"],"prob":0.8617},"fields":{},"normalizations":{"n_55":{"source":{"name":"CyanobacteriaNames","id":"nostsp","url":null},"recName":"Nostoc","confidence":{"state":"pre-added","who":["ml:dpeker"],"prob":0.8617}}}},{"classId":"e_41","part":"s19v1","offsets":[{"start":371,"text":"Chamaesiphon"}],"coordinates":[{"x":"155.17","y":"490.34"},{"x":"215.07","y":"495.27"}],"confidence":{"state":"pre-added","who":["user:ICTAR"],"prob":1},"fields":{},"normalizations":{"n_55":{"source":{"name":"CyanobacteriaNames","id":"chamsp","url":null},"recName":"","confidence":{"state":"pre-added","who":["user:ICTAR"],"prob":1}}}},{"classId":"e_4","part":"s19v1","offsets":[{"start":417,"text":"Wright Valley"}],"coordinates":[],"confidence":{"state":"pre-added","who":["ml:dpeker"],"prob":0.9472},"fields":{},"normalizations":{"n_34":{"source":{"name":"GeoNamesSCAR","id":"133876","url":null},"recName":"Wright Valley","confidence":{"state":"pre-added","who":["ml:dpeker"],"prob":0.9472}}}},{"classId":"e_4","part":"s19v1","offsets":[{"start":440,"text":"McMurdo Dry Valleys"}],"coordinates":[],"confidence":{"state":"pre-added","who":["ml:dpeker"],"prob":0.9671},"fields":{},"normalizations":{"n_34":{"source":{"name":"GeoNamesSCAR","id":"113892","url":null},"recName":"McMurdo Dry Valleys","confidence":{"state":"pre-added","who":["ml:dpeker"],"prob":0.9671}}}},{"classId":"e_4","part":"s19v1","offsets":[{"start":465,"text":"Canada Glacier"}],"coordinates":[],"confidence":{"state":"pre-added","who":["ml:dpeker"],"prob":0.9518},"fields":{},"normalizations":{"n_34":{"source":{"name":"GeoNamesSCAR","id":"123257","url":null},"recName":"Canada Glacier","confidence":{"state":"pre-added","who":["ml:dpeker"],"prob":0.9518}}}},{"classId":"e_4","part":"s19v1","offsets":[{"start":826,"text":"McMurdo Dry Valleys"}],"coordinates":[],"confidence":{"state":"pre-added","who":["ml:dpeker"],"prob":0.9671},"fields":{},"normalizations":{"n_34":{"source":{"name":"GeoNamesSCAR","id":"113892","url":null},"recName":"McMurdo Dry Valleys","confidence":{"state":"pre-added","who":["ml:dpeker"],"prob":0.9671}}}},{"classId":"e_41","part":"s19v1","offsets":[{"start":1181,"text":"Phormidium spp"}],"coordinates":[],"confidence":{"state":"pre-added","who":["ml:dpeker"],"prob":0.9106},"fields":{},"normalizations":{"n_55":{"source":{"name":"CyanobacteriaNames","id":"phorsp","url":null},"recName":"Phormidium sp.","confidence":{"state":"pre-added","who":["ml:dpeker"],"prob":0.9106}}}},{"classId":"e_41","part":"s19v1","offsets":[{"start":1340,"text":"Nostoc sp"}],"coordinates":[],"confidence":{"state":"pre-added","who":["ml:dpeker"],"prob":0.8568},"fields":{},"normalizations":{"n_55":{"source":{"name":"CyanobacteriaNames","id":"nostsp","url":null},"recName":"Nostoc","confidence":{"state":"pre-added","who":["ml:dpeker"],"prob":0.8568}}}},{"classId":"e_41","part":"s19v1","offsets":[{"start":2047,"text":"Oscillatoria sp"}],"coordinates":[],"confidence":{"state":"pre-added","who":["ml:dpeker"],"prob":0.917},"fields":{},"normalizations":{"n_55":{"source":{"name":"CyanobacteriaNames","id":"oscisp","url":null},"recName":"Oscillatoria sp.","confidence":{"state":"pre-added","who":["ml:dpeker"],"prob":0.917}}}},{"classId":"e_41","part":"s19v1","offsets":[{"start":2068,"text":"Phormidium sp"}],"coordinates":[],"confidence":{"state":"pre-added","who":["ml:dpeker"],"prob":0.9032},"fields":{},"normalizations":{"n_55":{"source":{"name":"CyanobacteriaNames","id":"phorsp","url":null},"recName":"Phormidium sp.","confidence":{"state":"pre-added","who":["ml:dpeker"],"prob":0.9032}}}},{"classId":"e_4","part":"s20v1","offsets":[{"start":672,"text":"McMurdo Dry Valleys"}],"coordinates":[],"confidence":{"state":"pre-added","who":["ml:dpeker"],"prob":0.9671},"fields":{},"normalizations":{"n_34":{"source":{"name":"GeoNamesSCAR","id":"113892","url":null},"recName":"McMurdo Dry Valleys","confidence":{"state":"pre-added","who":["ml:dpeker"],"prob":0.9671}}}},{"classId":"e_41","part":"s20v1","offsets":[{"start":1146,"text":"Nostoc sp"}],"coordinates":[],"confidence":{"state":"pre-added","who":["ml:dpeker"],"prob":0.8568},"fields":{},"normalizations":{"n_55":{"source":{"name":"CyanobacteriaNames","id":"nostsp","url":null},"recName":"Nostoc","confidence":{"state":"pre-added","who":["ml:dpeker"],"prob":0.8568}}}},{"classId":"e_41","part":"s20v1","offsets":[{"start":2255,"text":"Nostoc sp"}],"coordinates":[],"confidence":{"state":"pre-added","who":["ml:dpeker"],"prob":0.8568},"fields":{},"normalizations":{"n_55":{"source":{"name":"CyanobacteriaNames","id":"nostsp","url":null},"recName":"Nostoc","confidence":{"state":"pre-added","who":["ml:dpeker"],"prob":0.8568}}}},{"classId":"e_4","part":"s21v1","offsets":[{"start":2265,"text":"Taylor Valley"}],"coordinates":[],"confidence":{"state":"pre-added","who":["ml:dpeker"],"prob":0.9472},"fields":{},"normalizations":{"n_34":{"source":{"name":"GeoNamesSCAR","id":"132512","url":null},"recName":"Taylor Valley","confidence":{"state":"pre-added","who":["ml:dpeker"],"prob":0.9472}}}},{"classId":"e_4","part":"s21v1","offsets":[{"start":5014,"text":"Ross Island"}],"coordinates":[],"confidence":{"state":"pre-added","who":["ml:dpeker"],"prob":0.9349},"fields":{},"normalizations":{"n_34":{"source":{"name":"GeoNamesSCAR","id":"130958","url":null},"recName":"Ross Island","confidence":{"state":"pre-added","who":["ml:dpeker"],"prob":0.9349}}}},{"classId":"e_4","part":"s21v1","offsets":[{"start":5136,"text":"Edward VII Peninsula"}],"coordinates":[],"confidence":{"state":"pre-added","who":["ml:dpeker"],"prob":0.9692},"fields":{},"normalizations":{"n_34":{"source":{"name":"GeoNamesSCAR","id":"124691","url":null},"recName":"Edward VII Peninsula","confidence":{"state":"pre-added","who":["ml:dpeker"],"prob":0.9692}}}},{"classId":"e_4","part":"s22v1","offsets":[{"start":134,"text":"La Gorce Mountains"}],"coordinates":[],"confidence":{"state":"pre-added","who":["ml:dpeker"],"prob":0.9648},"fields":{},"normalizations":{"n_34":{"source":{"name":"GeoNamesSCAR","id":"127683","url":null},"recName":"La Gorce Mountains","confidence":{"state":"pre-added","who":["ml:dpeker"],"prob":0.9648}}}},{"classId":"e_41","part":"s22v1","offsets":[{"start":306,"text":"Oscillatori- aceae"}],"coordinates":[],"confidence":{"state":"pre-added","who":["ml:dpeker"],"prob":0.818},"fields":{},"normalizations":{"n_55":{"source":{"name":"CyanobacteriaNames","id":"oscifa","url":null},"recName":"Oscillatoriaceae","confidence":{"state":"pre-added","who":["ml:dpeker"],"prob":0.818}}}},{"classId":"e_4","part":"s22v1","offsets":[{"start":526,"text":"Taylor val- ley"}],"coordinates":[],"confidence":{"state":"pre-added","who":["ml:dpeker"],"prob":0.7483},"fields":{},"normalizations":{"n_34":{"source":{"name":"GeoNamesSCAR","id":"132512","url":null},"recName":"Taylor Valley","confidence":{"state":"pre-added","who":["ml:dpeker"],"prob":0.7483}}}},{"classId":"e_4","part":"s22v1","offsets":[{"start":4462,"text":"McMurdo Dry Valleys"}],"coordinates":[],"confidence":{"state":"pre-added","who":["ml:dpeker"],"prob":0.9671},"fields":{},"normalizations":{"n_34":{"source":{"name":"GeoNamesSCAR","id":"113892","url":null},"recName":"McMurdo Dry Valleys","confidence":{"state":"pre-added","who":["ml:dpeker"],"prob":0.9671}}}},{"classId":"e_4","part":"s22v1","offsets":[{"start":4670,"text":"McMurdo Ice Shelf"}],"coordinates":[],"confidence":{"state":"pre-added","who":["ml:dpeker"],"prob":0.9622},"fields":{},"normalizations":{"n_34":{"source":{"name":"GeoNamesSCAR","id":"128723","url":null},"recName":"McMurdo Ice Shelf","confidence":{"state":"pre-added","who":["ml:dpeker"],"prob":0.9622}}}},{"classId":"e_4","part":"s22v1","offsets":[{"start":5528,"text":"Taylor Valley"}],"coordinates":[],"confidence":{"state":"pre-added","who":["ml:dpeker"],"prob":0.9472},"fields":{},"normalizations":{"n_34":{"source":{"name":"GeoNamesSCAR","id":"132512","url":null},"recName":"Taylor Valley","confidence":{"state":"pre-added","who":["ml:dpeker"],"prob":0.9472}}}},{"classId":"e_4","part":"s22v1","offsets":[{"start":5731,"text":"Deep Lake"}],"coordinates":[],"confidence":{"state":"pre-added","who":["ml:dpeker"],"prob":0.9163},"fields":{},"normalizations":{"n_34":{"source":{"name":"GeoNamesSCAR","id":"124219","url":null},"recName":"Deep Lake","confidence":{"state":"pre-added","who":["ml:dpeker"],"prob":0.9163}}}},{"classId":"e_4","part":"s23v1","offsets":[{"start":3174,"text":"McMurdo Ice Shelf"}],"coordinates":[],"confidence":{"state":"pre-added","who":["ml:dpeker"],"prob":0.9622},"fields":{},"normalizations":{"n_34":{"source":{"name":"GeoNamesSCAR","id":"128723","url":null},"recName":"McMurdo Ice Shelf","confidence":{"state":"pre-added","who":["ml:dpeker"],"prob":0.9622}}}},{"classId":"e_4","part":"s23v1","offsets":[{"start":3982,"text":"McMurdo Dry Valleys"}],"coordinates":[],"confidence":{"state":"pre-added","who":["ml:dpeker"],"prob":0.9671},"fields":{},"normalizations":{"n_34":{"source":{"name":"GeoNamesSCAR","id":"113892","url":null},"recName":"McMurdo Dry Valleys","confidence":{"state":"pre-added","who":["ml:dpeker"],"prob":0.9671}}}},{"classId":"e_4","part":"s23v1","offsets":[{"start":5440,"text":"Ross Island"}],"coordinates":[],"confidence":{"state":"pre-added","who":["ml:dpeker"],"prob":0.9349},"fields":{},"normalizations":{"n_34":{"source":{"name":"GeoNamesSCAR","id":"130958","url":null},"recName":"Ross Island","confidence":{"state":"pre-added","who":["ml:dpeker"],"prob":0.9349}}}},{"classId":"e_4","part":"s23v1","offsets":[{"start":5742,"text":"Ross Island"}],"coordinates":[],"confidence":{"state":"pre-added","who":["ml:dpeker"],"prob":0.9349},"fields":{},"normalizations":{"n_34":{"source":{"name":"GeoNamesSCAR","id":"130958","url":null},"recName":"Ross Island","confidence":{"state":"pre-added","who":["ml:dpeker"],"prob":0.9349}}}},{"classId":"e_4","part":"s24v1","offsets":[{"start":113,"text":"Ross Island"}],"coordinates":[],"confidence":{"state":"pre-added","who":["ml:dpeker"],"prob":0.9349},"fields":{},"normalizations":{"n_34":{"source":{"name":"GeoNamesSCAR","id":"130958","url":null},"recName":"Ross Island","confidence":{"state":"pre-added","who":["ml:dpeker"],"prob":0.9349}}}},{"classId":"e_4","part":"s24v1","offsets":[{"start":2344,"text":"Lake Joyce"}],"coordinates":[],"confidence":{"state":"pre-added","who":["ml:dpeker"],"prob":0.9266},"fields":{},"normalizations":{"n_34":{"source":{"name":"GeoNamesSCAR","id":"127184","url":null},"recName":"Joyce, Lake","confidence":{"state":"pre-added","who":["ml:dpeker"],"prob":0.9266}}}},{"classId":"e_4","part":"s24v1","offsets":[{"start":3509,"text":"Taylor Valley"}],"coordinates":[],"confidence":{"state":"pre-added","who":["ml:dpeker"],"prob":0.9472},"fields":{},"normalizations":{"n_34":{"source":{"name":"GeoNamesSCAR","id":"132512","url":null},"recName":"Taylor Valley","confidence":{"state":"pre-added","who":["ml:dpeker"],"prob":0.9472}}}},{"classId":"e_4","part":"s24v1","offsets":[{"start":3626,"text":"McMurdo Dry Valleys"}],"coordinates":[],"confidence":{"state":"pre-added","who":["ml:dpeker"],"prob":0.9671},"fields":{},"normalizations":{"n_34":{"source":{"name":"GeoNamesSCAR","id":"113892","url":null},"recName":"McMurdo Dry Valleys","confidence":{"state":"pre-added","who":["ml:dpeker"],"prob":0.9671}}}},{"classId":"e_4","part":"s25v1","offsets":[{"start":158,"text":"Lake Bonney"}],"coordinates":[],"confidence":{"state":"pre-added","who":["ml:dpeker"],"prob":0.9349},"fields":{},"normalizations":{"n_34":{"source":{"name":"GeoNamesSCAR","id":"122715","url":null},"recName":"Bonney, Lake","confidence":{"state":"pre-added","who":["ml:dpeker"],"prob":0.9349}}}},{"classId":"e_4","part":"s25v1","offsets":[{"start":2621,"text":"McMurdo Dry Valleys"}],"coordinates":[],"confidence":{"state":"pre-added","who":["ml:dpeker"],"prob":0.9671},"fields":{},"normalizations":{"n_34":{"source":{"name":"GeoNamesSCAR","id":"113892","url":null},"recName":"McMurdo Dry Valleys","confidence":{"state":"pre-added","who":["ml:dpeker"],"prob":0.9671}}}},{"classId":"e_4","part":"s26v1","offsets":[{"start":1122,"text":"McMurdo Dry Valleys"}],"coordinates":[],"confidence":{"state":"pre-added","who":["ml:dpeker"],"prob":0.9671},"fields":{},"normalizations":{"n_34":{"source":{"name":"GeoNamesSCAR","id":"113892","url":null},"recName":"McMurdo Dry Valleys","confidence":{"state":"pre-added","who":["ml:dpeker"],"prob":0.9671}}}},{"classId":"e_4","part":"s26v1","offsets":[{"start":3569,"text":"Lake Vanda"}],"coordinates":[],"confidence":{"state":"pre-added","who":["ml:dpeker"],"prob":0.9266},"fields":{},"normalizations":{"n_34":{"source":{"name":"GeoNamesSCAR","id":"133142","url":null},"recName":"Vanda, Lake","confidence":{"state":"pre-added","who":["ml:dpeker"],"prob":0.9266}}}},{"classId":"e_4","part":"s26v1","offsets":[{"start":4127,"text":"lake Fryxell"}],"coordinates":[],"confidence":{"state":"pre-added","who":["ml:dpeker"],"prob":0.9024},"fields":{},"normalizations":{"n_34":{"source":{"name":"GeoNamesSCAR","id":"125440","url":null},"recName":"Fryxell, Lake","confidence":{"state":"pre-added","who":["ml:dpeker"],"prob":0.9024}}}},{"classId":"e_4","part":"s26v1","offsets":[{"start":4141,"text":"McMurdo Dry Valleys"}],"coordinates":[],"confidence":{"state":"pre-added","who":["ml:dpeker"],"prob":0.9671},"fields":{},"normalizations":{"n_34":{"source":{"name":"GeoNamesSCAR","id":"113892","url":null},"recName":"McMurdo Dry Valleys","confidence":{"state":"pre-added","who":["ml:dpeker"],"prob":0.9671}}}},{"classId":"e_4","part":"s26v1","offsets":[{"start":5236,"text":"McMurdo Dry Valleys"}],"coordinates":[],"confidence":{"state":"pre-added","who":["ml:dpeker"],"prob":0.9671},"fields":{},"normalizations":{"n_34":{"source":{"name":"GeoNamesSCAR","id":"113892","url":null},"recName":"McMurdo Dry Valleys","confidence":{"state":"pre-added","who":["ml:dpeker"],"prob":0.9671}}}},{"classId":"e_4","part":"s27v1","offsets":[{"start":923,"text":"Miers Valley"}],"coordinates":[],"confidence":{"state":"pre-added","who":["ml:dpeker"],"prob":0.9416},"fields":{},"normalizations":{"n_34":{"source":{"name":"GeoNamesSCAR","id":"128868","url":null},"recName":"Miers Valley","confidence":{"state":"pre-added","who":["ml:dpeker"],"prob":0.9416}}}},{"classId":"e_4","part":"s27v1","offsets":[{"start":937,"text":"McMurdo Dry Valleys"}],"coordinates":[],"confidence":{"state":"pre-added","who":["ml:dpeker"],"prob":0.9671},"fields":{},"normalizations":{"n_34":{"source":{"name":"GeoNamesSCAR","id":"113892","url":null},"recName":"McMurdo Dry Valleys","confidence":{"state":"pre-added","who":["ml:dpeker"],"prob":0.9671}}}},{"classId":"e_4","part":"s27v1","offsets":[{"start":1140,"text":"Miers Valley"}],"coordinates":[],"confidence":{"state":"pre-added","who":["ml:dpeker"],"prob":0.9416},"fields":{},"normalizations":{"n_34":{"source":{"name":"GeoNamesSCAR","id":"128868","url":null},"recName":"Miers Valley","confidence":{"state":"pre-added","who":["ml:dpeker"],"prob":0.9416}}}},{"classId":"e_4","part":"s27v1","offsets":[{"start":1154,"text":"McMurdo Dry Valleys"}],"coordinates":[],"confidence":{"state":"pre-added","who":["ml:dpeker"],"prob":0.9671},"fields":{},"normalizations":{"n_34":{"source":{"name":"GeoNamesSCAR","id":"113892","url":null},"recName":"McMurdo Dry Valleys","confidence":{"state":"pre-added","who":["ml:dpeker"],"prob":0.9671}}}},{"classId":"e_4","part":"s27v1","offsets":[{"start":3112,"text":"McMurdo Dry Valley"}],"coordinates":[],"confidence":{"state":"pre-added","who":["ml:dpeker"],"prob":0.914},"fields":{},"normalizations":{"n_34":{"source":{"name":"GeoNamesSCAR","id":"113892","url":null},"recName":"McMurdo Dry Valleys","confidence":{"state":"pre-added","who":["ml:dpeker"],"prob":0.914}}}}],"relations":[{"classId":"r_72","type":"linked","directed":false,"entities":["s5v1|e_41|2382,2392","s5v1|e_4|2344,2355"],"confidence":{"state":"pre-added","who":["user:ICTAR"],"prob":1}},{"classId":"r_72","type":"linked","directed":false,"entities":["s5v1|e_41|2399,2412","s5v1|e_4|2344,2355"],"confidence":{"state":"pre-added","who":["user:ICTAR"],"prob":1}},{"classId":"r_72","type":"linked","directed":false,"entities":["s13v1|e_41|3462,3476","s13v1|e_4|3368,3384"],"confidence":{"state":"pre-added","who":["user:ICTAR"],"prob":1}},{"classId":"r_72","type":"linked","directed":false,"entities":["s13v1|e_41|3488,3499","s13v1|e_4|3368,3384"],"confidence":{"state":"pre-added","who":["user:ICTAR"],"prob":1}},{"classId":"r_72","type":"linked","directed":false,"entities":["s13v1|e_41|3515,3526","s13v1|e_4|3368,3384"],"confidence":{"state":"pre-added","who":["user:ICTAR"],"prob":1}},{"classId":"r_72","type":"linked","directed":false,"entities":["s19v1|e_41|371,382","s19v1|e_4|417,429"],"confidence":{"state":"pre-added","who":["user:ICTAR"],"prob":1}},{"classId":"r_72","type":"linked","directed":false,"entities":["s19v1|e_4|440,458","s19v1|e_41|371,382"],"confidence":{"state":"pre-added","who":["user:ICTAR"],"prob":1}},{"classId":"r_72","type":"linked","directed":false,"entities":["s19v1|e_4|465,478","s19v1|e_41|371,382"],"confidence":{"state":"pre-added","who":["user:ICTAR"],"prob":1}}]}