{"annotatable":{"parts":["s1v1","s2v1","s3v1","s4v1","s5v1","s6v1","s7v1","s8v1","s9v1","s10v1","s11v1","s12v1","s13v1","s14v1","s15v1","s16v1","s17v1","s18v1","s19v1","s20v1","s21v1","s22v1","s23v1","s24v1","s25v1","s26v1","s27v1","s28v1","s29v1","s30v1","s31v1","s32v1","s33v1","s34v1","s35v1","s36v1","s37v1","s38v1","s39v1","s40v1","s41v1","s42v1","s43v1"]},"anncomplete":false,"sources":[],"metas":{"m_16":{"value":"Ross Sea Region","confidence":{"state":"pre-added","who":["user:charlesklee"],"prob":1}},"m_14":{"value":true,"confidence":{"state":"pre-added","who":["user:charlesklee"],"prob":1}},"m_10":{"value":true,"confidence":{"state":"pre-added","who":["user:charlesklee"],"prob":1}},"m_9":{"value":false,"confidence":{"state":"pre-added","who":["user:charlesklee"],"prob":1}},"m_11":{"value":false,"confidence":{"state":"pre-added","who":["user:charlesklee"],"prob":1}}},"entities":[{"classId":"e_2","part":"s1v1","offsets":[{"start":2239,"text":"Eudorylaimus"}],"coordinates":[],"confidence":{"state":"pre-added","who":["ml:dpeker"],"prob":0.9416},"fields":{},"normalizations":{"n_33":{"source":{"name":"NematodeNames","id":"Eudosp","url":null},"recName":"Eudorylaimus spp.","confidence":{"state":"pre-added","who":["ml:dpeker"],"prob":0.9416}}}},{"classId":"e_2","part":"s1v1","offsets":[{"start":2275,"text":"Geomonhystera"}],"coordinates":[],"confidence":{"state":"pre-added","who":["ml:dpeker"],"prob":0.9472},"fields":{},"normalizations":{"n_33":{"source":{"name":"NematodeNames","id":"Geomsp","url":null},"recName":"Geomonhystera spp.","confidence":{"state":"pre-added","who":["ml:dpeker"],"prob":0.9472}}}},{"classId":"e_2","part":"s1v1","offsets":[{"start":2329,"text":"Panagrolaimus"}],"coordinates":[],"confidence":{"state":"pre-added","who":["ml:dpeker"],"prob":0.9472},"fields":{},"normalizations":{"n_33":{"source":{"name":"NematodeNames","id":"Panasp","url":null},"recName":"Panagrolaimus spp.","confidence":{"state":"pre-added","who":["ml:dpeker"],"prob":0.9472}}}},{"classId":"e_2","part":"s1v1","offsets":[{"start":2344,"text":"Plectus"}],"coordinates":[],"confidence":{"state":"pre-added","who":["ml:dpeker"],"prob":0.8856},"fields":{},"normalizations":{"n_33":{"source":{"name":"NematodeNames","id":"Plecsp","url":null},"recName":"Plectus spp.","confidence":{"state":"pre-added","who":["ml:dpeker"],"prob":0.8856}}}},{"classId":"e_2","part":"s1v1","offsets":[{"start":2353,"text":"Scottnema"}],"coordinates":[],"confidence":{"state":"pre-added","who":["ml:dpeker"],"prob":0.9163},"fields":{},"normalizations":{"n_33":{"source":{"name":"NematodeNames","id":"Scotsp","url":null},"recName":"Scottnema spp.","confidence":{"state":"pre-added","who":["ml:dpeker"],"prob":0.9163}}}},{"classId":"e_4","part":"s3v1","offsets":[{"start":1805,"text":"McMurdo Dry Valley"}],"coordinates":[],"confidence":{"state":"pre-added","who":["ml:dpeker"],"prob":0.914},"fields":{},"normalizations":{"n_34":{"source":{"name":"GeoNames","id":"113892","url":null},"recName":"McMurdo Dry Valleys","confidence":{"state":"pre-added","who":["ml:dpeker"],"prob":0.914}}}},{"classId":"e_4","part":"s3v1","offsets":[{"start":2316,"text":"Land - the"}],"coordinates":[],"confidence":{"state":"pre-added","who":["ml:dpeker"],"prob":0.6178},"fields":{},"normalizations":{"n_34":{"source":{"name":"GeoNames","id":"127761","url":null},"recName":"Landing, The","confidence":{"state":"pre-added","who":["ml:dpeker"],"prob":0.6178}}}},{"classId":"e_4","part":"s3v1","offsets":[{"start":2379,"text":"Terra Nova Bay"}],"coordinates":[],"confidence":{"state":"pre-added","who":["ml:dpeker"],"prob":0.9518},"fields":{},"normalizations":{"n_34":{"source":{"name":"GeoNames","id":"132576","url":null},"recName":"Terra Nova Bay","confidence":{"state":"pre-added","who":["ml:dpeker"],"prob":0.9518}}}},{"classId":"e_4","part":"s3v1","offsets":[{"start":2395,"text":"Edmonson Point"}],"coordinates":[],"confidence":{"state":"pre-added","who":["ml:dpeker"],"prob":0.9518},"fields":{},"normalizations":{"n_34":{"source":{"name":"GeoNames","id":"124687","url":null},"recName":"Edmonson Point","confidence":{"state":"pre-added","who":["ml:dpeker"],"prob":0.9518}}}},{"classId":"e_4","part":"s3v1","offsets":[{"start":2414,"text":"Cape Hallett"}],"coordinates":[],"confidence":{"state":"pre-added","who":["ml:dpeker"],"prob":0.9416},"fields":{},"normalizations":{"n_34":{"source":{"name":"GeoNames","id":"126118","url":null},"recName":"Hallett, Cape","confidence":{"state":"pre-added","who":["ml:dpeker"],"prob":0.9416}}}},{"classId":"e_4","part":"s3v1","offsets":[{"start":2461,"text":"Land - the"}],"coordinates":[],"confidence":{"state":"pre-added","who":["ml:dpeker"],"prob":0.6178},"fields":{},"normalizations":{"n_34":{"source":{"name":"GeoNames","id":"127761","url":null},"recName":"Landing, The","confidence":{"state":"pre-added","who":["ml:dpeker"],"prob":0.6178}}}},{"classId":"e_4","part":"s3v1","offsets":[{"start":2528,"text":"McMurdo Dry Valleys"}],"coordinates":[],"confidence":{"state":"pre-added","who":["ml:dpeker"],"prob":0.9671},"fields":{},"normalizations":{"n_34":{"source":{"name":"GeoNames","id":"113892","url":null},"recName":"McMurdo Dry Valleys","confidence":{"state":"pre-added","who":["ml:dpeker"],"prob":0.9671}}}},{"classId":"e_4","part":"s3v1","offsets":[{"start":2611,"text":"McMurdo Dry Valleys"}],"coordinates":[],"confidence":{"state":"pre-added","who":["ml:dpeker"],"prob":0.9671},"fields":{},"normalizations":{"n_34":{"source":{"name":"GeoNames","id":"113892","url":null},"recName":"McMurdo Dry Valleys","confidence":{"state":"pre-added","who":["ml:dpeker"],"prob":0.9671}}}},{"classId":"e_4","part":"s3v1","offsets":[{"start":2689,"text":"TransAntarctic Mountains"}],"coordinates":[],"confidence":{"state":"pre-added","who":["ml:dpeker"],"prob":0.9551},"fields":{},"normalizations":{"n_34":{"source":{"name":"GeoNames","id":"132843","url":null},"recName":"Transantarctic Mountains","confidence":{"state":"pre-added","who":["ml:dpeker"],"prob":0.9551}}}},{"classId":"e_4","part":"s4v1","offsets":[{"start":214,"text":"McMurdo Dry Valleys"}],"coordinates":[],"confidence":{"state":"pre-added","who":["ml:dpeker"],"prob":0.9671},"fields":{},"normalizations":{"n_34":{"source":{"name":"GeoNames","id":"113892","url":null},"recName":"McMurdo Dry Valleys","confidence":{"state":"pre-added","who":["ml:dpeker"],"prob":0.9671}}}},{"classId":"e_4","part":"s5v1","offsets":[{"start":96,"text":"McMurdo Dry Valleys"}],"coordinates":[],"confidence":{"state":"pre-added","who":["ml:dpeker"],"prob":0.9671},"fields":{},"normalizations":{"n_34":{"source":{"name":"GeoNames","id":"113892","url":null},"recName":"McMurdo Dry Valleys","confidence":{"state":"pre-added","who":["ml:dpeker"],"prob":0.9671}}}},{"classId":"e_4","part":"s5v1","offsets":[{"start":320,"text":"McMurdo Dry Valleys"}],"coordinates":[],"confidence":{"state":"pre-added","who":["ml:dpeker"],"prob":0.9671},"fields":{},"normalizations":{"n_34":{"source":{"name":"GeoNames","id":"113892","url":null},"recName":"McMurdo Dry Valleys","confidence":{"state":"pre-added","who":["ml:dpeker"],"prob":0.9671}}}},{"classId":"e_2","part":"s6v1","offsets":[{"start":2177,"text":"Eudorylaimus"}],"coordinates":[],"confidence":{"state":"pre-added","who":["ml:dpeker"],"prob":0.9416},"fields":{},"normalizations":{"n_33":{"source":{"name":"NematodeNames","id":"Eudosp","url":null},"recName":"Eudorylaimus spp.","confidence":{"state":"pre-added","who":["ml:dpeker"],"prob":0.9416}}}},{"classId":"e_2","part":"s6v1","offsets":[{"start":2430,"text":"Dorylaimus antarcticus"}],"coordinates":[],"confidence":{"state":"pre-added","who":["ml:dpeker"],"prob":0.9726},"fields":{},"normalizations":{"n_33":{"source":{"name":"NematodeNames","id":"Euanta","url":null},"recName":"Eudorylaimus antarcticus","confidence":{"state":"pre-added","who":["ml:dpeker"],"prob":0.9726}}}},{"classId":"e_2","part":"s6v1","offsets":[{"start":2459,"text":"Eudorylaimus antarcticus"}],"coordinates":[],"confidence":{"state":"pre-added","who":["ml:dpeker"],"prob":0.9754},"fields":{},"normalizations":{"n_33":{"source":{"name":"NematodeNames","id":"Euanta","url":null},"recName":"Eudorylaimus antarcticus","confidence":{"state":"pre-added","who":["ml:dpeker"],"prob":0.9754}}}},{"classId":"e_2","part":"s6v1","offsets":[{"start":2804,"text":"Plec- tus"}],"coordinates":[],"confidence":{"state":"pre-added","who":["ml:dpeker"],"prob":0.6249},"fields":{},"normalizations":{"n_33":{"source":{"name":"NematodeNames","id":"Plecsp","url":null},"recName":"Plectus spp.","confidence":{"state":"pre-added","who":["ml:dpeker"],"prob":0.6249}}}},{"classId":"e_2","part":"s6v1","offsets":[{"start":2866,"text":"Dorylaimus antarcticus"}],"coordinates":[],"confidence":{"state":"pre-added","who":["ml:dpeker"],"prob":0.9726},"fields":{},"normalizations":{"n_33":{"source":{"name":"NematodeNames","id":"Euanta","url":null},"recName":"Eudorylaimus antarcticus","confidence":{"state":"pre-added","who":["ml:dpeker"],"prob":0.9726}}}},{"classId":"e_2","part":"s6v1","offsets":[{"start":2893,"text":"Antholaimus antarcticus"}],"coordinates":[],"confidence":{"state":"pre-added","who":["ml:dpeker"],"prob":0.9741},"fields":{},"normalizations":{"n_33":{"source":{"name":"NematodeNames","id":"Euanta","url":null},"recName":"Eudorylaimus antarcticus","confidence":{"state":"pre-added","who":["ml:dpeker"],"prob":0.9741}}}},{"classId":"e_2","part":"s6v1","offsets":[{"start":2922,"text":"Eudorylaimus antarcticus"}],"coordinates":[],"confidence":{"state":"pre-added","who":["ml:dpeker"],"prob":0.9754},"fields":{},"normalizations":{"n_33":{"source":{"name":"NematodeNames","id":"Euanta","url":null},"recName":"Eudorylaimus antarcticus","confidence":{"state":"pre-added","who":["ml:dpeker"],"prob":0.9754}}}},{"classId":"e_2","part":"s6v1","offsets":[{"start":2999,"text":"Eudorylaimus"}],"coordinates":[],"confidence":{"state":"pre-added","who":["ml:dpeker"],"prob":0.9416},"fields":{},"normalizations":{"n_33":{"source":{"name":"NematodeNames","id":"Eudosp","url":null},"recName":"Eudorylaimus spp.","confidence":{"state":"pre-added","who":["ml:dpeker"],"prob":0.9416}}}},{"classId":"e_2","part":"s6v1","offsets":[{"start":3049,"text":"E. glacialis"}],"coordinates":[],"confidence":{"state":"pre-added","who":["ml:dpeker"],"prob":0.9416},"fields":{},"normalizations":{"n_33":{"source":{"name":"NematodeNames","id":"Euglac","url":null},"recName":"Eudorylaimus glacialis","confidence":{"state":"pre-added","who":["ml:dpeker"],"prob":0.9416}}}},{"classId":"e_2","part":"s6v1","offsets":[{"start":3079,"text":"E. nudicaudatus"}],"coordinates":[],"confidence":{"state":"pre-added","who":["ml:dpeker"],"prob":0.9558},"fields":{},"normalizations":{"n_33":{"source":{"name":"NematodeNames","id":"Eunudi","url":null},"recName":"Eudorylaimus nudicaudatus","confidence":{"state":"pre-added","who":["ml:dpeker"],"prob":0.9558}}}},{"classId":"e_2","part":"s6v1","offsets":[{"start":3112,"text":"E. shirasei"}],"coordinates":[],"confidence":{"state":"pre-added","who":["ml:dpeker"],"prob":0.9349},"fields":{},"normalizations":{"n_33":{"source":{"name":"NematodeNames","id":"Eushir","url":null},"recName":"Eudorylaimus shirasei","confidence":{"state":"pre-added","who":["ml:dpeker"],"prob":0.9349}}}},{"classId":"e_2","part":"s6v1","offsets":[{"start":3144,"text":"E. quintus"}],"coordinates":[],"confidence":{"state":"pre-added","who":["ml:dpeker"],"prob":0.9266},"fields":{},"normalizations":{"n_33":{"source":{"name":"NematodeNames","id":"Euquin","url":null},"recName":"Eudorylaimus quintus","confidence":{"state":"pre-added","who":["ml:dpeker"],"prob":0.9266}}}},{"classId":"e_2","part":"s6v1","offsets":[{"start":3175,"text":"E. sextus"}],"coordinates":[],"confidence":{"state":"pre-added","who":["ml:dpeker"],"prob":0.9163},"fields":{},"normalizations":{"n_33":{"source":{"name":"NematodeNames","id":"Eusext","url":null},"recName":"Eudorylaimus sextus","confidence":{"state":"pre-added","who":["ml:dpeker"],"prob":0.9163}}}},{"classId":"e_2","part":"s6v1","offsets":[{"start":3299,"text":"Eudorylaimus sp"}],"coordinates":[],"confidence":{"state":"pre-added","who":["ml:dpeker"],"prob":0.917},"fields":{},"normalizations":{"n_33":{"source":{"name":"NematodeNames","id":"Eudosp","url":null},"recName":"Eudorylaimus spp.","confidence":{"state":"pre-added","who":["ml:dpeker"],"prob":0.917}}}},{"classId":"e_2","part":"s7v1","offsets":[{"start":98,"text":"Plectus murrayi"}],"coordinates":[],"confidence":{"state":"pre-added","who":["ml:dpeker"],"prob":0.9558},"fields":{},"normalizations":{"n_33":{"source":{"name":"NematodeNames","id":"Plmurr","url":null},"recName":"Plectus murrayi","confidence":{"state":"pre-added","who":["ml:dpeker"],"prob":0.9558}}}},{"classId":"e_2","part":"s7v1","offsets":[{"start":119,"text":"P. antarcticus"}],"coordinates":[],"confidence":{"state":"pre-added","who":["ml:dpeker"],"prob":0.9518},"fields":{},"normalizations":{"n_33":{"source":{"name":"NematodeNames","id":"Plmurr","url":null},"recName":"Plectus murrayi","confidence":{"state":"pre-added","who":["ml:dpeker"],"prob":0.9518}}}},{"classId":"e_4","part":"s7v1","offsets":[{"start":221,"text":"McMurdo Dry Valleys"}],"coordinates":[],"confidence":{"state":"pre-added","who":["ml:dpeker"],"prob":0.9671},"fields":{},"normalizations":{"n_34":{"source":{"name":"GeoNames","id":"113892","url":null},"recName":"McMurdo Dry Valleys","confidence":{"state":"pre-added","who":["ml:dpeker"],"prob":0.9671}}}},{"classId":"e_2","part":"s7v1","offsets":[{"start":284,"text":"E. antarcticus"}],"coordinates":[],"confidence":{"state":"pre-added","who":["ml:dpeker"],"prob":0.9518},"fields":{},"normalizations":{"n_33":{"source":{"name":"NematodeNames","id":"Euanta","url":null},"recName":"Eudorylaimus antarcticus","confidence":{"state":"pre-added","who":["ml:dpeker"],"prob":0.9518}}}},{"classId":"e_2","part":"s7v1","offsets":[{"start":315,"text":"Monhystera villosa"}],"coordinates":[],"confidence":{"state":"pre-added","who":["ml:dpeker"],"prob":0.9648},"fields":{},"normalizations":{"n_33":{"source":{"name":"NematodeNames","id":"Geanta","url":null},"recName":"Geomonhystera antarcticola","confidence":{"state":"pre-added","who":["ml:dpeker"],"prob":0.9648}}}},{"classId":"e_2","part":"s7v1","offsets":[{"start":354,"text":"Plectus frigophilus"}],"coordinates":[],"confidence":{"state":"pre-added","who":["ml:dpeker"],"prob":0.9671},"fields":{},"normalizations":{"n_33":{"source":{"name":"NematodeNames","id":"Plfrig","url":null},"recName":"Plectus frigophilus","confidence":{"state":"pre-added","who":["ml:dpeker"],"prob":0.9671}}}},{"classId":"e_2","part":"s7v1","offsets":[{"start":423,"text":"Scottnema lindsayae"}],"coordinates":[],"confidence":{"state":"pre-added","who":["ml:dpeker"],"prob":0.9671},"fields":{},"normalizations":{"n_33":{"source":{"name":"NematodeNames","id":"Sclind","url":null},"recName":"Scottnema lindsayae","confidence":{"state":"pre-added","who":["ml:dpeker"],"prob":0.9671}}}},{"classId":"e_2","part":"s7v1","offsets":[{"start":447,"text":"Panagrolaimus davidi"}],"coordinates":[],"confidence":{"state":"pre-added","who":["ml:dpeker"],"prob":0.9692},"fields":{},"normalizations":{"n_33":{"source":{"name":"NematodeNames","id":"Padavi","url":null},"recName":"Panagrolaimus davidi","confidence":{"state":"pre-added","who":["ml:dpeker"],"prob":0.9692}}}},{"classId":"e_2","part":"s7v1","offsets":[{"start":469,"text":"Monhystera villosa"}],"coordinates":[],"confidence":{"state":"pre-added","who":["ml:dpeker"],"prob":0.9648},"fields":{},"normalizations":{"n_33":{"source":{"name":"NematodeNames","id":"Geanta","url":null},"recName":"Geomonhystera antarcticola","confidence":{"state":"pre-added","who":["ml:dpeker"],"prob":0.9648}}}},{"classId":"e_2","part":"s7v1","offsets":[{"start":515,"text":"Geomonhystera antarcticola"}],"coordinates":[],"confidence":{"state":"pre-added","who":["ml:dpeker"],"prob":0.9778},"fields":{},"normalizations":{"n_33":{"source":{"name":"NematodeNames","id":"Geanta","url":null},"recName":"Geomonhystera antarcticola","confidence":{"state":"pre-added","who":["ml:dpeker"],"prob":0.9778}}}},{"classId":"e_4","part":"s7v1","offsets":[{"start":691,"text":"McMurdo Dry Valley"}],"coordinates":[],"confidence":{"state":"pre-added","who":["ml:dpeker"],"prob":0.914},"fields":{},"normalizations":{"n_34":{"source":{"name":"GeoNames","id":"113892","url":null},"recName":"McMurdo Dry Valleys","confidence":{"state":"pre-added","who":["ml:dpeker"],"prob":0.914}}}},{"classId":"e_2","part":"s7v1","offsets":[{"start":844,"text":"Eu- dorylaimus"}],"coordinates":[],"confidence":{"state":"pre-added","who":["ml:dpeker"],"prob":0.7634},"fields":{},"normalizations":{"n_33":{"source":{"name":"NematodeNames","id":"Eudosp","url":null},"recName":"Eudorylaimus spp.","confidence":{"state":"pre-added","who":["ml:dpeker"],"prob":0.7634}}}},{"classId":"e_2","part":"s7v1","offsets":[{"start":860,"text":"Plectus"}],"coordinates":[],"confidence":{"state":"pre-added","who":["ml:dpeker"],"prob":0.8856},"fields":{},"normalizations":{"n_33":{"source":{"name":"NematodeNames","id":"Plecsp","url":null},"recName":"Plectus spp.","confidence":{"state":"pre-added","who":["ml:dpeker"],"prob":0.8856}}}},{"classId":"e_2","part":"s7v1","offsets":[{"start":869,"text":"Scottnema"}],"coordinates":[],"confidence":{"state":"pre-added","who":["ml:dpeker"],"prob":0.9163},"fields":{},"normalizations":{"n_33":{"source":{"name":"NematodeNames","id":"Scotsp","url":null},"recName":"Scottnema spp.","confidence":{"state":"pre-added","who":["ml:dpeker"],"prob":0.9163}}}},{"classId":"e_2","part":"s7v1","offsets":[{"start":2607,"text":"Scottnema"}],"coordinates":[],"confidence":{"state":"pre-added","who":["ml:dpeker"],"prob":0.9163},"fields":{},"normalizations":{"n_33":{"source":{"name":"NematodeNames","id":"Scotsp","url":null},"recName":"Scottnema spp.","confidence":{"state":"pre-added","who":["ml:dpeker"],"prob":0.9163}}}},{"classId":"e_2","part":"s7v1","offsets":[{"start":2618,"text":"Plectus"}],"coordinates":[],"confidence":{"state":"pre-added","who":["ml:dpeker"],"prob":0.8856},"fields":{},"normalizations":{"n_33":{"source":{"name":"NematodeNames","id":"Plecsp","url":null},"recName":"Plectus spp.","confidence":{"state":"pre-added","who":["ml:dpeker"],"prob":0.8856}}}},{"classId":"e_2","part":"s7v1","offsets":[{"start":2627,"text":"Eudorylaimus"}],"coordinates":[],"confidence":{"state":"pre-added","who":["ml:dpeker"],"prob":0.9416},"fields":{},"normalizations":{"n_33":{"source":{"name":"NematodeNames","id":"Eudosp","url":null},"recName":"Eudorylaimus spp.","confidence":{"state":"pre-added","who":["ml:dpeker"],"prob":0.9416}}}},{"classId":"e_2","part":"s7v1","offsets":[{"start":2641,"text":"Panagrolaimus"}],"coordinates":[],"confidence":{"state":"pre-added","who":["ml:dpeker"],"prob":0.9472},"fields":{},"normalizations":{"n_33":{"source":{"name":"NematodeNames","id":"Panasp","url":null},"recName":"Panagrolaimus spp.","confidence":{"state":"pre-added","who":["ml:dpeker"],"prob":0.9472}}}},{"classId":"e_2","part":"s7v1","offsets":[{"start":2660,"text":"Geomonhystera"}],"coordinates":[],"confidence":{"state":"pre-added","who":["ml:dpeker"],"prob":0.9472},"fields":{},"normalizations":{"n_33":{"source":{"name":"NematodeNames","id":"Geomsp","url":null},"recName":"Geomonhystera spp.","confidence":{"state":"pre-added","who":["ml:dpeker"],"prob":0.9472}}}},{"classId":"e_2","part":"s8v1","offsets":[{"start":55,"text":"Scottnema"}],"coordinates":[],"confidence":{"state":"pre-added","who":["ml:dpeker"],"prob":0.9163},"fields":{},"normalizations":{"n_33":{"source":{"name":"NematodeNames","id":"Scotsp","url":null},"recName":"Scottnema spp.","confidence":{"state":"pre-added","who":["ml:dpeker"],"prob":0.9163}}}},{"classId":"e_2","part":"s8v1","offsets":[{"start":93,"text":"Scottnema"}],"coordinates":[],"confidence":{"state":"pre-added","who":["ml:dpeker"],"prob":0.9163},"fields":{},"normalizations":{"n_33":{"source":{"name":"NematodeNames","id":"Scotsp","url":null},"recName":"Scottnema spp.","confidence":{"state":"pre-added","who":["ml:dpeker"],"prob":0.9163}}}},{"classId":"e_2","part":"s8v1","offsets":[{"start":168,"text":"S. lindsayae"}],"coordinates":[],"confidence":{"state":"pre-added","who":["ml:dpeker"],"prob":0.9416},"fields":{},"normalizations":{"n_33":{"source":{"name":"NematodeNames","id":"Sclind","url":null},"recName":"Scottnema lindsayae","confidence":{"state":"pre-added","who":["ml:dpeker"],"prob":0.9416}}}},{"classId":"e_2","part":"s8v1","offsets":[{"start":194,"text":"Scottnema lindsayae"}],"coordinates":[],"confidence":{"state":"pre-added","who":["ml:dpeker"],"prob":0.9671},"fields":{},"normalizations":{"n_33":{"source":{"name":"NematodeNames","id":"Sclind","url":null},"recName":"Scottnema lindsayae","confidence":{"state":"pre-added","who":["ml:dpeker"],"prob":0.9671}}}},{"classId":"e_2","part":"s8v1","offsets":[{"start":231,"text":"S. lindsayi"}],"coordinates":[],"confidence":{"state":"pre-added","who":["ml:dpeker"],"prob":0.9349},"fields":{},"normalizations":{"n_33":{"source":{"name":"NematodeNames","id":"Sclind","url":null},"recName":"Scottnema lindsayae","confidence":{"state":"pre-added","who":["ml:dpeker"],"prob":0.9349}}}},{"classId":"e_2","part":"s8v1","offsets":[{"start":459,"text":"S. lindsayae"}],"coordinates":[],"confidence":{"state":"pre-added","who":["ml:dpeker"],"prob":0.9416},"fields":{},"normalizations":{"n_33":{"source":{"name":"NematodeNames","id":"Sclind","url":null},"recName":"Scottnema lindsayae","confidence":{"state":"pre-added","who":["ml:dpeker"],"prob":0.9416}}}},{"classId":"e_4","part":"s8v1","offsets":[{"start":614,"text":"Beardmore Glacier"}],"coordinates":[],"confidence":{"state":"pre-added","who":["ml:dpeker"],"prob":0.9622},"fields":{},"normalizations":{"n_34":{"source":{"name":"GeoNames","id":"122318","url":null},"recName":"Beardmore Glacier","confidence":{"state":"pre-added","who":["ml:dpeker"],"prob":0.9622}}}},{"classId":"e_2","part":"s8v1","offsets":[{"start":681,"text":"Scottnema lindsayae"}],"coordinates":[],"confidence":{"state":"pre-added","who":["ml:dpeker"],"prob":0.9671},"fields":{},"normalizations":{"n_33":{"source":{"name":"NematodeNames","id":"Sclind","url":null},"recName":"Scottnema lindsayae","confidence":{"state":"pre-added","who":["ml:dpeker"],"prob":0.9671}}}},{"classId":"e_4","part":"s8v1","offsets":[{"start":831,"text":"McMurdo Dry Valleys"}],"coordinates":[],"confidence":{"state":"pre-added","who":["ml:dpeker"],"prob":0.9671},"fields":{},"normalizations":{"n_34":{"source":{"name":"GeoNames","id":"113892","url":null},"recName":"McMurdo Dry Valleys","confidence":{"state":"pre-added","who":["ml:dpeker"],"prob":0.9671}}}},{"classId":"e_2","part":"s8v1","offsets":[{"start":1032,"text":"S. lindsayae"}],"coordinates":[],"confidence":{"state":"pre-added","who":["ml:dpeker"],"prob":0.9416},"fields":{},"normalizations":{"n_33":{"source":{"name":"NematodeNames","id":"Sclind","url":null},"recName":"Scottnema lindsayae","confidence":{"state":"pre-added","who":["ml:dpeker"],"prob":0.9416}}}},{"classId":"e_4","part":"s8v1","offsets":[{"start":1098,"text":"Wright Valley"}],"coordinates":[],"confidence":{"state":"pre-added","who":["ml:dpeker"],"prob":0.9472},"fields":{},"normalizations":{"n_34":{"source":{"name":"GeoNames","id":"133876","url":null},"recName":"Wright Valley","confidence":{"state":"pre-added","who":["ml:dpeker"],"prob":0.9472}}}},{"classId":"e_4","part":"s8v1","offsets":[{"start":1145,"text":"Marble Point"}],"coordinates":[],"confidence":{"state":"pre-added","who":["ml:dpeker"],"prob":0.9416},"fields":{},"normalizations":{"n_34":{"source":{"name":"GeoNames","id":"113829","url":null},"recName":"Marble Point","confidence":{"state":"pre-added","who":["ml:dpeker"],"prob":0.9416}}}},{"classId":"e_4","part":"s8v1","offsets":[{"start":1159,"text":"Strand Mo- raines"}],"coordinates":[],"confidence":{"state":"pre-added","who":["ml:dpeker"],"prob":0.8068},"fields":{},"normalizations":{"n_34":{"source":{"name":"GeoNames","id":"CKL001","url":null},"recName":"Strand Moraines","confidence":{"state":"pre-added","who":["ml:dpeker"],"prob":0.8068}}}},{"classId":"e_2","part":"s8v1","offsets":[{"start":1326,"text":"S. lindsayae"}],"coordinates":[],"confidence":{"state":"pre-added","who":["ml:dpeker"],"prob":0.9416},"fields":{},"normalizations":{"n_33":{"source":{"name":"NematodeNames","id":"Sclind","url":null},"recName":"Scottnema lindsayae","confidence":{"state":"pre-added","who":["ml:dpeker"],"prob":0.9416}}}},{"classId":"e_4","part":"s8v1","offsets":[{"start":1398,"text":"Ross Island"}],"coordinates":[],"confidence":{"state":"pre-added","who":["ml:dpeker"],"prob":0.9349},"fields":{},"normalizations":{"n_34":{"source":{"name":"GeoNames","id":"130958","url":null},"recName":"Ross Island","confidence":{"state":"pre-added","who":["ml:dpeker"],"prob":0.9349}}}},{"classId":"e_4","part":"s8v1","offsets":[{"start":1466,"text":"Kay Island"}],"coordinates":[],"confidence":{"state":"pre-added","who":["ml:dpeker"],"prob":0.9266},"fields":{},"normalizations":{"n_34":{"source":{"name":"GeoNames","id":"127279","url":null},"recName":"Kay Island","confidence":{"state":"pre-added","who":["ml:dpeker"],"prob":0.9266}}}},{"classId":"e_2","part":"s8v1","offsets":[{"start":1567,"text":"S. lindsayae"}],"coordinates":[],"confidence":{"state":"pre-added","who":["ml:dpeker"],"prob":0.9416},"fields":{},"normalizations":{"n_33":{"source":{"name":"NematodeNames","id":"Sclind","url":null},"recName":"Scottnema lindsayae","confidence":{"state":"pre-added","who":["ml:dpeker"],"prob":0.9416}}}},{"classId":"e_2","part":"s8v1","offsets":[{"start":1672,"text":"S. lindsayae"}],"coordinates":[],"confidence":{"state":"pre-added","who":["ml:dpeker"],"prob":0.9416},"fields":{},"normalizations":{"n_33":{"source":{"name":"NematodeNames","id":"Sclind","url":null},"recName":"Scottnema lindsayae","confidence":{"state":"pre-added","who":["ml:dpeker"],"prob":0.9416}}}},{"classId":"e_2","part":"s8v1","offsets":[{"start":1824,"text":"S. lindsayae"}],"coordinates":[],"confidence":{"state":"pre-added","who":["ml:dpeker"],"prob":0.9416},"fields":{},"normalizations":{"n_33":{"source":{"name":"NematodeNames","id":"Sclind","url":null},"recName":"Scottnema lindsayae","confidence":{"state":"pre-added","who":["ml:dpeker"],"prob":0.9416}}}},{"classId":"e_2","part":"s8v1","offsets":[{"start":1914,"text":"S. lindsayae"}],"coordinates":[],"confidence":{"state":"pre-added","who":["ml:dpeker"],"prob":0.9416},"fields":{},"normalizations":{"n_33":{"source":{"name":"NematodeNames","id":"Sclind","url":null},"recName":"Scottnema lindsayae","confidence":{"state":"pre-added","who":["ml:dpeker"],"prob":0.9416}}}},{"classId":"e_4","part":"s8v1","offsets":[{"start":2048,"text":"Lake Hoare"}],"coordinates":[],"confidence":{"state":"pre-added","who":["ml:dpeker"],"prob":0.9266},"fields":{},"normalizations":{"n_34":{"source":{"name":"GeoNames","id":"126559","url":null},"recName":"Hoare, Lake","confidence":{"state":"pre-added","who":["ml:dpeker"],"prob":0.9266}}}},{"classId":"e_2","part":"s8v1","offsets":[{"start":2101,"text":"S. lindsayae"}],"coordinates":[],"confidence":{"state":"pre-added","who":["ml:dpeker"],"prob":0.9416},"fields":{},"normalizations":{"n_33":{"source":{"name":"NematodeNames","id":"Sclind","url":null},"recName":"Scottnema lindsayae","confidence":{"state":"pre-added","who":["ml:dpeker"],"prob":0.9416}}}},{"classId":"e_2","part":"s8v1","offsets":[{"start":2347,"text":"S. lindsayae"}],"coordinates":[],"confidence":{"state":"pre-added","who":["ml:dpeker"],"prob":0.9416},"fields":{},"normalizations":{"n_33":{"source":{"name":"NematodeNames","id":"Sclind","url":null},"recName":"Scottnema lindsayae","confidence":{"state":"pre-added","who":["ml:dpeker"],"prob":0.9416}}}},{"classId":"e_2","part":"s8v1","offsets":[{"start":2546,"text":"S. lindsayae"}],"coordinates":[],"confidence":{"state":"pre-added","who":["ml:dpeker"],"prob":0.9416},"fields":{},"normalizations":{"n_33":{"source":{"name":"NematodeNames","id":"Sclind","url":null},"recName":"Scottnema lindsayae","confidence":{"state":"pre-added","who":["ml:dpeker"],"prob":0.9416}}}},{"classId":"e_2","part":"s8v1","offsets":[{"start":2857,"text":"S. lindsayae"}],"coordinates":[],"confidence":{"state":"pre-added","who":["ml:dpeker"],"prob":0.9416},"fields":{},"normalizations":{"n_33":{"source":{"name":"NematodeNames","id":"Sclind","url":null},"recName":"Scottnema lindsayae","confidence":{"state":"pre-added","who":["ml:dpeker"],"prob":0.9416}}}},{"classId":"e_2","part":"s8v1","offsets":[{"start":3017,"text":"S. lindsayae"}],"coordinates":[],"confidence":{"state":"pre-added","who":["ml:dpeker"],"prob":0.9416},"fields":{},"normalizations":{"n_33":{"source":{"name":"NematodeNames","id":"Sclind","url":null},"recName":"Scottnema lindsayae","confidence":{"state":"pre-added","who":["ml:dpeker"],"prob":0.9416}}}},{"classId":"e_2","part":"s8v1","offsets":[{"start":3344,"text":"S. lindsayae"}],"coordinates":[],"confidence":{"state":"pre-added","who":["ml:dpeker"],"prob":0.9416},"fields":{},"normalizations":{"n_33":{"source":{"name":"NematodeNames","id":"Sclind","url":null},"recName":"Scottnema lindsayae","confidence":{"state":"pre-added","who":["ml:dpeker"],"prob":0.9416}}}},{"classId":"e_4","part":"s8v1","offsets":[{"start":3448,"text":"McMurdo Dry Valleys"}],"coordinates":[],"confidence":{"state":"pre-added","who":["ml:dpeker"],"prob":0.9671},"fields":{},"normalizations":{"n_34":{"source":{"name":"GeoNames","id":"113892","url":null},"recName":"McMurdo Dry Valleys","confidence":{"state":"pre-added","who":["ml:dpeker"],"prob":0.9671}}}},{"classId":"e_2","part":"s9v1","offsets":[{"start":125,"text":"Scottnema lindsayae"}],"coordinates":[],"confidence":{"state":"pre-added","who":["ml:dpeker"],"prob":0.9671},"fields":{},"normalizations":{"n_33":{"source":{"name":"NematodeNames","id":"Sclind","url":null},"recName":"Scottnema lindsayae","confidence":{"state":"pre-added","who":["ml:dpeker"],"prob":0.9671}}}},{"classId":"e_2","part":"s9v1","offsets":[{"start":868,"text":"S. lindsayae"}],"coordinates":[],"confidence":{"state":"pre-added","who":["ml:dpeker"],"prob":0.9416},"fields":{},"normalizations":{"n_33":{"source":{"name":"NematodeNames","id":"Sclind","url":null},"recName":"Scottnema lindsayae","confidence":{"state":"pre-added","who":["ml:dpeker"],"prob":0.9416}}}},{"classId":"e_4","part":"s9v1","offsets":[{"start":1430,"text":"McMurdo Dry Valleys\n\n*"}],"coordinates":[],"confidence":{"state":"pre-added","who":["ml:dpeker"],"prob":0.8506},"fields":{},"normalizations":{"n_34":{"source":{"name":"GeoNames","id":"113892","url":null},"recName":"McMurdo Dry Valleys","confidence":{"state":"pre-added","who":["ml:dpeker"],"prob":0.8506}}}},{"classId":"e_4","part":"s9v1","offsets":[{"start":1631,"text":"Alatna Valley\n\n*"}],"coordinates":[],"confidence":{"state":"pre-added","who":["ml:dpeker"],"prob":0.7903},"fields":{},"normalizations":{"n_34":{"source":{"name":"GeoNames","id":"121655","url":null},"recName":"Alatna Valley","confidence":{"state":"pre-added","who":["ml:dpeker"],"prob":0.7903}}}},{"classId":"e_4","part":"s9v1","offsets":[{"start":1761,"text":"Battleship Promontory\n\n*"}],"coordinates":[],"confidence":{"state":"pre-added","who":["ml:dpeker"],"prob":0.8638},"fields":{},"normalizations":{"n_34":{"source":{"name":"GeoNames","id":"122277","url":null},"recName":"Battleship Promontory","confidence":{"state":"pre-added","who":["ml:dpeker"],"prob":0.8638}}}},{"classId":"e_4","part":"s9v1","offsets":[{"start":2249,"text":"Barwick Valley\n\n*"}],"coordinates":[],"confidence":{"state":"pre-added","who":["ml:dpeker"],"prob":0.8035},"fields":{},"normalizations":{"n_34":{"source":{"name":"GeoNames","id":"122252","url":null},"recName":"Barwick Valley","confidence":{"state":"pre-added","who":["ml:dpeker"],"prob":0.8035}}}},{"classId":"e_4","part":"s9v1","offsets":[{"start":2342,"text":"Beacon Valley\n\n*"}],"coordinates":[],"confidence":{"state":"pre-added","who":["ml:dpeker"],"prob":0.7903},"fields":{},"normalizations":{"n_34":{"source":{"name":"GeoNames","id":"122303","url":null},"recName":"Beacon Valley","confidence":{"state":"pre-added","who":["ml:dpeker"],"prob":0.7903}}}},{"classId":"e_4","part":"s9v1","offsets":[{"start":2430,"text":"Garwood Valley\n\n*"}],"coordinates":[],"confidence":{"state":"pre-added","who":["ml:dpeker"],"prob":0.8035},"fields":{},"normalizations":{"n_34":{"source":{"name":"GeoNames","id":"125553","url":null},"recName":"Garwood Valley","confidence":{"state":"pre-added","who":["ml:dpeker"],"prob":0.8035}}}},{"classId":"e_4","part":"s10v1","offsets":[{"start":126,"text":"McKelvey Valley\n\n*"}],"coordinates":[],"confidence":{"state":"pre-added","who":["ml:dpeker"],"prob":0.8151},"fields":{},"normalizations":{"n_34":{"source":{"name":"GeoNames","id":"128682","url":null},"recName":"McKelvey Valley","confidence":{"state":"pre-added","who":["ml:dpeker"],"prob":0.8151}}}},{"classId":"e_4","part":"s10v1","offsets":[{"start":296,"text":"Miers Valley\n\n*"}],"coordinates":[],"confidence":{"state":"pre-added","who":["ml:dpeker"],"prob":0.7752},"fields":{},"normalizations":{"n_34":{"source":{"name":"GeoNames","id":"128868","url":null},"recName":"Miers Valley","confidence":{"state":"pre-added","who":["ml:dpeker"],"prob":0.7752}}}},{"classId":"e_4","part":"s10v1","offsets":[{"start":332,"text":"Miers Glacier\n\n*"}],"coordinates":[],"confidence":{"state":"pre-added","who":["ml:dpeker"],"prob":0.7903},"fields":{},"normalizations":{"n_34":{"source":{"name":"GeoNames","id":"128866","url":null},"recName":"Miers Glacier","confidence":{"state":"pre-added","who":["ml:dpeker"],"prob":0.7903}}}},{"classId":"e_4","part":"s10v1","offsets":[{"start":463,"text":"Taylor Valley\n\n*"}],"coordinates":[],"confidence":{"state":"pre-added","who":["ml:dpeker"],"prob":0.7903},"fields":{},"normalizations":{"n_34":{"source":{"name":"GeoNames","id":"132512","url":null},"recName":"Taylor Valley","confidence":{"state":"pre-added","who":["ml:dpeker"],"prob":0.7903}}}},{"classId":"e_4","part":"s10v1","offsets":[{"start":500,"text":"Canada Glacier\n\n*"}],"coordinates":[],"confidence":{"state":"pre-added","who":["ml:dpeker"],"prob":0.8035},"fields":{},"normalizations":{"n_34":{"source":{"name":"GeoNames","id":"123257","url":null},"recName":"Canada Glacier","confidence":{"state":"pre-added","who":["ml:dpeker"],"prob":0.8035}}}},{"classId":"e_4","part":"s10v1","offsets":[{"start":565,"text":"Lacroix Glacier\n\n*"}],"coordinates":[],"confidence":{"state":"pre-added","who":["ml:dpeker"],"prob":0.8151},"fields":{},"normalizations":{"n_34":{"source":{"name":"GeoNames","id":"127696","url":null},"recName":"Lacroix Glacier","confidence":{"state":"pre-added","who":["ml:dpeker"],"prob":0.8151}}}},{"classId":"e_4","part":"s10v1","offsets":[{"start":612,"text":"Lake Bonney"}],"coordinates":[],"confidence":{"state":"pre-added","who":["ml:dpeker"],"prob":0.9349},"fields":{},"normalizations":{"n_34":{"source":{"name":"GeoNames","id":"122715","url":null},"recName":"Bonney, Lake","confidence":{"state":"pre-added","who":["ml:dpeker"],"prob":0.9349}}}},{"classId":"e_4","part":"s10v1","offsets":[{"start":628,"text":"Lacroix Glacier"}],"coordinates":[],"confidence":{"state":"pre-added","who":["ml:dpeker"],"prob":0.9558},"fields":{},"normalizations":{"n_34":{"source":{"name":"GeoNames","id":"127696","url":null},"recName":"Lacroix Glacier","confidence":{"state":"pre-added","who":["ml:dpeker"],"prob":0.9558}}}},{"classId":"e_4","part":"s10v1","offsets":[{"start":706,"text":"Lacroix  Glacier"}],"coordinates":[],"confidence":{"state":"pre-added","who":["ml:dpeker"],"prob":0.8363},"fields":{},"normalizations":{"n_34":{"source":{"name":"GeoNames","id":"127696","url":null},"recName":"Lacroix Glacier","confidence":{"state":"pre-added","who":["ml:dpeker"],"prob":0.8363}}}},{"classId":"e_4","part":"s10v1","offsets":[{"start":778,"text":"Lake Bonney\n\n*"}],"coordinates":[],"confidence":{"state":"pre-added","who":["ml:dpeker"],"prob":0.7579},"fields":{},"normalizations":{"n_34":{"source":{"name":"GeoNames","id":"122715","url":null},"recName":"Bonney, Lake","confidence":{"state":"pre-added","who":["ml:dpeker"],"prob":0.7579}}}},{"classId":"e_4","part":"s10v1","offsets":[{"start":1611,"text":"Lake Chad\n\n*"}],"coordinates":[],"confidence":{"state":"pre-added","who":["ml:dpeker"],"prob":0.714},"fields":{},"normalizations":{"n_34":{"source":{"name":"GeoNames","id":"123422","url":null},"recName":"Chad, Lake","confidence":{"state":"pre-added","who":["ml:dpeker"],"prob":0.714}}}},{"classId":"e_4","part":"s10v1","offsets":[{"start":1759,"text":"Lake Fryxell\n\n*"}],"coordinates":[],"confidence":{"state":"pre-added","who":["ml:dpeker"],"prob":0.7752},"fields":{},"normalizations":{"n_34":{"source":{"name":"GeoNames","id":"125440","url":null},"recName":"Fryxell, Lake","confidence":{"state":"pre-added","who":["ml:dpeker"],"prob":0.7752}}}},{"classId":"e_4","part":"s11v1","offsets":[{"start":296,"text":"F6) stream"}],"coordinates":[],"confidence":{"state":"pre-added","who":["ml:dpeker"],"prob":0.8568},"fields":{},"normalizations":{"n_34":{"source":{"name":"GeoNames","id":"CKL002","url":null},"recName":"F6 stream","confidence":{"state":"pre-added","who":["ml:dpeker"],"prob":0.8568}}}},{"classId":"e_4","part":"s11v1","offsets":[{"start":475,"text":"Von Guerard Stream"}],"coordinates":[],"confidence":{"state":"pre-added","who":["ml:dpeker"],"prob":0.9648},"fields":{},"normalizations":{"n_34":{"source":{"name":"GeoNames","id":"133312","url":null},"recName":"Von Guerard Stream","confidence":{"state":"pre-added","who":["ml:dpeker"],"prob":0.9648}}}},{"classId":"e_4","part":"s11v1","offsets":[{"start":495,"text":"Harnish Creek"}],"coordinates":[],"confidence":{"state":"pre-added","who":["ml:dpeker"],"prob":0.9472},"fields":{},"normalizations":{"n_34":{"source":{"name":"GeoNames","id":"126215","url":null},"recName":"Harnish Creek","confidence":{"state":"pre-added","who":["ml:dpeker"],"prob":0.9472}}}},{"classId":"e_4","part":"s11v1","offsets":[{"start":650,"text":"Huey Creek"}],"coordinates":[],"confidence":{"state":"pre-added","who":["ml:dpeker"],"prob":0.9266},"fields":{},"normalizations":{"n_34":{"source":{"name":"GeoNames","id":"126795","url":null},"recName":"Huey Creek","confidence":{"state":"pre-added","who":["ml:dpeker"],"prob":0.9266}}}},{"classId":"e_4","part":"s11v1","offsets":[{"start":744,"text":"Von Guerard stream"}],"coordinates":[],"confidence":{"state":"pre-added","who":["ml:dpeker"],"prob":0.938},"fields":{},"normalizations":{"n_34":{"source":{"name":"GeoNames","id":"133312","url":null},"recName":"Von Guerard Stream","confidence":{"state":"pre-added","who":["ml:dpeker"],"prob":0.938}}}},{"classId":"e_4","part":"s11v1","offsets":[{"start":849,"text":"F6 stream"}],"coordinates":[],"confidence":{"state":"pre-added","who":["ml:dpeker"],"prob":0.9163},"fields":{},"normalizations":{"n_34":{"source":{"name":"GeoNames","id":"CKL002","url":null},"recName":"F6 stream","confidence":{"state":"pre-added","who":["ml:dpeker"],"prob":0.9163}}}},{"classId":"e_4","part":"s11v1","offsets":[{"start":1010,"text":"Harnish Creek"}],"coordinates":[],"confidence":{"state":"pre-added","who":["ml:dpeker"],"prob":0.9472},"fields":{},"normalizations":{"n_34":{"source":{"name":"GeoNames","id":"126215","url":null},"recName":"Harnish Creek","confidence":{"state":"pre-added","who":["ml:dpeker"],"prob":0.9472}}}},{"classId":"e_4","part":"s11v1","offsets":[{"start":1495,"text":"Green Creek"}],"coordinates":[],"confidence":{"state":"pre-added","who":["ml:dpeker"],"prob":0.9349},"fields":{},"normalizations":{"n_34":{"source":{"name":"GeoNames","id":"125908","url":null},"recName":"Green Creek","confidence":{"state":"pre-added","who":["ml:dpeker"],"prob":0.9349}}}},{"classId":"e_4","part":"s11v1","offsets":[{"start":1677,"text":"Von Guerard stream"}],"coordinates":[],"confidence":{"state":"pre-added","who":["ml:dpeker"],"prob":0.938},"fields":{},"normalizations":{"n_34":{"source":{"name":"GeoNames","id":"133312","url":null},"recName":"Von Guerard Stream","confidence":{"state":"pre-added","who":["ml:dpeker"],"prob":0.938}}}},{"classId":"e_4","part":"s11v1","offsets":[{"start":1752,"text":"Green Creek"}],"coordinates":[],"confidence":{"state":"pre-added","who":["ml:dpeker"],"prob":0.9349},"fields":{},"normalizations":{"n_34":{"source":{"name":"GeoNames","id":"125908","url":null},"recName":"Green Creek","confidence":{"state":"pre-added","who":["ml:dpeker"],"prob":0.9349}}}},{"classId":"e_4","part":"s11v1","offsets":[{"start":1823,"text":"Lake Hoare\n\n*"}],"coordinates":[],"confidence":{"state":"pre-added","who":["ml:dpeker"],"prob":0.7377},"fields":{},"normalizations":{"n_34":{"source":{"name":"GeoNames","id":"126559","url":null},"recName":"Hoare, Lake","confidence":{"state":"pre-added","who":["ml:dpeker"],"prob":0.7377}}}},{"classId":"e_4","part":"s12v1","offsets":[{"start":2031,"text":"Mummy Pond"}],"coordinates":[],"confidence":{"state":"pre-added","who":["ml:dpeker"],"prob":0.9266},"fields":{},"normalizations":{"n_34":{"source":{"name":"GeoNames","id":"129200","url":null},"recName":"Mummy Pond","confidence":{"state":"pre-added","who":["ml:dpeker"],"prob":0.9266}}}},{"classId":"e_4","part":"s12v1","offsets":[{"start":2115,"text":"Nussbaum Riegel"}],"coordinates":[],"confidence":{"state":"pre-added","who":["ml:dpeker"],"prob":0.9558},"fields":{},"normalizations":{"n_34":{"source":{"name":"GeoNames","id":"129541","url":null},"recName":"Nussbaum Riegel","confidence":{"state":"pre-added","who":["ml:dpeker"],"prob":0.9558}}}},{"classId":"e_4","part":"s12v1","offsets":[{"start":2207,"text":"Victoria Valley\n\n*"}],"coordinates":[],"confidence":{"state":"pre-added","who":["ml:dpeker"],"prob":0.8151},"fields":{},"normalizations":{"n_34":{"source":{"name":"GeoNames","id":"133250","url":null},"recName":"Victoria Valley","confidence":{"state":"pre-added","who":["ml:dpeker"],"prob":0.8151}}}},{"classId":"e_4","part":"s13v1","offsets":[{"start":163,"text":"Victoria Valley"}],"coordinates":[],"confidence":{"state":"pre-added","who":["ml:dpeker"],"prob":0.9558},"fields":{},"normalizations":{"n_34":{"source":{"name":"GeoNames","id":"133250","url":null},"recName":"Victoria Valley","confidence":{"state":"pre-added","who":["ml:dpeker"],"prob":0.9558}}}},{"classId":"e_4","part":"s13v1","offsets":[{"start":332,"text":"Lake Vida\n\n*"}],"coordinates":[],"confidence":{"state":"pre-added","who":["ml:dpeker"],"prob":0.714},"fields":{},"normalizations":{"n_34":{"source":{"name":"GeoNames","id":"133257","url":null},"recName":"Vida, Lake","confidence":{"state":"pre-added","who":["ml:dpeker"],"prob":0.714}}}},{"classId":"e_4","part":"s13v1","offsets":[{"start":916,"text":"Victoria Lower Glacier\n\n*"}],"coordinates":[],"confidence":{"state":"pre-added","who":["ml:dpeker"],"prob":0.8695},"fields":{},"normalizations":{"n_34":{"source":{"name":"GeoNames","id":"133246","url":null},"recName":"Victoria Lower Glacier","confidence":{"state":"pre-added","who":["ml:dpeker"],"prob":0.8695}}}},{"classId":"e_4","part":"s13v1","offsets":[{"start":1231,"text":"Victoria Upper Glacier\n\n*"}],"coordinates":[],"confidence":{"state":"pre-added","who":["ml:dpeker"],"prob":0.8695},"fields":{},"normalizations":{"n_34":{"source":{"name":"GeoNames","id":"133248","url":null},"recName":"Victoria Upper Glacier","confidence":{"state":"pre-added","who":["ml:dpeker"],"prob":0.8695}}}},{"classId":"e_4","part":"s13v1","offsets":[{"start":1429,"text":"Victoria Upper Lake\n\n*"}],"coordinates":[],"confidence":{"state":"pre-added","who":["ml:dpeker"],"prob":0.8506},"fields":{},"normalizations":{"n_34":{"source":{"name":"GeoNames","id":"133249","url":null},"recName":"Victoria Upper Lake","confidence":{"state":"pre-added","who":["ml:dpeker"],"prob":0.8506}}}},{"classId":"e_4","part":"s13v1","offsets":[{"start":1527,"text":"Wright Valley\n\n*"}],"coordinates":[],"confidence":{"state":"pre-added","who":["ml:dpeker"],"prob":0.7903},"fields":{},"normalizations":{"n_34":{"source":{"name":"GeoNames","id":"133876","url":null},"recName":"Wright Valley","confidence":{"state":"pre-added","who":["ml:dpeker"],"prob":0.7903}}}},{"classId":"e_4","part":"s13v1","offsets":[{"start":1564,"text":"Dais\n\n*"}],"coordinates":[],"confidence":{"state":"pre-added","who":["ml:dpeker"],"prob":0.4808},"fields":{},"normalizations":{"n_34":{"source":{"name":"GeoNames","id":"124046","url":null},"recName":"Dais","confidence":{"state":"pre-added","who":["ml:dpeker"],"prob":0.4808}}}},{"classId":"e_4","part":"s13v1","offsets":[{"start":1709,"text":"Meserve Glacier\n\n*"}],"coordinates":[],"confidence":{"state":"pre-added","who":["ml:dpeker"],"prob":0.8151},"fields":{},"normalizations":{"n_34":{"source":{"name":"GeoNames","id":"128829","url":null},"recName":"Meserve Glacier","confidence":{"state":"pre-added","who":["ml:dpeker"],"prob":0.8151}}}},{"classId":"e_4","part":"s13v1","offsets":[{"start":1775,"text":"Labyrinth\n\n*"}],"coordinates":[],"confidence":{"state":"pre-added","who":["ml:dpeker"],"prob":0.714},"fields":{},"normalizations":{"n_34":{"source":{"name":"GeoNames","id":"127689","url":null},"recName":"Labyrinth","confidence":{"state":"pre-added","who":["ml:dpeker"],"prob":0.714}}}},{"classId":"e_4","part":"s14v1","offsets":[{"start":187,"text":"Lake Brownworth\n\n*"}],"coordinates":[],"confidence":{"state":"pre-added","who":["ml:dpeker"],"prob":0.8151},"fields":{},"normalizations":{"n_34":{"source":{"name":"GeoNames","id":"123002","url":null},"recName":"Brownworth, Lake","confidence":{"state":"pre-added","who":["ml:dpeker"],"prob":0.8151}}}},{"classId":"e_4","part":"s14v1","offsets":[{"start":626,"text":"Bull Pass\n\n*"}],"coordinates":[],"confidence":{"state":"pre-added","who":["ml:dpeker"],"prob":0.714},"fields":{},"normalizations":{"n_34":{"source":{"name":"GeoNames","id":"123076","url":null},"recName":"Bull Pass","confidence":{"state":"pre-added","who":["ml:dpeker"],"prob":0.714}}}},{"classId":"e_4","part":"s14v1","offsets":[{"start":714,"text":"Lake Bull\n\n*"}],"coordinates":[],"confidence":{"state":"pre-added","who":["ml:dpeker"],"prob":0.714},"fields":{},"normalizations":{"n_34":{"source":{"name":"GeoNames","id":"123081","url":null},"recName":"Bull, Lake","confidence":{"state":"pre-added","who":["ml:dpeker"],"prob":0.714}}}},{"classId":"e_4","part":"s14v1","offsets":[{"start":866,"text":"Lake Vanda\n\n*"}],"coordinates":[],"confidence":{"state":"pre-added","who":["ml:dpeker"],"prob":0.7377},"fields":{},"normalizations":{"n_34":{"source":{"name":"GeoNames","id":"133142","url":null},"recName":"Vanda, Lake","confidence":{"state":"pre-added","who":["ml:dpeker"],"prob":0.7377}}}},{"classId":"e_4","part":"s14v1","offsets":[{"start":905,"text":"Lake Vanda"}],"coordinates":[],"confidence":{"state":"pre-added","who":["ml:dpeker"],"prob":0.9266},"fields":{},"normalizations":{"n_34":{"source":{"name":"GeoNames","id":"133142","url":null},"recName":"Vanda, Lake","confidence":{"state":"pre-added","who":["ml:dpeker"],"prob":0.9266}}}},{"classId":"e_4","part":"s14v1","offsets":[{"start":1269,"text":"Koettlitz Glacier"}],"coordinates":[],"confidence":{"state":"pre-added","who":["ml:dpeker"],"prob":0.9622},"fields":{},"normalizations":{"n_34":{"source":{"name":"GeoNames","id":"127526","url":null},"recName":"Koettlitz Glacier","confidence":{"state":"pre-added","who":["ml:dpeker"],"prob":0.9622}}}},{"classId":"e_4","part":"s14v1","offsets":[{"start":1340,"text":"Péwé Lake\n\n*"}],"coordinates":[],"confidence":{"state":"pre-added","who":["ml:dpeker"],"prob":0.6718},"fields":{},"normalizations":{"n_34":{"source":{"name":"GeoNames","id":"130088","url":null},"recName":"Péwé, Lake","confidence":{"state":"pre-added","who":["ml:dpeker"],"prob":0.6718}}}},{"classId":"e_4","part":"s14v1","offsets":[{"start":1419,"text":"Strand Moraines\n\n*"}],"coordinates":[],"confidence":{"state":"pre-added","who":["ml:dpeker"],"prob":0.8151},"fields":{},"normalizations":{"n_34":{"source":{"name":"GeoNames","id":"CKL001","url":null},"recName":"Strand Moraines","confidence":{"state":"pre-added","who":["ml:dpeker"],"prob":0.8151}}}},{"classId":"e_4","part":"s14v1","offsets":[{"start":1491,"text":"Marble Point\n\n*"}],"coordinates":[],"confidence":{"state":"pre-added","who":["ml:dpeker"],"prob":0.7752},"fields":{},"normalizations":{"n_34":{"source":{"name":"GeoNames","id":"113829","url":null},"recName":"Marble Point","confidence":{"state":"pre-added","who":["ml:dpeker"],"prob":0.7752}}}},{"classId":"e_4","part":"s14v1","offsets":[{"start":1603,"text":"Cape Hallett"}],"coordinates":[],"confidence":{"state":"pre-added","who":["ml:dpeker"],"prob":0.9416},"fields":{},"normalizations":{"n_34":{"source":{"name":"GeoNames","id":"126118","url":null},"recName":"Hallett, Cape","confidence":{"state":"pre-added","who":["ml:dpeker"],"prob":0.9416}}}},{"classId":"e_4","part":"s14v1","offsets":[{"start":1685,"text":"Crater Cirque\n\n*"}],"coordinates":[],"confidence":{"state":"pre-added","who":["ml:dpeker"],"prob":0.7903},"fields":{},"normalizations":{"n_34":{"source":{"name":"GeoNames","id":"123914","url":null},"recName":"Crater Cirque","confidence":{"state":"pre-added","who":["ml:dpeker"],"prob":0.7903}}}},{"classId":"e_4","part":"s14v1","offsets":[{"start":1788,"text":"Edmonson Point\n\n*"}],"coordinates":[],"confidence":{"state":"pre-added","who":["ml:dpeker"],"prob":0.8035},"fields":{},"normalizations":{"n_34":{"source":{"name":"GeoNames","id":"124687","url":null},"recName":"Edmonson Point","confidence":{"state":"pre-added","who":["ml:dpeker"],"prob":0.8035}}}},{"classId":"e_4","part":"s15v1","offsets":[{"start":220,"text":"Gondwana Station"}],"coordinates":[],"confidence":{"state":"pre-added","who":["ml:dpeker"],"prob":0.9592},"fields":{},"normalizations":{"n_34":{"source":{"name":"GeoNames","id":"CKL003","url":null},"recName":"Gondwana Station","confidence":{"state":"pre-added","who":["ml:dpeker"],"prob":0.9592}}}},{"classId":"e_4","part":"s15v1","offsets":[{"start":307,"text":"Luther Peak\n\n*"}],"coordinates":[],"confidence":{"state":"pre-added","who":["ml:dpeker"],"prob":0.7579},"fields":{},"normalizations":{"n_34":{"source":{"name":"GeoNames","id":"128240","url":null},"recName":"Luther Peak","confidence":{"state":"pre-added","who":["ml:dpeker"],"prob":0.7579}}}},{"classId":"e_4","part":"s15v1","offsets":[{"start":587,"text":"Terra Nova Bay\n\n*"}],"coordinates":[],"confidence":{"state":"pre-added","who":["ml:dpeker"],"prob":0.8035},"fields":{},"normalizations":{"n_34":{"source":{"name":"GeoNames","id":"132576","url":null},"recName":"Terra Nova Bay","confidence":{"state":"pre-added","who":["ml:dpeker"],"prob":0.8035}}}},{"classId":"e_2","part":"s15v1","offsets":[{"start":774,"text":"S. lindsayae"}],"coordinates":[],"confidence":{"state":"pre-added","who":["ml:dpeker"],"prob":0.9416},"fields":{},"normalizations":{"n_33":{"source":{"name":"NematodeNames","id":"Sclind","url":null},"recName":"Scottnema lindsayae","confidence":{"state":"pre-added","who":["ml:dpeker"],"prob":0.9416}}}},{"classId":"e_2","part":"s16v1","offsets":[{"start":173,"text":"S. lindsayae"}],"coordinates":[],"confidence":{"state":"pre-added","who":["ml:dpeker"],"prob":0.9416},"fields":{},"normalizations":{"n_33":{"source":{"name":"NematodeNames","id":"Sclind","url":null},"recName":"Scottnema lindsayae","confidence":{"state":"pre-added","who":["ml:dpeker"],"prob":0.9416}}}},{"classId":"e_2","part":"s16v1","offsets":[{"start":209,"text":"S. lindsayae"}],"coordinates":[],"confidence":{"state":"pre-added","who":["ml:dpeker"],"prob":0.9416},"fields":{},"normalizations":{"n_33":{"source":{"name":"NematodeNames","id":"Sclind","url":null},"recName":"Scottnema lindsayae","confidence":{"state":"pre-added","who":["ml:dpeker"],"prob":0.9416}}}},{"classId":"e_47","part":"s16v1","offsets":[{"start":209,"text":"S. lindsayae tolerates a wide range of soil moistures, but is typically absent from flowing meltstreams and saturated soils."}],"coordinates":[{"x":"329.54","y":"76.19"},{"x":"114.48","y":"109.49"}],"confidence":{"state":"pre-added","who":["user:charlesklee"],"prob":1},"fields":{},"normalizations":{}},{"classId":"e_2","part":"s16v1","offsets":[{"start":542,"text":"S. lindsayae"}],"coordinates":[],"confidence":{"state":"pre-added","who":["ml:dpeker"],"prob":0.9416},"fields":{},"normalizations":{"n_33":{"source":{"name":"NematodeNames","id":"Sclind","url":null},"recName":"Scottnema lindsayae","confidence":{"state":"pre-added","who":["ml:dpeker"],"prob":0.9416}}}},{"classId":"e_47","part":"s16v1","offsets":[{"start":666,"text":"Soil salinity factors (EC and pH) have a significant influence on the distribu- tion of S. lindsayae in the Dry Valleys (Freckman and Virginia 1997; Poage et al. 2008; Porazinska et al. 2002b). For example, S. lindsayae are found predominantly in soils with an EC<700 mS cm-1 (Courtright et al. 2001; Nkem et al. 2006a; Poage et al. 2008), and appear unable to tolerate salinity over 4100 mS cm-1 (Nkem et al. 2006a)."}],"coordinates":[{"x":"88.34","y":"155.30"},{"x":"415.28","y":"215.09"}],"confidence":{"state":"pre-added","who":["user:charlesklee"],"prob":1},"fields":{},"normalizations":{}},{"classId":"e_2","part":"s16v1","offsets":[{"start":754,"text":"S. lindsayae"}],"coordinates":[],"confidence":{"state":"pre-added","who":["ml:dpeker"],"prob":0.9416},"fields":{},"normalizations":{"n_33":{"source":{"name":"NematodeNames","id":"Sclind","url":null},"recName":"Scottnema lindsayae","confidence":{"state":"pre-added","who":["ml:dpeker"],"prob":0.9416}}}},{"classId":"e_2","part":"s16v1","offsets":[{"start":873,"text":"S. lindsayae"}],"coordinates":[],"confidence":{"state":"pre-added","who":["ml:dpeker"],"prob":0.9416},"fields":{},"normalizations":{"n_33":{"source":{"name":"NematodeNames","id":"Sclind","url":null},"recName":"Scottnema lindsayae","confidence":{"state":"pre-added","who":["ml:dpeker"],"prob":0.9416}}}},{"classId":"e_2","part":"s16v1","offsets":[{"start":1084,"text":"S. lindsayae"}],"coordinates":[],"confidence":{"state":"pre-added","who":["ml:dpeker"],"prob":0.9416},"fields":{},"normalizations":{"n_33":{"source":{"name":"NematodeNames","id":"Sclind","url":null},"recName":"Scottnema lindsayae","confidence":{"state":"pre-added","who":["ml:dpeker"],"prob":0.9416}}}},{"classId":"e_4","part":"s16v1","offsets":[{"start":1144,"text":"McMurdo Dry Valley"}],"coordinates":[],"confidence":{"state":"pre-added","who":["ml:dpeker"],"prob":0.914},"fields":{},"normalizations":{"n_34":{"source":{"name":"GeoNames","id":"113892","url":null},"recName":"McMurdo Dry Valleys","confidence":{"state":"pre-added","who":["ml:dpeker"],"prob":0.914}}}},{"classId":"e_4","part":"s16v1","offsets":[{"start":1439,"text":"Ross Island"}],"coordinates":[],"confidence":{"state":"pre-added","who":["ml:dpeker"],"prob":0.9349},"fields":{},"normalizations":{"n_34":{"source":{"name":"GeoNames","id":"130958","url":null},"recName":"Ross Island","confidence":{"state":"pre-added","who":["ml:dpeker"],"prob":0.9349}}}},{"classId":"e_2","part":"s16v1","offsets":[{"start":1452,"text":"S. lindsayae"}],"coordinates":[],"confidence":{"state":"pre-added","who":["ml:dpeker"],"prob":0.9416},"fields":{},"normalizations":{"n_33":{"source":{"name":"NematodeNames","id":"Sclind","url":null},"recName":"Scottnema lindsayae","confidence":{"state":"pre-added","who":["ml:dpeker"],"prob":0.9416}}}},{"classId":"e_2","part":"s16v1","offsets":[{"start":1776,"text":"S. lindsayae"}],"coordinates":[],"confidence":{"state":"pre-added","who":["ml:dpeker"],"prob":0.9416},"fields":{},"normalizations":{"n_33":{"source":{"name":"NematodeNames","id":"Sclind","url":null},"recName":"Scottnema lindsayae","confidence":{"state":"pre-added","who":["ml:dpeker"],"prob":0.9416}}}},{"classId":"e_2","part":"s16v1","offsets":[{"start":2056,"text":"Plectus"}],"coordinates":[],"confidence":{"state":"pre-added","who":["ml:dpeker"],"prob":0.8856},"fields":{},"normalizations":{"n_33":{"source":{"name":"NematodeNames","id":"Plecsp","url":null},"recName":"Plectus spp.","confidence":{"state":"pre-added","who":["ml:dpeker"],"prob":0.8856}}}},{"classId":"e_2","part":"s16v1","offsets":[{"start":2095,"text":"Plectus"}],"coordinates":[],"confidence":{"state":"pre-added","who":["ml:dpeker"],"prob":0.8856},"fields":{},"normalizations":{"n_33":{"source":{"name":"NematodeNames","id":"Plecsp","url":null},"recName":"Plectus spp.","confidence":{"state":"pre-added","who":["ml:dpeker"],"prob":0.8856}}}},{"classId":"e_2","part":"s16v1","offsets":[{"start":2148,"text":"P. antarcticus"}],"coordinates":[],"confidence":{"state":"pre-added","who":["ml:dpeker"],"prob":0.9518},"fields":{},"normalizations":{"n_33":{"source":{"name":"NematodeNames","id":"Plmurr","url":null},"recName":"Plectus murrayi","confidence":{"state":"pre-added","who":["ml:dpeker"],"prob":0.9518}}}},{"classId":"e_2","part":"s16v1","offsets":[{"start":2178,"text":"P. parietinus"}],"coordinates":[],"confidence":{"state":"pre-added","who":["ml:dpeker"],"prob":0.9472},"fields":{},"normalizations":{"n_33":{"source":{"name":"NematodeNames","id":"Plpari","url":null},"recName":"Plectus parietinus","confidence":{"state":"pre-added","who":["ml:dpeker"],"prob":0.9472}}}},{"classId":"e_2","part":"s16v1","offsets":[{"start":2208,"text":"P. parvus"}],"coordinates":[],"confidence":{"state":"pre-added","who":["ml:dpeker"],"prob":0.9163},"fields":{},"normalizations":{"n_33":{"source":{"name":"NematodeNames","id":"Plmurr","url":null},"recName":"Plectus murrayi","confidence":{"state":"pre-added","who":["ml:dpeker"],"prob":0.9163}}}},{"classId":"e_2","part":"s16v1","offsets":[{"start":2234,"text":"P. cirratus"}],"coordinates":[],"confidence":{"state":"pre-added","who":["ml:dpeker"],"prob":0.9349},"fields":{},"normalizations":{"n_33":{"source":{"name":"NematodeNames","id":"Plcirr","url":null},"recName":"Plectus cirratus","confidence":{"state":"pre-added","who":["ml:dpeker"],"prob":0.9349}}}},{"classId":"e_2","part":"s16v1","offsets":[{"start":2262,"text":"P. belgicae"}],"coordinates":[],"confidence":{"state":"pre-added","who":["ml:dpeker"],"prob":0.9349},"fields":{},"normalizations":{"n_33":{"source":{"name":"NematodeNames","id":"Plmurr","url":null},"recName":"Plectus murrayi","confidence":{"state":"pre-added","who":["ml:dpeker"],"prob":0.9349}}}},{"classId":"e_2","part":"s16v1","offsets":[{"start":2289,"text":"P. murrayi"}],"coordinates":[],"confidence":{"state":"pre-added","who":["ml:dpeker"],"prob":0.9266},"fields":{},"normalizations":{"n_33":{"source":{"name":"NematodeNames","id":"Plmurr","url":null},"recName":"Plectus murrayi","confidence":{"state":"pre-added","who":["ml:dpeker"],"prob":0.9266}}}},{"classId":"e_2","part":"s16v1","offsets":[{"start":2315,"text":"P. acuminatus"}],"coordinates":[],"confidence":{"state":"pre-added","who":["ml:dpeker"],"prob":0.9472},"fields":{},"normalizations":{"n_33":{"source":{"name":"NematodeNames","id":"Placum","url":null},"recName":"Plectus acuminatus","confidence":{"state":"pre-added","who":["ml:dpeker"],"prob":0.9472}}}},{"classId":"e_2","part":"s16v1","offsets":[{"start":2348,"text":"P. frigophilus"}],"coordinates":[],"confidence":{"state":"pre-added","who":["ml:dpeker"],"prob":0.9518},"fields":{},"normalizations":{"n_33":{"source":{"name":"NematodeNames","id":"Plfrig","url":null},"recName":"Plectus frigophilus","confidence":{"state":"pre-added","who":["ml:dpeker"],"prob":0.9518}}}},{"classId":"e_2","part":"s16v1","offsets":[{"start":2576,"text":"Plectus"}],"coordinates":[],"confidence":{"state":"pre-added","who":["ml:dpeker"],"prob":0.8856},"fields":{},"normalizations":{"n_33":{"source":{"name":"NematodeNames","id":"Plecsp","url":null},"recName":"Plectus spp.","confidence":{"state":"pre-added","who":["ml:dpeker"],"prob":0.8856}}}},{"classId":"e_2","part":"s16v1","offsets":[{"start":2633,"text":"P. antarcticus"}],"coordinates":[],"confidence":{"state":"pre-added","who":["ml:dpeker"],"prob":0.9518},"fields":{},"normalizations":{"n_33":{"source":{"name":"NematodeNames","id":"Plmurr","url":null},"recName":"Plectus murrayi","confidence":{"state":"pre-added","who":["ml:dpeker"],"prob":0.9518}}}},{"classId":"e_2","part":"s16v1","offsets":[{"start":2649,"text":"P. frigophilus"}],"coordinates":[],"confidence":{"state":"pre-added","who":["ml:dpeker"],"prob":0.9518},"fields":{},"normalizations":{"n_33":{"source":{"name":"NematodeNames","id":"Plfrig","url":null},"recName":"Plectus frigophilus","confidence":{"state":"pre-added","who":["ml:dpeker"],"prob":0.9518}}}},{"classId":"e_2","part":"s16v1","offsets":[{"start":2665,"text":"P. murrayi"}],"coordinates":[],"confidence":{"state":"pre-added","who":["ml:dpeker"],"prob":0.9266},"fields":{},"normalizations":{"n_33":{"source":{"name":"NematodeNames","id":"Plmurr","url":null},"recName":"Plectus murrayi","confidence":{"state":"pre-added","who":["ml:dpeker"],"prob":0.9266}}}},{"classId":"e_2","part":"s16v1","offsets":[{"start":2680,"text":"P. acuminatus"}],"coordinates":[],"confidence":{"state":"pre-added","who":["ml:dpeker"],"prob":0.9472},"fields":{},"normalizations":{"n_33":{"source":{"name":"NematodeNames","id":"Placum","url":null},"recName":"Plectus acuminatus","confidence":{"state":"pre-added","who":["ml:dpeker"],"prob":0.9472}}}},{"classId":"e_2","part":"s16v1","offsets":[{"start":2708,"text":"P. antarcticus"}],"coordinates":[],"confidence":{"state":"pre-added","who":["ml:dpeker"],"prob":0.9518},"fields":{},"normalizations":{"n_33":{"source":{"name":"NematodeNames","id":"Plmurr","url":null},"recName":"Plectus murrayi","confidence":{"state":"pre-added","who":["ml:dpeker"],"prob":0.9518}}}},{"classId":"e_2","part":"s16v1","offsets":[{"start":2808,"text":"P. murrayi"}],"coordinates":[],"confidence":{"state":"pre-added","who":["ml:dpeker"],"prob":0.9266},"fields":{},"normalizations":{"n_33":{"source":{"name":"NematodeNames","id":"Plmurr","url":null},"recName":"Plectus murrayi","confidence":{"state":"pre-added","who":["ml:dpeker"],"prob":0.9266}}}},{"classId":"e_2","part":"s16v1","offsets":[{"start":2824,"text":"P. belgicae"}],"coordinates":[],"confidence":{"state":"pre-added","who":["ml:dpeker"],"prob":0.9349},"fields":{},"normalizations":{"n_33":{"source":{"name":"NematodeNames","id":"Plmurr","url":null},"recName":"Plectus murrayi","confidence":{"state":"pre-added","who":["ml:dpeker"],"prob":0.9349}}}},{"classId":"e_2","part":"s16v1","offsets":[{"start":2840,"text":"P. parvus"}],"coordinates":[],"confidence":{"state":"pre-added","who":["ml:dpeker"],"prob":0.9163},"fields":{},"normalizations":{"n_33":{"source":{"name":"NematodeNames","id":"Plmurr","url":null},"recName":"Plectus murrayi","confidence":{"state":"pre-added","who":["ml:dpeker"],"prob":0.9163}}}},{"classId":"e_2","part":"s16v1","offsets":[{"start":2946,"text":"Plectus"}],"coordinates":[],"confidence":{"state":"pre-added","who":["ml:dpeker"],"prob":0.8856},"fields":{},"normalizations":{"n_33":{"source":{"name":"NematodeNames","id":"Plecsp","url":null},"recName":"Plectus spp.","confidence":{"state":"pre-added","who":["ml:dpeker"],"prob":0.8856}}}},{"classId":"e_2","part":"s16v1","offsets":[{"start":3008,"text":"Plectus spp"}],"coordinates":[],"confidence":{"state":"pre-added","who":["ml:dpeker"],"prob":0.8842},"fields":{},"normalizations":{"n_33":{"source":{"name":"NematodeNames","id":"Plecsp","url":null},"recName":"Plectus spp.","confidence":{"state":"pre-added","who":["ml:dpeker"],"prob":0.8842}}}},{"classId":"e_4","part":"s16v1","offsets":[{"start":3056,"text":"McMurdo Dry Valleys"}],"coordinates":[],"confidence":{"state":"pre-added","who":["ml:dpeker"],"prob":0.9671},"fields":{},"normalizations":{"n_34":{"source":{"name":"GeoNames","id":"113892","url":null},"recName":"McMurdo Dry Valleys","confidence":{"state":"pre-added","who":["ml:dpeker"],"prob":0.9671}}}},{"classId":"e_2","part":"s16v1","offsets":[{"start":3217,"text":"Plectus spp"}],"coordinates":[],"confidence":{"state":"pre-added","who":["ml:dpeker"],"prob":0.8842},"fields":{},"normalizations":{"n_33":{"source":{"name":"NematodeNames","id":"Plecsp","url":null},"recName":"Plectus spp.","confidence":{"state":"pre-added","who":["ml:dpeker"],"prob":0.8842}}}},{"classId":"e_2","part":"s16v1","offsets":[{"start":3295,"text":"Plectus spp"}],"coordinates":[],"confidence":{"state":"pre-added","who":["ml:dpeker"],"prob":0.8842},"fields":{},"normalizations":{"n_33":{"source":{"name":"NematodeNames","id":"Plecsp","url":null},"recName":"Plectus spp.","confidence":{"state":"pre-added","who":["ml:dpeker"],"prob":0.8842}}}},{"classId":"e_2","part":"s17v1","offsets":[{"start":125,"text":"Plectus"}],"coordinates":[],"confidence":{"state":"pre-added","who":["ml:dpeker"],"prob":0.8856},"fields":{},"normalizations":{"n_33":{"source":{"name":"NematodeNames","id":"Plecsp","url":null},"recName":"Plectus spp.","confidence":{"state":"pre-added","who":["ml:dpeker"],"prob":0.8856}}}},{"classId":"e_2","part":"s17v1","offsets":[{"start":217,"text":"P. murrayi"}],"coordinates":[],"confidence":{"state":"pre-added","who":["ml:dpeker"],"prob":0.9266},"fields":{},"normalizations":{"n_33":{"source":{"name":"NematodeNames","id":"Plmurr","url":null},"recName":"Plectus murrayi","confidence":{"state":"pre-added","who":["ml:dpeker"],"prob":0.9266}}}},{"classId":"e_2","part":"s17v1","offsets":[{"start":236,"text":"P. frigophilus"}],"coordinates":[],"confidence":{"state":"pre-added","who":["ml:dpeker"],"prob":0.9518},"fields":{},"normalizations":{"n_33":{"source":{"name":"NematodeNames","id":"Plfrig","url":null},"recName":"Plectus frigophilus","confidence":{"state":"pre-added","who":["ml:dpeker"],"prob":0.9518}}}},{"classId":"e_2","part":"s17v1","offsets":[{"start":687,"text":"Plectus"}],"coordinates":[],"confidence":{"state":"pre-added","who":["ml:dpeker"],"prob":0.8856},"fields":{},"normalizations":{"n_33":{"source":{"name":"NematodeNames","id":"Plecsp","url":null},"recName":"Plectus spp.","confidence":{"state":"pre-added","who":["ml:dpeker"],"prob":0.8856}}}},{"classId":"e_4","part":"s17v1","offsets":[{"start":1014,"text":"McMurdo Dry Valleys\n\n*"}],"coordinates":[],"confidence":{"state":"pre-added","who":["ml:dpeker"],"prob":0.8506},"fields":{},"normalizations":{"n_34":{"source":{"name":"GeoNames","id":"113892","url":null},"recName":"McMurdo Dry Valleys","confidence":{"state":"pre-added","who":["ml:dpeker"],"prob":0.8506}}}},{"classId":"e_4","part":"s17v1","offsets":[{"start":1281,"text":"Alatna Valley\n\n*"}],"coordinates":[],"confidence":{"state":"pre-added","who":["ml:dpeker"],"prob":0.7903},"fields":{},"normalizations":{"n_34":{"source":{"name":"GeoNames","id":"121655","url":null},"recName":"Alatna Valley","confidence":{"state":"pre-added","who":["ml:dpeker"],"prob":0.7903}}}},{"classId":"e_4","part":"s17v1","offsets":[{"start":1318,"text":"Battleship Promontory\n\n*"}],"coordinates":[],"confidence":{"state":"pre-added","who":["ml:dpeker"],"prob":0.8638},"fields":{},"normalizations":{"n_34":{"source":{"name":"GeoNames","id":"122277","url":null},"recName":"Battleship Promontory","confidence":{"state":"pre-added","who":["ml:dpeker"],"prob":0.8638}}}},{"classId":"e_4","part":"s17v1","offsets":[{"start":1514,"text":"Garwood Valley\n\n*"}],"coordinates":[],"confidence":{"state":"pre-added","who":["ml:dpeker"],"prob":0.8035},"fields":{},"normalizations":{"n_34":{"source":{"name":"GeoNames","id":"125553","url":null},"recName":"Garwood Valley","confidence":{"state":"pre-added","who":["ml:dpeker"],"prob":0.8035}}}},{"classId":"e_4","part":"s17v1","offsets":[{"start":1552,"text":"Garwood Lake\n\n*"}],"coordinates":[],"confidence":{"state":"pre-added","who":["ml:dpeker"],"prob":0.7388},"fields":{},"normalizations":{"n_34":{"source":{"name":"GeoNames","id":"125554","url":null},"recName":"Garwood, Lake","confidence":{"state":"pre-added","who":["ml:dpeker"],"prob":0.7388}}}},{"classId":"e_4","part":"s17v1","offsets":[{"start":1823,"text":"Miers Valley\n\n*"}],"coordinates":[],"confidence":{"state":"pre-added","who":["ml:dpeker"],"prob":0.7752},"fields":{},"normalizations":{"n_34":{"source":{"name":"GeoNames","id":"128868","url":null},"recName":"Miers Valley","confidence":{"state":"pre-added","who":["ml:dpeker"],"prob":0.7752}}}},{"classId":"e_4","part":"s17v1","offsets":[{"start":1860,"text":"Miers Glacier\n\n*"}],"coordinates":[],"confidence":{"state":"pre-added","who":["ml:dpeker"],"prob":0.7903},"fields":{},"normalizations":{"n_34":{"source":{"name":"GeoNames","id":"128866","url":null},"recName":"Miers Glacier","confidence":{"state":"pre-added","who":["ml:dpeker"],"prob":0.7903}}}},{"classId":"e_4","part":"s17v1","offsets":[{"start":2036,"text":"Taylor Valley\n\n*"}],"coordinates":[],"confidence":{"state":"pre-added","who":["ml:dpeker"],"prob":0.7903},"fields":{},"normalizations":{"n_34":{"source":{"name":"GeoNames","id":"132512","url":null},"recName":"Taylor Valley","confidence":{"state":"pre-added","who":["ml:dpeker"],"prob":0.7903}}}},{"classId":"e_4","part":"s17v1","offsets":[{"start":2073,"text":"Canada Glacier\n\n*"}],"coordinates":[],"confidence":{"state":"pre-added","who":["ml:dpeker"],"prob":0.8035},"fields":{},"normalizations":{"n_34":{"source":{"name":"GeoNames","id":"123257","url":null},"recName":"Canada Glacier","confidence":{"state":"pre-added","who":["ml:dpeker"],"prob":0.8035}}}},{"classId":"e_4","part":"s17v1","offsets":[{"start":2372,"text":"Lake Bonney\n\n*"}],"coordinates":[],"confidence":{"state":"pre-added","who":["ml:dpeker"],"prob":0.7579},"fields":{},"normalizations":{"n_34":{"source":{"name":"GeoNames","id":"122715","url":null},"recName":"Bonney, Lake","confidence":{"state":"pre-added","who":["ml:dpeker"],"prob":0.7579}}}},{"classId":"e_4","part":"s18v1","offsets":[{"start":775,"text":"Lake Chad\n\n*"}],"coordinates":[],"confidence":{"state":"pre-added","who":["ml:dpeker"],"prob":0.714},"fields":{},"normalizations":{"n_34":{"source":{"name":"GeoNames","id":"123422","url":null},"recName":"Chad, Lake","confidence":{"state":"pre-added","who":["ml:dpeker"],"prob":0.714}}}},{"classId":"e_4","part":"s18v1","offsets":[{"start":983,"text":"Lake Fryxell\n\n*"}],"coordinates":[],"confidence":{"state":"pre-added","who":["ml:dpeker"],"prob":0.7752},"fields":{},"normalizations":{"n_34":{"source":{"name":"GeoNames","id":"125440","url":null},"recName":"Fryxell, Lake","confidence":{"state":"pre-added","who":["ml:dpeker"],"prob":0.7752}}}},{"classId":"e_4","part":"s18v1","offsets":[{"start":1502,"text":"Von Guerard stream"}],"coordinates":[],"confidence":{"state":"pre-added","who":["ml:dpeker"],"prob":0.938},"fields":{},"normalizations":{"n_34":{"source":{"name":"GeoNames","id":"133312","url":null},"recName":"Von Guerard Stream","confidence":{"state":"pre-added","who":["ml:dpeker"],"prob":0.938}}}},{"classId":"e_4","part":"s18v1","offsets":[{"start":1522,"text":"Harnish Creek"}],"coordinates":[],"confidence":{"state":"pre-added","who":["ml:dpeker"],"prob":0.9472},"fields":{},"normalizations":{"n_34":{"source":{"name":"GeoNames","id":"126215","url":null},"recName":"Harnish Creek","confidence":{"state":"pre-added","who":["ml:dpeker"],"prob":0.9472}}}},{"classId":"e_4","part":"s18v1","offsets":[{"start":1642,"text":"Huey Creek\n\n*"}],"coordinates":[],"confidence":{"state":"pre-added","who":["ml:dpeker"],"prob":0.7377},"fields":{},"normalizations":{"n_34":{"source":{"name":"GeoNames","id":"126795","url":null},"recName":"Huey Creek","confidence":{"state":"pre-added","who":["ml:dpeker"],"prob":0.7377}}}},{"classId":"e_4","part":"s18v1","offsets":[{"start":1733,"text":"Harnish Creek\n\n*"}],"coordinates":[],"confidence":{"state":"pre-added","who":["ml:dpeker"],"prob":0.7903},"fields":{},"normalizations":{"n_34":{"source":{"name":"GeoNames","id":"126215","url":null},"recName":"Harnish Creek","confidence":{"state":"pre-added","who":["ml:dpeker"],"prob":0.7903}}}},{"classId":"e_4","part":"s18v1","offsets":[{"start":2221,"text":"Green Creek"}],"coordinates":[],"confidence":{"state":"pre-added","who":["ml:dpeker"],"prob":0.9349},"fields":{},"normalizations":{"n_34":{"source":{"name":"GeoNames","id":"125908","url":null},"recName":"Green Creek","confidence":{"state":"pre-added","who":["ml:dpeker"],"prob":0.9349}}}},{"classId":"e_4","part":"s19v1","offsets":[{"start":164,"text":"Green Creek"}],"coordinates":[],"confidence":{"state":"pre-added","who":["ml:dpeker"],"prob":0.9349},"fields":{},"normalizations":{"n_34":{"source":{"name":"GeoNames","id":"125908","url":null},"recName":"Green Creek","confidence":{"state":"pre-added","who":["ml:dpeker"],"prob":0.9349}}}},{"classId":"e_4","part":"s19v1","offsets":[{"start":239,"text":"Lake Hoare\n\n*"}],"coordinates":[],"confidence":{"state":"pre-added","who":["ml:dpeker"],"prob":0.7377},"fields":{},"normalizations":{"n_34":{"source":{"name":"GeoNames","id":"126559","url":null},"recName":"Hoare, Lake","confidence":{"state":"pre-added","who":["ml:dpeker"],"prob":0.7377}}}},{"classId":"e_4","part":"s19v1","offsets":[{"start":1688,"text":"Taylor Glacier\n\n*"}],"coordinates":[],"confidence":{"state":"pre-added","who":["ml:dpeker"],"prob":0.8035},"fields":{},"normalizations":{"n_34":{"source":{"name":"GeoNames","id":"132500","url":null},"recName":"Taylor Glacier","confidence":{"state":"pre-added","who":["ml:dpeker"],"prob":0.8035}}}},{"classId":"e_4","part":"s19v1","offsets":[{"start":1819,"text":"Suess Glacier\n\n*"}],"coordinates":[],"confidence":{"state":"pre-added","who":["ml:dpeker"],"prob":0.7903},"fields":{},"normalizations":{"n_34":{"source":{"name":"GeoNames","id":"132312","url":null},"recName":"Suess Glacier","confidence":{"state":"pre-added","who":["ml:dpeker"],"prob":0.7903}}}},{"classId":"e_4","part":"s19v1","offsets":[{"start":1943,"text":"Victoria Valley\n\n*"}],"coordinates":[],"confidence":{"state":"pre-added","who":["ml:dpeker"],"prob":0.8151},"fields":{},"normalizations":{"n_34":{"source":{"name":"GeoNames","id":"133250","url":null},"recName":"Victoria Valley","confidence":{"state":"pre-added","who":["ml:dpeker"],"prob":0.8151}}}},{"classId":"e_4","part":"s19v1","offsets":[{"start":2041,"text":"Wright Valley\n\n*"}],"coordinates":[],"confidence":{"state":"pre-added","who":["ml:dpeker"],"prob":0.7903},"fields":{},"normalizations":{"n_34":{"source":{"name":"GeoNames","id":"133876","url":null},"recName":"Wright Valley","confidence":{"state":"pre-added","who":["ml:dpeker"],"prob":0.7903}}}},{"classId":"e_4","part":"s19v1","offsets":[{"start":2084,"text":"Onyx River\n\n*"}],"coordinates":[],"confidence":{"state":"pre-added","who":["ml:dpeker"],"prob":0.7377},"fields":{},"normalizations":{"n_34":{"source":{"name":"GeoNames","id":"129676","url":null},"recName":"Onyx River","confidence":{"state":"pre-added","who":["ml:dpeker"],"prob":0.7377}}}},{"classId":"e_4","part":"s19v1","offsets":[{"start":2158,"text":"Meserve Glacier\n\n*"}],"coordinates":[],"confidence":{"state":"pre-added","who":["ml:dpeker"],"prob":0.8151},"fields":{},"normalizations":{"n_34":{"source":{"name":"GeoNames","id":"128829","url":null},"recName":"Meserve Glacier","confidence":{"state":"pre-added","who":["ml:dpeker"],"prob":0.8151}}}},{"classId":"e_4","part":"s19v1","offsets":[{"start":2284,"text":"Lake Vanda\n\n*"}],"coordinates":[],"confidence":{"state":"pre-added","who":["ml:dpeker"],"prob":0.7377},"fields":{},"normalizations":{"n_34":{"source":{"name":"GeoNames","id":"133142","url":null},"recName":"Vanda, Lake","confidence":{"state":"pre-added","who":["ml:dpeker"],"prob":0.7377}}}},{"classId":"e_4","part":"s19v1","offsets":[{"start":2383,"text":"Lake Brownworth)\n\n*"}],"coordinates":[],"confidence":{"state":"pre-added","who":["ml:dpeker"],"prob":0.7898},"fields":{},"normalizations":{"n_34":{"source":{"name":"GeoNames","id":"123002","url":null},"recName":"Brownworth, Lake","confidence":{"state":"pre-added","who":["ml:dpeker"],"prob":0.7898}}}},{"classId":"e_4","part":"s20v1","offsets":[{"start":141,"text":"Lake Canopus\n\n*"}],"coordinates":[],"confidence":{"state":"pre-added","who":["ml:dpeker"],"prob":0.7752},"fields":{},"normalizations":{"n_34":{"source":{"name":"GeoNames","id":"123276","url":null},"recName":"Canopus, Lake","confidence":{"state":"pre-added","who":["ml:dpeker"],"prob":0.7752}}}},{"classId":"e_4","part":"s20v1","offsets":[{"start":262,"text":"Lake Vanda"}],"coordinates":[],"confidence":{"state":"pre-added","who":["ml:dpeker"],"prob":0.9266},"fields":{},"normalizations":{"n_34":{"source":{"name":"GeoNames","id":"133142","url":null},"recName":"Vanda, Lake","confidence":{"state":"pre-added","who":["ml:dpeker"],"prob":0.9266}}}},{"classId":"e_4","part":"s20v1","offsets":[{"start":277,"text":"Lake Bull"}],"coordinates":[],"confidence":{"state":"pre-added","who":["ml:dpeker"],"prob":0.9163},"fields":{},"normalizations":{"n_34":{"source":{"name":"GeoNames","id":"123081","url":null},"recName":"Bull, Lake","confidence":{"state":"pre-added","who":["ml:dpeker"],"prob":0.9163}}}},{"classId":"e_4","part":"s20v1","offsets":[{"start":383,"text":"Lake Vanda"}],"coordinates":[],"confidence":{"state":"pre-added","who":["ml:dpeker"],"prob":0.9266},"fields":{},"normalizations":{"n_34":{"source":{"name":"GeoNames","id":"133142","url":null},"recName":"Vanda, Lake","confidence":{"state":"pre-added","who":["ml:dpeker"],"prob":0.9266}}}},{"classId":"e_4","part":"s20v1","offsets":[{"start":398,"text":"Lake Bull"}],"coordinates":[],"confidence":{"state":"pre-added","who":["ml:dpeker"],"prob":0.9163},"fields":{},"normalizations":{"n_34":{"source":{"name":"GeoNames","id":"123081","url":null},"recName":"Bull, Lake","confidence":{"state":"pre-added","who":["ml:dpeker"],"prob":0.9163}}}},{"classId":"e_4","part":"s20v1","offsets":[{"start":513,"text":"Bull Pass\n\n*"}],"coordinates":[],"confidence":{"state":"pre-added","who":["ml:dpeker"],"prob":0.714},"fields":{},"normalizations":{"n_34":{"source":{"name":"GeoNames","id":"123076","url":null},"recName":"Bull Pass","confidence":{"state":"pre-added","who":["ml:dpeker"],"prob":0.714}}}},{"classId":"e_4","part":"s20v1","offsets":[{"start":604,"text":"Lake Bull\n\n*"}],"coordinates":[],"confidence":{"state":"pre-added","who":["ml:dpeker"],"prob":0.714},"fields":{},"normalizations":{"n_34":{"source":{"name":"GeoNames","id":"123081","url":null},"recName":"Bull, Lake","confidence":{"state":"pre-added","who":["ml:dpeker"],"prob":0.714}}}},{"classId":"e_4","part":"s20v1","offsets":[{"start":767,"text":"Koettlitz Glacier"}],"coordinates":[],"confidence":{"state":"pre-added","who":["ml:dpeker"],"prob":0.9622},"fields":{},"normalizations":{"n_34":{"source":{"name":"GeoNames","id":"127526","url":null},"recName":"Koettlitz Glacier","confidence":{"state":"pre-added","who":["ml:dpeker"],"prob":0.9622}}}},{"classId":"e_4","part":"s20v1","offsets":[{"start":838,"text":"Cape Chocolate"}],"coordinates":[],"confidence":{"state":"pre-added","who":["ml:dpeker"],"prob":0.9518},"fields":{},"normalizations":{"n_34":{"source":{"name":"GeoNames","id":"112987","url":null},"recName":"Chocolate, Cape","confidence":{"state":"pre-added","who":["ml:dpeker"],"prob":0.9518}}}},{"classId":"e_4","part":"s20v1","offsets":[{"start":928,"text":"Marble Point\n\n*"}],"coordinates":[],"confidence":{"state":"pre-added","who":["ml:dpeker"],"prob":0.7752},"fields":{},"normalizations":{"n_34":{"source":{"name":"GeoNames","id":"113829","url":null},"recName":"Marble Point","confidence":{"state":"pre-added","who":["ml:dpeker"],"prob":0.7752}}}},{"classId":"e_4","part":"s20v1","offsets":[{"start":1265,"text":"Strand Moraines\n\n*"}],"coordinates":[],"confidence":{"state":"pre-added","who":["ml:dpeker"],"prob":0.8151},"fields":{},"normalizations":{"n_34":{"source":{"name":"GeoNames","id":"CKL001","url":null},"recName":"Strand Moraines","confidence":{"state":"pre-added","who":["ml:dpeker"],"prob":0.8151}}}},{"classId":"e_4","part":"s20v1","offsets":[{"start":1516,"text":"Cape Hallett\n\n*"}],"coordinates":[],"confidence":{"state":"pre-added","who":["ml:dpeker"],"prob":0.7752},"fields":{},"normalizations":{"n_34":{"source":{"name":"GeoNames","id":"126118","url":null},"recName":"Hallett, Cape","confidence":{"state":"pre-added","who":["ml:dpeker"],"prob":0.7752}}}},{"classId":"e_4","part":"s20v1","offsets":[{"start":1591,"text":"Willett Cove"}],"coordinates":[],"confidence":{"state":"pre-added","who":["ml:dpeker"],"prob":0.9416},"fields":{},"normalizations":{"n_34":{"source":{"name":"GeoNames","id":"133718","url":null},"recName":"Willett Cove","confidence":{"state":"pre-added","who":["ml:dpeker"],"prob":0.9416}}}},{"classId":"e_4","part":"s20v1","offsets":[{"start":1827,"text":"Edmonson Point\n\n*"}],"coordinates":[],"confidence":{"state":"pre-added","who":["ml:dpeker"],"prob":0.8035},"fields":{},"normalizations":{"n_34":{"source":{"name":"GeoNames","id":"124687","url":null},"recName":"Edmonson Point","confidence":{"state":"pre-added","who":["ml:dpeker"],"prob":0.8035}}}},{"classId":"e_4","part":"s21v1","offsets":[{"start":294,"text":"Gondwana Station"}],"coordinates":[],"confidence":{"state":"pre-added","who":["ml:dpeker"],"prob":0.9592},"fields":{},"normalizations":{"n_34":{"source":{"name":"GeoNames","id":"CKL003","url":null},"recName":"Gondwana Station","confidence":{"state":"pre-added","who":["ml:dpeker"],"prob":0.9592}}}},{"classId":"e_4","part":"s21v1","offsets":[{"start":379,"text":"Luther Peak"}],"coordinates":[],"confidence":{"state":"pre-added","who":["ml:dpeker"],"prob":0.9349},"fields":{},"normalizations":{"n_34":{"source":{"name":"GeoNames","id":"128240","url":null},"recName":"Luther Peak","confidence":{"state":"pre-added","who":["ml:dpeker"],"prob":0.9349}}}},{"classId":"e_4","part":"s21v1","offsets":[{"start":546,"text":"Terra Nova Bay\n\n*"}],"coordinates":[],"confidence":{"state":"pre-added","who":["ml:dpeker"],"prob":0.8035},"fields":{},"normalizations":{"n_34":{"source":{"name":"GeoNames","id":"132576","url":null},"recName":"Terra Nova Bay","confidence":{"state":"pre-added","who":["ml:dpeker"],"prob":0.8035}}}},{"classId":"e_2","part":"s21v1","offsets":[{"start":723,"text":"Plectus"}],"coordinates":[],"confidence":{"state":"pre-added","who":["ml:dpeker"],"prob":0.8856},"fields":{},"normalizations":{"n_33":{"source":{"name":"NematodeNames","id":"Plecsp","url":null},"recName":"Plectus spp.","confidence":{"state":"pre-added","who":["ml:dpeker"],"prob":0.8856}}}},{"classId":"e_4","part":"s22v1","offsets":[{"start":60,"text":"Edmonson Point"}],"coordinates":[],"confidence":{"state":"pre-added","who":["ml:dpeker"],"prob":0.9518},"fields":{},"normalizations":{"n_34":{"source":{"name":"GeoNames","id":"124687","url":null},"recName":"Edmonson Point","confidence":{"state":"pre-added","who":["ml:dpeker"],"prob":0.9518}}}},{"classId":"e_2","part":"s22v1","offsets":[{"start":111,"text":"P. antarcticus"}],"coordinates":[],"confidence":{"state":"pre-added","who":["ml:dpeker"],"prob":0.9518},"fields":{},"normalizations":{"n_33":{"source":{"name":"NematodeNames","id":"Plmurr","url":null},"recName":"Plectus murrayi","confidence":{"state":"pre-added","who":["ml:dpeker"],"prob":0.9518}}}},{"classId":"e_2","part":"s22v1","offsets":[{"start":127,"text":"P. frigophilus"}],"coordinates":[],"confidence":{"state":"pre-added","who":["ml:dpeker"],"prob":0.9518},"fields":{},"normalizations":{"n_33":{"source":{"name":"NematodeNames","id":"Plfrig","url":null},"recName":"Plectus frigophilus","confidence":{"state":"pre-added","who":["ml:dpeker"],"prob":0.9518}}}},{"classId":"e_2","part":"s22v1","offsets":[{"start":146,"text":"P. acuminatus"}],"coordinates":[],"confidence":{"state":"pre-added","who":["ml:dpeker"],"prob":0.9472},"fields":{},"normalizations":{"n_33":{"source":{"name":"NematodeNames","id":"Placum","url":null},"recName":"Plectus acuminatus","confidence":{"state":"pre-added","who":["ml:dpeker"],"prob":0.9472}}}},{"classId":"e_4","part":"s22v1","offsets":[{"start":163,"text":"Terra Nova Bay"}],"coordinates":[],"confidence":{"state":"pre-added","who":["ml:dpeker"],"prob":0.9518},"fields":{},"normalizations":{"n_34":{"source":{"name":"GeoNames","id":"132576","url":null},"recName":"Terra Nova Bay","confidence":{"state":"pre-added","who":["ml:dpeker"],"prob":0.9518}}}},{"classId":"e_4","part":"s22v1","offsets":[{"start":186,"text":"McMurdo Dry Valleys"}],"coordinates":[],"confidence":{"state":"pre-added","who":["ml:dpeker"],"prob":0.9671},"fields":{},"normalizations":{"n_34":{"source":{"name":"GeoNames","id":"113892","url":null},"recName":"McMurdo Dry Valleys","confidence":{"state":"pre-added","who":["ml:dpeker"],"prob":0.9671}}}},{"classId":"e_2","part":"s22v1","offsets":[{"start":212,"text":"P. murrayi"}],"coordinates":[],"confidence":{"state":"pre-added","who":["ml:dpeker"],"prob":0.9266},"fields":{},"normalizations":{"n_33":{"source":{"name":"NematodeNames","id":"Plmurr","url":null},"recName":"Plectus murrayi","confidence":{"state":"pre-added","who":["ml:dpeker"],"prob":0.9266}}}},{"classId":"e_2","part":"s22v1","offsets":[{"start":227,"text":"P. frigophilus"}],"coordinates":[],"confidence":{"state":"pre-added","who":["ml:dpeker"],"prob":0.9518},"fields":{},"normalizations":{"n_33":{"source":{"name":"NematodeNames","id":"Plfrig","url":null},"recName":"Plectus frigophilus","confidence":{"state":"pre-added","who":["ml:dpeker"],"prob":0.9518}}}},{"classId":"e_2","part":"s22v1","offsets":[{"start":254,"text":"P. murrayi"}],"coordinates":[],"confidence":{"state":"pre-added","who":["ml:dpeker"],"prob":0.9266},"fields":{},"normalizations":{"n_33":{"source":{"name":"NematodeNames","id":"Plmurr","url":null},"recName":"Plectus murrayi","confidence":{"state":"pre-added","who":["ml:dpeker"],"prob":0.9266}}}},{"classId":"e_2","part":"s22v1","offsets":[{"start":309,"text":"P. murrayi"}],"coordinates":[],"confidence":{"state":"pre-added","who":["ml:dpeker"],"prob":0.9266},"fields":{},"normalizations":{"n_33":{"source":{"name":"NematodeNames","id":"Plmurr","url":null},"recName":"Plectus murrayi","confidence":{"state":"pre-added","who":["ml:dpeker"],"prob":0.9266}}}},{"classId":"e_2","part":"s22v1","offsets":[{"start":324,"text":"P. frigophilus"}],"coordinates":[],"confidence":{"state":"pre-added","who":["ml:dpeker"],"prob":0.9518},"fields":{},"normalizations":{"n_33":{"source":{"name":"NematodeNames","id":"Plfrig","url":null},"recName":"Plectus frigophilus","confidence":{"state":"pre-added","who":["ml:dpeker"],"prob":0.9518}}}},{"classId":"e_2","part":"s22v1","offsets":[{"start":471,"text":"P. murrayi"}],"coordinates":[],"confidence":{"state":"pre-added","who":["ml:dpeker"],"prob":0.9266},"fields":{},"normalizations":{"n_33":{"source":{"name":"NematodeNames","id":"Plmurr","url":null},"recName":"Plectus murrayi","confidence":{"state":"pre-added","who":["ml:dpeker"],"prob":0.9266}}}},{"classId":"e_2","part":"s22v1","offsets":[{"start":486,"text":"P. frigophilus"}],"coordinates":[],"confidence":{"state":"pre-added","who":["ml:dpeker"],"prob":0.9518},"fields":{},"normalizations":{"n_33":{"source":{"name":"NematodeNames","id":"Plfrig","url":null},"recName":"Plectus frigophilus","confidence":{"state":"pre-added","who":["ml:dpeker"],"prob":0.9518}}}},{"classId":"e_4","part":"s22v1","offsets":[{"start":536,"text":"Ross Island"}],"coordinates":[],"confidence":{"state":"pre-added","who":["ml:dpeker"],"prob":0.9349},"fields":{},"normalizations":{"n_34":{"source":{"name":"GeoNames","id":"130958","url":null},"recName":"Ross Island","confidence":{"state":"pre-added","who":["ml:dpeker"],"prob":0.9349}}}},{"classId":"e_4","part":"s22v1","offsets":[{"start":559,"text":"Royds, Cape"}],"coordinates":[],"confidence":{"state":"pre-added","who":["ml:dpeker"],"prob":0.9349},"fields":{},"normalizations":{"n_34":{"source":{"name":"GeoNames","id":"131005","url":null},"recName":"Royds, Cape","confidence":{"state":"pre-added","who":["ml:dpeker"],"prob":0.9349}}}},{"classId":"e_4","part":"s22v1","offsets":[{"start":578,"text":"Cape Crozier"}],"coordinates":[],"confidence":{"state":"pre-added","who":["ml:dpeker"],"prob":0.9416},"fields":{},"normalizations":{"n_34":{"source":{"name":"GeoNames","id":"123976","url":null},"recName":"Crozier, Cape","confidence":{"state":"pre-added","who":["ml:dpeker"],"prob":0.9416}}}},{"classId":"e_4","part":"s22v1","offsets":[{"start":592,"text":"McMurdo Station"}],"coordinates":[],"confidence":{"state":"pre-added","who":["ml:dpeker"],"prob":0.9558},"fields":{},"normalizations":{"n_34":{"source":{"name":"GeoNames","id":"128725","url":null},"recName":"McMurdo Station","confidence":{"state":"pre-added","who":["ml:dpeker"],"prob":0.9558}}}},{"classId":"e_4","part":"s22v1","offsets":[{"start":612,"text":"Rocky Point"}],"coordinates":[],"confidence":{"state":"pre-added","who":["ml:dpeker"],"prob":0.9349},"fields":{},"normalizations":{"n_34":{"source":{"name":"GeoNames","id":"130884","url":null},"recName":"Rocky Point","confidence":{"state":"pre-added","who":["ml:dpeker"],"prob":0.9349}}}},{"classId":"e_2","part":"s22v1","offsets":[{"start":732,"text":"P. frigophilus"}],"coordinates":[],"confidence":{"state":"pre-added","who":["ml:dpeker"],"prob":0.9518},"fields":{},"normalizations":{"n_33":{"source":{"name":"NematodeNames","id":"Plfrig","url":null},"recName":"Plectus frigophilus","confidence":{"state":"pre-added","who":["ml:dpeker"],"prob":0.9518}}}},{"classId":"e_4","part":"s22v1","offsets":[{"start":768,"text":"Dunlop Island"}],"coordinates":[],"confidence":{"state":"pre-added","who":["ml:dpeker"],"prob":0.9472},"fields":{},"normalizations":{"n_34":{"source":{"name":"GeoNames","id":"113203","url":null},"recName":"Dunlop Island","confidence":{"state":"pre-added","who":["ml:dpeker"],"prob":0.9472}}}},{"classId":"e_2","part":"s22v1","offsets":[{"start":806,"text":"P. antarcticus"}],"coordinates":[],"confidence":{"state":"pre-added","who":["ml:dpeker"],"prob":0.9518},"fields":{},"normalizations":{"n_33":{"source":{"name":"NematodeNames","id":"Plmurr","url":null},"recName":"Plectus murrayi","confidence":{"state":"pre-added","who":["ml:dpeker"],"prob":0.9518}}}},{"classId":"e_2","part":"s22v1","offsets":[{"start":890,"text":"P. antarcticus"}],"coordinates":[],"confidence":{"state":"pre-added","who":["ml:dpeker"],"prob":0.9518},"fields":{},"normalizations":{"n_33":{"source":{"name":"NematodeNames","id":"Plmurr","url":null},"recName":"Plectus murrayi","confidence":{"state":"pre-added","who":["ml:dpeker"],"prob":0.9518}}}},{"classId":"e_2","part":"s22v1","offsets":[{"start":940,"text":"P. murrayi"}],"coordinates":[],"confidence":{"state":"pre-added","who":["ml:dpeker"],"prob":0.9266},"fields":{},"normalizations":{"n_33":{"source":{"name":"NematodeNames","id":"Plmurr","url":null},"recName":"Plectus murrayi","confidence":{"state":"pre-added","who":["ml:dpeker"],"prob":0.9266}}}},{"classId":"e_2","part":"s22v1","offsets":[{"start":981,"text":"Plectus spp"}],"coordinates":[],"confidence":{"state":"pre-added","who":["ml:dpeker"],"prob":0.8842},"fields":{},"normalizations":{"n_33":{"source":{"name":"NematodeNames","id":"Plecsp","url":null},"recName":"Plectus spp.","confidence":{"state":"pre-added","who":["ml:dpeker"],"prob":0.8842}}}},{"classId":"e_2","part":"s22v1","offsets":[{"start":1290,"text":"Plectus spp"}],"coordinates":[],"confidence":{"state":"pre-added","who":["ml:dpeker"],"prob":0.8842},"fields":{},"normalizations":{"n_33":{"source":{"name":"NematodeNames","id":"Plecsp","url":null},"recName":"Plectus spp.","confidence":{"state":"pre-added","who":["ml:dpeker"],"prob":0.8842}}}},{"classId":"e_2","part":"s22v1","offsets":[{"start":1514,"text":"Plectus spp"}],"coordinates":[],"confidence":{"state":"pre-added","who":["ml:dpeker"],"prob":0.8842},"fields":{},"normalizations":{"n_33":{"source":{"name":"NematodeNames","id":"Plecsp","url":null},"recName":"Plectus spp.","confidence":{"state":"pre-added","who":["ml:dpeker"],"prob":0.8842}}}},{"classId":"e_2","part":"s22v1","offsets":[{"start":1559,"text":"Plectus spp"}],"coordinates":[],"confidence":{"state":"pre-added","who":["ml:dpeker"],"prob":0.8842},"fields":{},"normalizations":{"n_33":{"source":{"name":"NematodeNames","id":"Plecsp","url":null},"recName":"Plectus spp.","confidence":{"state":"pre-added","who":["ml:dpeker"],"prob":0.8842}}}},{"classId":"e_4","part":"s22v1","offsets":[{"start":1671,"text":"McMurdo Dry Valleys"}],"coordinates":[],"confidence":{"state":"pre-added","who":["ml:dpeker"],"prob":0.9671},"fields":{},"normalizations":{"n_34":{"source":{"name":"GeoNames","id":"113892","url":null},"recName":"McMurdo Dry Valleys","confidence":{"state":"pre-added","who":["ml:dpeker"],"prob":0.9671}}}},{"classId":"e_2","part":"s22v1","offsets":[{"start":1736,"text":"P. murrayi"}],"coordinates":[],"confidence":{"state":"pre-added","who":["ml:dpeker"],"prob":0.9266},"fields":{},"normalizations":{"n_33":{"source":{"name":"NematodeNames","id":"Plmurr","url":null},"recName":"Plectus murrayi","confidence":{"state":"pre-added","who":["ml:dpeker"],"prob":0.9266}}}},{"classId":"e_2","part":"s22v1","offsets":[{"start":1902,"text":"Plectus"}],"coordinates":[],"confidence":{"state":"pre-added","who":["ml:dpeker"],"prob":0.8856},"fields":{},"normalizations":{"n_33":{"source":{"name":"NematodeNames","id":"Plecsp","url":null},"recName":"Plectus spp.","confidence":{"state":"pre-added","who":["ml:dpeker"],"prob":0.8856}}}},{"classId":"e_2","part":"s22v1","offsets":[{"start":1967,"text":"Plectus spp"}],"coordinates":[],"confidence":{"state":"pre-added","who":["ml:dpeker"],"prob":0.8842},"fields":{},"normalizations":{"n_33":{"source":{"name":"NematodeNames","id":"Plecsp","url":null},"recName":"Plectus spp.","confidence":{"state":"pre-added","who":["ml:dpeker"],"prob":0.8842}}}},{"classId":"e_2","part":"s22v1","offsets":[{"start":2268,"text":"P. murrayi"}],"coordinates":[],"confidence":{"state":"pre-added","who":["ml:dpeker"],"prob":0.9266},"fields":{},"normalizations":{"n_33":{"source":{"name":"NematodeNames","id":"Plmurr","url":null},"recName":"Plectus murrayi","confidence":{"state":"pre-added","who":["ml:dpeker"],"prob":0.9266}}}},{"classId":"e_2","part":"s22v1","offsets":[{"start":2418,"text":"Scottnema"}],"coordinates":[],"confidence":{"state":"pre-added","who":["ml:dpeker"],"prob":0.9163},"fields":{},"normalizations":{"n_33":{"source":{"name":"NematodeNames","id":"Scotsp","url":null},"recName":"Scottnema spp.","confidence":{"state":"pre-added","who":["ml:dpeker"],"prob":0.9163}}}},{"classId":"e_2","part":"s22v1","offsets":[{"start":2430,"text":"Plectus spp"}],"coordinates":[],"confidence":{"state":"pre-added","who":["ml:dpeker"],"prob":0.8842},"fields":{},"normalizations":{"n_33":{"source":{"name":"NematodeNames","id":"Plecsp","url":null},"recName":"Plectus spp.","confidence":{"state":"pre-added","who":["ml:dpeker"],"prob":0.8842}}}},{"classId":"e_2","part":"s22v1","offsets":[{"start":2682,"text":"P. frigophilus"}],"coordinates":[],"confidence":{"state":"pre-added","who":["ml:dpeker"],"prob":0.9518},"fields":{},"normalizations":{"n_33":{"source":{"name":"NematodeNames","id":"Plfrig","url":null},"recName":"Plectus frigophilus","confidence":{"state":"pre-added","who":["ml:dpeker"],"prob":0.9518}}}},{"classId":"e_2","part":"s22v1","offsets":[{"start":2764,"text":"Eudorylaimus"}],"coordinates":[],"confidence":{"state":"pre-added","who":["ml:dpeker"],"prob":0.9416},"fields":{},"normalizations":{"n_33":{"source":{"name":"NematodeNames","id":"Eudosp","url":null},"recName":"Eudorylaimus spp.","confidence":{"state":"pre-added","who":["ml:dpeker"],"prob":0.9416}}}},{"classId":"e_2","part":"s22v1","offsets":[{"start":2831,"text":"Eudorylaimus"}],"coordinates":[],"confidence":{"state":"pre-added","who":["ml:dpeker"],"prob":0.9416},"fields":{},"normalizations":{"n_33":{"source":{"name":"NematodeNames","id":"Eudosp","url":null},"recName":"Eudorylaimus spp.","confidence":{"state":"pre-added","who":["ml:dpeker"],"prob":0.9416}}}},{"classId":"e_2","part":"s22v1","offsets":[{"start":2887,"text":"E. antarcticus"}],"coordinates":[],"confidence":{"state":"pre-added","who":["ml:dpeker"],"prob":0.9518},"fields":{},"normalizations":{"n_33":{"source":{"name":"NematodeNames","id":"Euanta","url":null},"recName":"Eudorylaimus antarcticus","confidence":{"state":"pre-added","who":["ml:dpeker"],"prob":0.9518}}}},{"classId":"e_2","part":"s22v1","offsets":[{"start":2918,"text":"E. nudicaudatus"}],"coordinates":[],"confidence":{"state":"pre-added","who":["ml:dpeker"],"prob":0.9558},"fields":{},"normalizations":{"n_33":{"source":{"name":"NematodeNames","id":"Eunudi","url":null},"recName":"Eudorylaimus nudicaudatus","confidence":{"state":"pre-added","who":["ml:dpeker"],"prob":0.9558}}}},{"classId":"e_2","part":"s22v1","offsets":[{"start":2949,"text":"E. shirasei"}],"coordinates":[],"confidence":{"state":"pre-added","who":["ml:dpeker"],"prob":0.9349},"fields":{},"normalizations":{"n_33":{"source":{"name":"NematodeNames","id":"Eushir","url":null},"recName":"Eudorylaimus shirasei","confidence":{"state":"pre-added","who":["ml:dpeker"],"prob":0.9349}}}},{"classId":"e_2","part":"s22v1","offsets":[{"start":2994,"text":"E. glacialis"}],"coordinates":[],"confidence":{"state":"pre-added","who":["ml:dpeker"],"prob":0.9416},"fields":{},"normalizations":{"n_33":{"source":{"name":"NematodeNames","id":"Euglac","url":null},"recName":"Eudorylaimus glacialis","confidence":{"state":"pre-added","who":["ml:dpeker"],"prob":0.9416}}}},{"classId":"e_2","part":"s22v1","offsets":[{"start":3025,"text":"E. quintus"}],"coordinates":[],"confidence":{"state":"pre-added","who":["ml:dpeker"],"prob":0.9266},"fields":{},"normalizations":{"n_33":{"source":{"name":"NematodeNames","id":"Euquin","url":null},"recName":"Eudorylaimus quintus","confidence":{"state":"pre-added","who":["ml:dpeker"],"prob":0.9266}}}},{"classId":"e_2","part":"s22v1","offsets":[{"start":3056,"text":"E. sextus"}],"coordinates":[],"confidence":{"state":"pre-added","who":["ml:dpeker"],"prob":0.9163},"fields":{},"normalizations":{"n_33":{"source":{"name":"NematodeNames","id":"Eusext","url":null},"recName":"Eudorylaimus sextus","confidence":{"state":"pre-added","who":["ml:dpeker"],"prob":0.9163}}}},{"classId":"e_2","part":"s22v1","offsets":[{"start":3083,"text":"E. antarcticus"}],"coordinates":[],"confidence":{"state":"pre-added","who":["ml:dpeker"],"prob":0.9518},"fields":{},"normalizations":{"n_33":{"source":{"name":"NematodeNames","id":"Euanta","url":null},"recName":"Eudorylaimus antarcticus","confidence":{"state":"pre-added","who":["ml:dpeker"],"prob":0.9518}}}},{"classId":"e_2","part":"s23v1","offsets":[{"start":125,"text":"Eudorylaimus"}],"coordinates":[],"confidence":{"state":"pre-added","who":["ml:dpeker"],"prob":0.9416},"fields":{},"normalizations":{"n_33":{"source":{"name":"NematodeNames","id":"Eudosp","url":null},"recName":"Eudorylaimus spp.","confidence":{"state":"pre-added","who":["ml:dpeker"],"prob":0.9416}}}},{"classId":"e_2","part":"s23v1","offsets":[{"start":222,"text":"E. antarcticus"}],"coordinates":[],"confidence":{"state":"pre-added","who":["ml:dpeker"],"prob":0.9518},"fields":{},"normalizations":{"n_33":{"source":{"name":"NematodeNames","id":"Euanta","url":null},"recName":"Eudorylaimus antarcticus","confidence":{"state":"pre-added","who":["ml:dpeker"],"prob":0.9518}}}},{"classId":"e_2","part":"s23v1","offsets":[{"start":244,"text":"E. glacialis"}],"coordinates":[],"confidence":{"state":"pre-added","who":["ml:dpeker"],"prob":0.9416},"fields":{},"normalizations":{"n_33":{"source":{"name":"NematodeNames","id":"Euglac","url":null},"recName":"Eudorylaimus glacialis","confidence":{"state":"pre-added","who":["ml:dpeker"],"prob":0.9416}}}},{"classId":"e_2","part":"s23v1","offsets":[{"start":605,"text":"Eudorylaimus"}],"coordinates":[],"confidence":{"state":"pre-added","who":["ml:dpeker"],"prob":0.9416},"fields":{},"normalizations":{"n_33":{"source":{"name":"NematodeNames","id":"Eudosp","url":null},"recName":"Eudorylaimus spp.","confidence":{"state":"pre-added","who":["ml:dpeker"],"prob":0.9416}}}},{"classId":"e_4","part":"s23v1","offsets":[{"start":1056,"text":"McMurdo Dry Valleys\n\n*"}],"coordinates":[],"confidence":{"state":"pre-added","who":["ml:dpeker"],"prob":0.8506},"fields":{},"normalizations":{"n_34":{"source":{"name":"GeoNames","id":"113892","url":null},"recName":"McMurdo Dry Valleys","confidence":{"state":"pre-added","who":["ml:dpeker"],"prob":0.8506}}}},{"classId":"e_4","part":"s23v1","offsets":[{"start":1334,"text":"Alatna Valley\n\n*"}],"coordinates":[],"confidence":{"state":"pre-added","who":["ml:dpeker"],"prob":0.7903},"fields":{},"normalizations":{"n_34":{"source":{"name":"GeoNames","id":"121655","url":null},"recName":"Alatna Valley","confidence":{"state":"pre-added","who":["ml:dpeker"],"prob":0.7903}}}},{"classId":"e_4","part":"s23v1","offsets":[{"start":1371,"text":"Battleship Promontory\n\n*"}],"coordinates":[],"confidence":{"state":"pre-added","who":["ml:dpeker"],"prob":0.8638},"fields":{},"normalizations":{"n_34":{"source":{"name":"GeoNames","id":"122277","url":null},"recName":"Battleship Promontory","confidence":{"state":"pre-added","who":["ml:dpeker"],"prob":0.8638}}}},{"classId":"e_4","part":"s23v1","offsets":[{"start":1841,"text":"Garwood Valley\n\n*"}],"coordinates":[],"confidence":{"state":"pre-added","who":["ml:dpeker"],"prob":0.8035},"fields":{},"normalizations":{"n_34":{"source":{"name":"GeoNames","id":"125553","url":null},"recName":"Garwood Valley","confidence":{"state":"pre-added","who":["ml:dpeker"],"prob":0.8035}}}},{"classId":"e_4","part":"s23v1","offsets":[{"start":1879,"text":"Garwood Lake\n\n*"}],"coordinates":[],"confidence":{"state":"pre-added","who":["ml:dpeker"],"prob":0.7388},"fields":{},"normalizations":{"n_34":{"source":{"name":"GeoNames","id":"125554","url":null},"recName":"Garwood, Lake","confidence":{"state":"pre-added","who":["ml:dpeker"],"prob":0.7388}}}},{"classId":"e_4","part":"s23v1","offsets":[{"start":2153,"text":"McKelvey Valley\n\n*"}],"coordinates":[],"confidence":{"state":"pre-added","who":["ml:dpeker"],"prob":0.8151},"fields":{},"normalizations":{"n_34":{"source":{"name":"GeoNames","id":"128682","url":null},"recName":"McKelvey Valley","confidence":{"state":"pre-added","who":["ml:dpeker"],"prob":0.8151}}}},{"classId":"e_4","part":"s23v1","offsets":[{"start":2263,"text":"Miers Valley\n\n*"}],"coordinates":[],"confidence":{"state":"pre-added","who":["ml:dpeker"],"prob":0.7752},"fields":{},"normalizations":{"n_34":{"source":{"name":"GeoNames","id":"128868","url":null},"recName":"Miers Valley","confidence":{"state":"pre-added","who":["ml:dpeker"],"prob":0.7752}}}},{"classId":"e_4","part":"s23v1","offsets":[{"start":2299,"text":"Miers Glacier"}],"coordinates":[],"confidence":{"state":"pre-added","who":["ml:dpeker"],"prob":0.9472},"fields":{},"normalizations":{"n_34":{"source":{"name":"GeoNames","id":"128866","url":null},"recName":"Miers Glacier","confidence":{"state":"pre-added","who":["ml:dpeker"],"prob":0.9472}}}},{"classId":"e_4","part":"s23v1","offsets":[{"start":2403,"text":"Miers Glacier\n\n*"}],"coordinates":[],"confidence":{"state":"pre-added","who":["ml:dpeker"],"prob":0.7903},"fields":{},"normalizations":{"n_34":{"source":{"name":"GeoNames","id":"128866","url":null},"recName":"Miers Glacier","confidence":{"state":"pre-added","who":["ml:dpeker"],"prob":0.7903}}}},{"classId":"e_4","part":"s23v1","offsets":[{"start":2470,"text":"Miers Lake\n\n*"}],"coordinates":[],"confidence":{"state":"pre-added","who":["ml:dpeker"],"prob":0.6976},"fields":{},"normalizations":{"n_34":{"source":{"name":"GeoNames","id":"128869","url":null},"recName":"Miers, Lake","confidence":{"state":"pre-added","who":["ml:dpeker"],"prob":0.6976}}}},{"classId":"e_4","part":"s24v1","offsets":[{"start":199,"text":"Taylor Valley\n\n*"}],"coordinates":[],"confidence":{"state":"pre-added","who":["ml:dpeker"],"prob":0.7903},"fields":{},"normalizations":{"n_34":{"source":{"name":"GeoNames","id":"132512","url":null},"recName":"Taylor Valley","confidence":{"state":"pre-added","who":["ml:dpeker"],"prob":0.7903}}}},{"classId":"e_4","part":"s24v1","offsets":[{"start":236,"text":"Lake Bonney\n\n*"}],"coordinates":[],"confidence":{"state":"pre-added","who":["ml:dpeker"],"prob":0.7579},"fields":{},"normalizations":{"n_34":{"source":{"name":"GeoNames","id":"122715","url":null},"recName":"Bonney, Lake","confidence":{"state":"pre-added","who":["ml:dpeker"],"prob":0.7579}}}},{"classId":"e_4","part":"s24v1","offsets":[{"start":818,"text":"Lake Chad\n\n*"}],"coordinates":[],"confidence":{"state":"pre-added","who":["ml:dpeker"],"prob":0.714},"fields":{},"normalizations":{"n_34":{"source":{"name":"GeoNames","id":"123422","url":null},"recName":"Chad, Lake","confidence":{"state":"pre-added","who":["ml:dpeker"],"prob":0.714}}}},{"classId":"e_4","part":"s24v1","offsets":[{"start":1024,"text":"Lake Fryxell\n\n*"}],"coordinates":[],"confidence":{"state":"pre-added","who":["ml:dpeker"],"prob":0.7752},"fields":{},"normalizations":{"n_34":{"source":{"name":"GeoNames","id":"125440","url":null},"recName":"Fryxell, Lake","confidence":{"state":"pre-added","who":["ml:dpeker"],"prob":0.7752}}}},{"classId":"e_4","part":"s24v1","offsets":[{"start":1794,"text":"Von Guerard stream"}],"coordinates":[],"confidence":{"state":"pre-added","who":["ml:dpeker"],"prob":0.938},"fields":{},"normalizations":{"n_34":{"source":{"name":"GeoNames","id":"133312","url":null},"recName":"Von Guerard Stream","confidence":{"state":"pre-added","who":["ml:dpeker"],"prob":0.938}}}},{"classId":"e_4","part":"s24v1","offsets":[{"start":1814,"text":"Harnish Creek\n\n*"}],"coordinates":[],"confidence":{"state":"pre-added","who":["ml:dpeker"],"prob":0.7903},"fields":{},"normalizations":{"n_34":{"source":{"name":"GeoNames","id":"126215","url":null},"recName":"Harnish Creek","confidence":{"state":"pre-added","who":["ml:dpeker"],"prob":0.7903}}}},{"classId":"e_4","part":"s24v1","offsets":[{"start":1987,"text":"Von Guerard stream"}],"coordinates":[],"confidence":{"state":"pre-added","who":["ml:dpeker"],"prob":0.938},"fields":{},"normalizations":{"n_34":{"source":{"name":"GeoNames","id":"133312","url":null},"recName":"Von Guerard Stream","confidence":{"state":"pre-added","who":["ml:dpeker"],"prob":0.938}}}},{"classId":"e_4","part":"s24v1","offsets":[{"start":2085,"text":"Huey Creek"}],"coordinates":[],"confidence":{"state":"pre-added","who":["ml:dpeker"],"prob":0.9266},"fields":{},"normalizations":{"n_34":{"source":{"name":"GeoNames","id":"126795","url":null},"recName":"Huey Creek","confidence":{"state":"pre-added","who":["ml:dpeker"],"prob":0.9266}}}},{"classId":"e_4","part":"s25v1","offsets":[{"start":163,"text":"Harnish Creek\n\n*"}],"coordinates":[],"confidence":{"state":"pre-added","who":["ml:dpeker"],"prob":0.7903},"fields":{},"normalizations":{"n_34":{"source":{"name":"GeoNames","id":"126215","url":null},"recName":"Harnish Creek","confidence":{"state":"pre-added","who":["ml:dpeker"],"prob":0.7903}}}},{"classId":"e_4","part":"s25v1","offsets":[{"start":448,"text":"F6 stream"}],"coordinates":[],"confidence":{"state":"pre-added","who":["ml:dpeker"],"prob":0.9163},"fields":{},"normalizations":{"n_34":{"source":{"name":"GeoNames","id":"CKL002","url":null},"recName":"F6 stream","confidence":{"state":"pre-added","who":["ml:dpeker"],"prob":0.9163}}}},{"classId":"e_4","part":"s25v1","offsets":[{"start":571,"text":"Green Creek"}],"coordinates":[],"confidence":{"state":"pre-added","who":["ml:dpeker"],"prob":0.9349},"fields":{},"normalizations":{"n_34":{"source":{"name":"GeoNames","id":"125908","url":null},"recName":"Green Creek","confidence":{"state":"pre-added","who":["ml:dpeker"],"prob":0.9349}}}},{"classId":"e_4","part":"s25v1","offsets":[{"start":679,"text":"F6 stream"}],"coordinates":[],"confidence":{"state":"pre-added","who":["ml:dpeker"],"prob":0.9163},"fields":{},"normalizations":{"n_34":{"source":{"name":"GeoNames","id":"CKL002","url":null},"recName":"F6 stream","confidence":{"state":"pre-added","who":["ml:dpeker"],"prob":0.9163}}}},{"classId":"e_4","part":"s25v1","offsets":[{"start":768,"text":"Green Creek"}],"coordinates":[],"confidence":{"state":"pre-added","who":["ml:dpeker"],"prob":0.9349},"fields":{},"normalizations":{"n_34":{"source":{"name":"GeoNames","id":"125908","url":null},"recName":"Green Creek","confidence":{"state":"pre-added","who":["ml:dpeker"],"prob":0.9349}}}},{"classId":"e_4","part":"s25v1","offsets":[{"start":841,"text":"Von Guerard stream"}],"coordinates":[],"confidence":{"state":"pre-added","who":["ml:dpeker"],"prob":0.938},"fields":{},"normalizations":{"n_34":{"source":{"name":"GeoNames","id":"133312","url":null},"recName":"Von Guerard Stream","confidence":{"state":"pre-added","who":["ml:dpeker"],"prob":0.938}}}},{"classId":"e_4","part":"s25v1","offsets":[{"start":920,"text":"Lake Hoare\n\n*"}],"coordinates":[],"confidence":{"state":"pre-added","who":["ml:dpeker"],"prob":0.7377},"fields":{},"normalizations":{"n_34":{"source":{"name":"GeoNames","id":"126559","url":null},"recName":"Hoare, Lake","confidence":{"state":"pre-added","who":["ml:dpeker"],"prob":0.7377}}}},{"classId":"e_4","part":"s26v1","offsets":[{"start":322,"text":"Nussbaum Riegel"}],"coordinates":[],"confidence":{"state":"pre-added","who":["ml:dpeker"],"prob":0.9558},"fields":{},"normalizations":{"n_34":{"source":{"name":"GeoNames","id":"129541","url":null},"recName":"Nussbaum Riegel","confidence":{"state":"pre-added","who":["ml:dpeker"],"prob":0.9558}}}},{"classId":"e_4","part":"s26v1","offsets":[{"start":415,"text":"Suess Glacier"}],"coordinates":[],"confidence":{"state":"pre-added","who":["ml:dpeker"],"prob":0.9472},"fields":{},"normalizations":{"n_34":{"source":{"name":"GeoNames","id":"132312","url":null},"recName":"Suess Glacier","confidence":{"state":"pre-added","who":["ml:dpeker"],"prob":0.9472}}}},{"classId":"e_4","part":"s26v1","offsets":[{"start":540,"text":"Victoria Valley\n\n*"}],"coordinates":[],"confidence":{"state":"pre-added","who":["ml:dpeker"],"prob":0.8151},"fields":{},"normalizations":{"n_34":{"source":{"name":"GeoNames","id":"133250","url":null},"recName":"Victoria Valley","confidence":{"state":"pre-added","who":["ml:dpeker"],"prob":0.8151}}}},{"classId":"e_4","part":"s26v1","offsets":[{"start":579,"text":"Lake Vida\n\n*"}],"coordinates":[],"confidence":{"state":"pre-added","who":["ml:dpeker"],"prob":0.714},"fields":{},"normalizations":{"n_34":{"source":{"name":"GeoNames","id":"133257","url":null},"recName":"Vida, Lake","confidence":{"state":"pre-added","who":["ml:dpeker"],"prob":0.714}}}},{"classId":"e_4","part":"s26v1","offsets":[{"start":709,"text":"Victoria Upper Glacier"}],"coordinates":[],"confidence":{"state":"pre-added","who":["ml:dpeker"],"prob":0.9726},"fields":{},"normalizations":{"n_34":{"source":{"name":"GeoNames","id":"133248","url":null},"recName":"Victoria Upper Glacier","confidence":{"state":"pre-added","who":["ml:dpeker"],"prob":0.9726}}}},{"classId":"e_4","part":"s26v1","offsets":[{"start":950,"text":"Wright Valley\n\n*"}],"coordinates":[],"confidence":{"state":"pre-added","who":["ml:dpeker"],"prob":0.7903},"fields":{},"normalizations":{"n_34":{"source":{"name":"GeoNames","id":"133876","url":null},"recName":"Wright Valley","confidence":{"state":"pre-added","who":["ml:dpeker"],"prob":0.7903}}}},{"classId":"e_4","part":"s26v1","offsets":[{"start":995,"text":"Lake Vanda"}],"coordinates":[],"confidence":{"state":"pre-added","who":["ml:dpeker"],"prob":0.9266},"fields":{},"normalizations":{"n_34":{"source":{"name":"GeoNames","id":"133142","url":null},"recName":"Vanda, Lake","confidence":{"state":"pre-added","who":["ml:dpeker"],"prob":0.9266}}}},{"classId":"e_4","part":"s26v1","offsets":[{"start":1010,"text":"Lake Bull"}],"coordinates":[],"confidence":{"state":"pre-added","who":["ml:dpeker"],"prob":0.9163},"fields":{},"normalizations":{"n_34":{"source":{"name":"GeoNames","id":"123081","url":null},"recName":"Bull, Lake","confidence":{"state":"pre-added","who":["ml:dpeker"],"prob":0.9163}}}},{"classId":"e_4","part":"s26v1","offsets":[{"start":1108,"text":"Dais\n\n*"}],"coordinates":[],"confidence":{"state":"pre-added","who":["ml:dpeker"],"prob":0.4808},"fields":{},"normalizations":{"n_34":{"source":{"name":"GeoNames","id":"124046","url":null},"recName":"Dais","confidence":{"state":"pre-added","who":["ml:dpeker"],"prob":0.4808}}}},{"classId":"e_4","part":"s26v1","offsets":[{"start":1199,"text":"Meserve Glacier\n\n*"}],"coordinates":[],"confidence":{"state":"pre-added","who":["ml:dpeker"],"prob":0.8151},"fields":{},"normalizations":{"n_34":{"source":{"name":"GeoNames","id":"128829","url":null},"recName":"Meserve Glacier","confidence":{"state":"pre-added","who":["ml:dpeker"],"prob":0.8151}}}},{"classId":"e_4","part":"s26v1","offsets":[{"start":1274,"text":"Labyrinth\n\n*"}],"coordinates":[],"confidence":{"state":"pre-added","who":["ml:dpeker"],"prob":0.714},"fields":{},"normalizations":{"n_34":{"source":{"name":"GeoNames","id":"127689","url":null},"recName":"Labyrinth","confidence":{"state":"pre-added","who":["ml:dpeker"],"prob":0.714}}}},{"classId":"e_4","part":"s26v1","offsets":[{"start":1663,"text":"Bull Pass\n\n*"}],"coordinates":[],"confidence":{"state":"pre-added","who":["ml:dpeker"],"prob":0.714},"fields":{},"normalizations":{"n_34":{"source":{"name":"GeoNames","id":"123076","url":null},"recName":"Bull Pass","confidence":{"state":"pre-added","who":["ml:dpeker"],"prob":0.714}}}},{"classId":"e_4","part":"s26v1","offsets":[{"start":1752,"text":"Bull Lake\n\n*"}],"coordinates":[],"confidence":{"state":"pre-added","who":["ml:dpeker"],"prob":0.6718},"fields":{},"normalizations":{"n_34":{"source":{"name":"GeoNames","id":"123081","url":null},"recName":"Bull, Lake","confidence":{"state":"pre-added","who":["ml:dpeker"],"prob":0.6718}}}},{"classId":"e_4","part":"s26v1","offsets":[{"start":1915,"text":"Lake Vanda\n\n*"}],"coordinates":[],"confidence":{"state":"pre-added","who":["ml:dpeker"],"prob":0.7377},"fields":{},"normalizations":{"n_34":{"source":{"name":"GeoNames","id":"133142","url":null},"recName":"Vanda, Lake","confidence":{"state":"pre-added","who":["ml:dpeker"],"prob":0.7377}}}},{"classId":"e_4","part":"s26v1","offsets":[{"start":1992,"text":"Lake Vanda"}],"coordinates":[],"confidence":{"state":"pre-added","who":["ml:dpeker"],"prob":0.9266},"fields":{},"normalizations":{"n_34":{"source":{"name":"GeoNames","id":"133142","url":null},"recName":"Vanda, Lake","confidence":{"state":"pre-added","who":["ml:dpeker"],"prob":0.9266}}}},{"classId":"e_4","part":"s26v1","offsets":[{"start":2007,"text":"Péwé Lake\n\n*"}],"coordinates":[],"confidence":{"state":"pre-added","who":["ml:dpeker"],"prob":0.6718},"fields":{},"normalizations":{"n_34":{"source":{"name":"GeoNames","id":"130088","url":null},"recName":"Péwé, Lake","confidence":{"state":"pre-added","who":["ml:dpeker"],"prob":0.6718}}}},{"classId":"e_4","part":"s27v1","offsets":[{"start":163,"text":"Lake Brownworth\n\n*"}],"coordinates":[],"confidence":{"state":"pre-added","who":["ml:dpeker"],"prob":0.8151},"fields":{},"normalizations":{"n_34":{"source":{"name":"GeoNames","id":"123002","url":null},"recName":"Brownworth, Lake","confidence":{"state":"pre-added","who":["ml:dpeker"],"prob":0.8151}}}},{"classId":"e_4","part":"s27v1","offsets":[{"start":439,"text":"Onyx River"}],"coordinates":[],"confidence":{"state":"pre-added","who":["ml:dpeker"],"prob":0.9266},"fields":{},"normalizations":{"n_34":{"source":{"name":"GeoNames","id":"129676","url":null},"recName":"Onyx River","confidence":{"state":"pre-added","who":["ml:dpeker"],"prob":0.9266}}}},{"classId":"e_4","part":"s27v1","offsets":[{"start":507,"text":"Linnaeus Terrace"}],"coordinates":[],"confidence":{"state":"pre-added","who":["ml:dpeker"],"prob":0.9592},"fields":{},"normalizations":{"n_34":{"source":{"name":"GeoNames","id":"128079","url":null},"recName":"Linnaeus Terrace","confidence":{"state":"pre-added","who":["ml:dpeker"],"prob":0.9592}}}},{"classId":"e_4","part":"s27v1","offsets":[{"start":606,"text":"Koettlitz Glacier"}],"coordinates":[],"confidence":{"state":"pre-added","who":["ml:dpeker"],"prob":0.9622},"fields":{},"normalizations":{"n_34":{"source":{"name":"GeoNames","id":"127526","url":null},"recName":"Koettlitz Glacier","confidence":{"state":"pre-added","who":["ml:dpeker"],"prob":0.9622}}}},{"classId":"e_4","part":"s27v1","offsets":[{"start":677,"text":"Cape Chocolate"}],"coordinates":[],"confidence":{"state":"pre-added","who":["ml:dpeker"],"prob":0.9518},"fields":{},"normalizations":{"n_34":{"source":{"name":"GeoNames","id":"112987","url":null},"recName":"Chocolate, Cape","confidence":{"state":"pre-added","who":["ml:dpeker"],"prob":0.9518}}}},{"classId":"e_4","part":"s27v1","offsets":[{"start":757,"text":"Strand Moraines\n\n*"}],"coordinates":[],"confidence":{"state":"pre-added","who":["ml:dpeker"],"prob":0.8151},"fields":{},"normalizations":{"n_34":{"source":{"name":"GeoNames","id":"CKL001","url":null},"recName":"Strand Moraines","confidence":{"state":"pre-added","who":["ml:dpeker"],"prob":0.8151}}}},{"classId":"e_4","part":"s27v1","offsets":[{"start":859,"text":"Marble Point\n\n*"}],"coordinates":[],"confidence":{"state":"pre-added","who":["ml:dpeker"],"prob":0.7752},"fields":{},"normalizations":{"n_34":{"source":{"name":"GeoNames","id":"113829","url":null},"recName":"Marble Point","confidence":{"state":"pre-added","who":["ml:dpeker"],"prob":0.7752}}}},{"classId":"e_4","part":"s27v1","offsets":[{"start":949,"text":"Cape Adare\n\n*"}],"coordinates":[],"confidence":{"state":"pre-added","who":["ml:dpeker"],"prob":0.7377},"fields":{},"normalizations":{"n_34":{"source":{"name":"GeoNames","id":"121591","url":null},"recName":"Adare, Cape","confidence":{"state":"pre-added","who":["ml:dpeker"],"prob":0.7377}}}},{"classId":"e_4","part":"s27v1","offsets":[{"start":1012,"text":"Cape Hallett\n\n*"}],"coordinates":[],"confidence":{"state":"pre-added","who":["ml:dpeker"],"prob":0.7752},"fields":{},"normalizations":{"n_34":{"source":{"name":"GeoNames","id":"126118","url":null},"recName":"Hallett, Cape","confidence":{"state":"pre-added","who":["ml:dpeker"],"prob":0.7752}}}},{"classId":"e_4","part":"s27v1","offsets":[{"start":1048,"text":"Hallett Station\n\n*"}],"coordinates":[],"confidence":{"state":"pre-added","who":["ml:dpeker"],"prob":0.8151},"fields":{},"normalizations":{"n_34":{"source":{"name":"GeoNames","id":"113459","url":null},"recName":"Hallett Station","confidence":{"state":"pre-added","who":["ml:dpeker"],"prob":0.8151}}}},{"classId":"e_4","part":"s27v1","offsets":[{"start":1181,"text":"Cape Hallett"}],"coordinates":[],"confidence":{"state":"pre-added","who":["ml:dpeker"],"prob":0.9416},"fields":{},"normalizations":{"n_34":{"source":{"name":"GeoNames","id":"126118","url":null},"recName":"Hallett, Cape","confidence":{"state":"pre-added","who":["ml:dpeker"],"prob":0.9416}}}},{"classId":"e_4","part":"s27v1","offsets":[{"start":1262,"text":"Edmonson Point\n\n*"}],"coordinates":[],"confidence":{"state":"pre-added","who":["ml:dpeker"],"prob":0.8035},"fields":{},"normalizations":{"n_34":{"source":{"name":"GeoNames","id":"124687","url":null},"recName":"Edmonson Point","confidence":{"state":"pre-added","who":["ml:dpeker"],"prob":0.8035}}}},{"classId":"e_4","part":"s27v1","offsets":[{"start":1551,"text":"Gondwana Station"}],"coordinates":[],"confidence":{"state":"pre-added","who":["ml:dpeker"],"prob":0.9592},"fields":{},"normalizations":{"n_34":{"source":{"name":"GeoNames","id":"CKL003","url":null},"recName":"Gondwana Station","confidence":{"state":"pre-added","who":["ml:dpeker"],"prob":0.9592}}}},{"classId":"e_4","part":"s27v1","offsets":[{"start":1640,"text":"Luther Peak\n\n*"}],"coordinates":[],"confidence":{"state":"pre-added","who":["ml:dpeker"],"prob":0.7579},"fields":{},"normalizations":{"n_34":{"source":{"name":"GeoNames","id":"128240","url":null},"recName":"Luther Peak","confidence":{"state":"pre-added","who":["ml:dpeker"],"prob":0.7579}}}},{"classId":"e_4","part":"s27v1","offsets":[{"start":1889,"text":"Terra Nova Bay\n\n*"}],"coordinates":[],"confidence":{"state":"pre-added","who":["ml:dpeker"],"prob":0.8035},"fields":{},"normalizations":{"n_34":{"source":{"name":"GeoNames","id":"132576","url":null},"recName":"Terra Nova Bay","confidence":{"state":"pre-added","who":["ml:dpeker"],"prob":0.8035}}}},{"classId":"e_2","part":"s27v1","offsets":[{"start":2075,"text":"Eudorylaimus"}],"coordinates":[],"confidence":{"state":"pre-added","who":["ml:dpeker"],"prob":0.9416},"fields":{},"normalizations":{"n_33":{"source":{"name":"NematodeNames","id":"Eudosp","url":null},"recName":"Eudorylaimus spp.","confidence":{"state":"pre-added","who":["ml:dpeker"],"prob":0.9416}}}},{"classId":"e_2","part":"s28v1","offsets":[{"start":74,"text":"E. glacialis"}],"coordinates":[],"confidence":{"state":"pre-added","who":["ml:dpeker"],"prob":0.9416},"fields":{},"normalizations":{"n_33":{"source":{"name":"NematodeNames","id":"Euglac","url":null},"recName":"Eudorylaimus glacialis","confidence":{"state":"pre-added","who":["ml:dpeker"],"prob":0.9416}}}},{"classId":"e_2","part":"s28v1","offsets":[{"start":193,"text":"E. antarcticus"}],"coordinates":[],"confidence":{"state":"pre-added","who":["ml:dpeker"],"prob":0.9518},"fields":{},"normalizations":{"n_33":{"source":{"name":"NematodeNames","id":"Euanta","url":null},"recName":"Eudorylaimus antarcticus","confidence":{"state":"pre-added","who":["ml:dpeker"],"prob":0.9518}}}},{"classId":"e_2","part":"s28v1","offsets":[{"start":431,"text":"E. antarcticus"}],"coordinates":[],"confidence":{"state":"pre-added","who":["ml:dpeker"],"prob":0.9518},"fields":{},"normalizations":{"n_33":{"source":{"name":"NematodeNames","id":"Euanta","url":null},"recName":"Eudorylaimus antarcticus","confidence":{"state":"pre-added","who":["ml:dpeker"],"prob":0.9518}}}},{"classId":"e_4","part":"s28v1","offsets":[{"start":476,"text":"McMurdo Dry Valleys"}],"coordinates":[],"confidence":{"state":"pre-added","who":["ml:dpeker"],"prob":0.9671},"fields":{},"normalizations":{"n_34":{"source":{"name":"GeoNames","id":"113892","url":null},"recName":"McMurdo Dry Valleys","confidence":{"state":"pre-added","who":["ml:dpeker"],"prob":0.9671}}}},{"classId":"e_4","part":"s28v1","offsets":[{"start":528,"text":"Taylor Valley"}],"coordinates":[],"confidence":{"state":"pre-added","who":["ml:dpeker"],"prob":0.9472},"fields":{},"normalizations":{"n_34":{"source":{"name":"GeoNames","id":"132512","url":null},"recName":"Taylor Valley","confidence":{"state":"pre-added","who":["ml:dpeker"],"prob":0.9472}}}},{"classId":"e_4","part":"s28v1","offsets":[{"start":576,"text":"Ed- monson Point"}],"coordinates":[],"confidence":{"state":"pre-added","who":["ml:dpeker"],"prob":0.7942},"fields":{},"normalizations":{"n_34":{"source":{"name":"GeoNames","id":"124687","url":null},"recName":"Edmonson Point","confidence":{"state":"pre-added","who":["ml:dpeker"],"prob":0.7942}}}},{"classId":"e_4","part":"s28v1","offsets":[{"start":597,"text":"Terra Nova Bay"}],"coordinates":[],"confidence":{"state":"pre-added","who":["ml:dpeker"],"prob":0.9518},"fields":{},"normalizations":{"n_34":{"source":{"name":"GeoNames","id":"132576","url":null},"recName":"Terra Nova Bay","confidence":{"state":"pre-added","who":["ml:dpeker"],"prob":0.9518}}}},{"classId":"e_2","part":"s28v1","offsets":[{"start":660,"text":"E. antarcticus"}],"coordinates":[],"confidence":{"state":"pre-added","who":["ml:dpeker"],"prob":0.9518},"fields":{},"normalizations":{"n_33":{"source":{"name":"NematodeNames","id":"Euanta","url":null},"recName":"Eudorylaimus antarcticus","confidence":{"state":"pre-added","who":["ml:dpeker"],"prob":0.9518}}}},{"classId":"e_2","part":"s28v1","offsets":[{"start":1006,"text":"E. antarcticus"}],"coordinates":[],"confidence":{"state":"pre-added","who":["ml:dpeker"],"prob":0.9518},"fields":{},"normalizations":{"n_33":{"source":{"name":"NematodeNames","id":"Euanta","url":null},"recName":"Eudorylaimus antarcticus","confidence":{"state":"pre-added","who":["ml:dpeker"],"prob":0.9518}}}},{"classId":"e_2","part":"s28v1","offsets":[{"start":1242,"text":"E. ant- arcticus"}],"coordinates":[],"confidence":{"state":"pre-added","who":["ml:dpeker"],"prob":0.7942},"fields":{},"normalizations":{"n_33":{"source":{"name":"NematodeNames","id":"Euanta","url":null},"recName":"Eudorylaimus antarcticus","confidence":{"state":"pre-added","who":["ml:dpeker"],"prob":0.7942}}}},{"classId":"e_4","part":"s28v1","offsets":[{"start":1367,"text":"Ross Island"}],"coordinates":[],"confidence":{"state":"pre-added","who":["ml:dpeker"],"prob":0.9349},"fields":{},"normalizations":{"n_34":{"source":{"name":"GeoNames","id":"130958","url":null},"recName":"Ross Island","confidence":{"state":"pre-added","who":["ml:dpeker"],"prob":0.9349}}}},{"classId":"e_2","part":"s28v1","offsets":[{"start":1398,"text":"E. antarcticus"}],"coordinates":[],"confidence":{"state":"pre-added","who":["ml:dpeker"],"prob":0.9518},"fields":{},"normalizations":{"n_33":{"source":{"name":"NematodeNames","id":"Euanta","url":null},"recName":"Eudorylaimus antarcticus","confidence":{"state":"pre-added","who":["ml:dpeker"],"prob":0.9518}}}},{"classId":"e_1","part":"s28v1","offsets":[{"start":1437,"text":"Bryum argenteum"}],"coordinates":[],"confidence":{"state":"pre-added","who":["ml:dpeker"],"prob":0.9558},"fields":{},"normalizations":{"n_32":{"source":{"name":"MossNames","id":"Brarge","url":null},"recName":"Bryum argenteum","confidence":{"state":"pre-added","who":["ml:dpeker"],"prob":0.9558}}}},{"classId":"e_4","part":"s28v1","offsets":[{"start":1512,"text":"Ross Island"}],"coordinates":[],"confidence":{"state":"pre-added","who":["ml:dpeker"],"prob":0.9349},"fields":{},"normalizations":{"n_34":{"source":{"name":"GeoNames","id":"130958","url":null},"recName":"Ross Island","confidence":{"state":"pre-added","who":["ml:dpeker"],"prob":0.9349}}}},{"classId":"e_4","part":"s28v1","offsets":[{"start":1562,"text":"McMurdo Dry Valleys"}],"coordinates":[],"confidence":{"state":"pre-added","who":["ml:dpeker"],"prob":0.9671},"fields":{},"normalizations":{"n_34":{"source":{"name":"GeoNames","id":"113892","url":null},"recName":"McMurdo Dry Valleys","confidence":{"state":"pre-added","who":["ml:dpeker"],"prob":0.9671}}}},{"classId":"e_2","part":"s28v1","offsets":[{"start":1582,"text":"E. antarcti- cus"}],"coordinates":[],"confidence":{"state":"pre-added","who":["ml:dpeker"],"prob":0.7942},"fields":{},"normalizations":{"n_33":{"source":{"name":"NematodeNames","id":"Euanta","url":null},"recName":"Eudorylaimus antarcticus","confidence":{"state":"pre-added","who":["ml:dpeker"],"prob":0.7942}}}},{"classId":"e_2","part":"s28v1","offsets":[{"start":1793,"text":"Panagrolaimus"}],"coordinates":[],"confidence":{"state":"pre-added","who":["ml:dpeker"],"prob":0.9472},"fields":{},"normalizations":{"n_33":{"source":{"name":"NematodeNames","id":"Panasp","url":null},"recName":"Panagrolaimus spp.","confidence":{"state":"pre-added","who":["ml:dpeker"],"prob":0.9472}}}},{"classId":"e_2","part":"s28v1","offsets":[{"start":1884,"text":"Panagrolaimus"}],"coordinates":[],"confidence":{"state":"pre-added","who":["ml:dpeker"],"prob":0.9472},"fields":{},"normalizations":{"n_33":{"source":{"name":"NematodeNames","id":"Panasp","url":null},"recName":"Panagrolaimus spp.","confidence":{"state":"pre-added","who":["ml:dpeker"],"prob":0.9472}}}},{"classId":"e_2","part":"s28v1","offsets":[{"start":1923,"text":"P. magnivulvatus"}],"coordinates":[],"confidence":{"state":"pre-added","who":["ml:dpeker"],"prob":0.9592},"fields":{},"normalizations":{"n_33":{"source":{"name":"NematodeNames","id":"Pamagn","url":null},"recName":"Panagrolaimus magnivulvatus","confidence":{"state":"pre-added","who":["ml:dpeker"],"prob":0.9592}}}},{"classId":"e_2","part":"s28v1","offsets":[{"start":1944,"text":"P. davidi"}],"coordinates":[],"confidence":{"state":"pre-added","who":["ml:dpeker"],"prob":0.9163},"fields":{},"normalizations":{"n_33":{"source":{"name":"NematodeNames","id":"Padavi","url":null},"recName":"Panagrolaimus davidi","confidence":{"state":"pre-added","who":["ml:dpeker"],"prob":0.9163}}}},{"classId":"e_2","part":"s28v1","offsets":[{"start":2022,"text":"P. davidi"}],"coordinates":[],"confidence":{"state":"pre-added","who":["ml:dpeker"],"prob":0.9163},"fields":{},"normalizations":{"n_33":{"source":{"name":"NematodeNames","id":"Padavi","url":null},"recName":"Panagrolaimus davidi","confidence":{"state":"pre-added","who":["ml:dpeker"],"prob":0.9163}}}},{"classId":"e_2","part":"s28v1","offsets":[{"start":2168,"text":"P. davidi"}],"coordinates":[],"confidence":{"state":"pre-added","who":["ml:dpeker"],"prob":0.9163},"fields":{},"normalizations":{"n_33":{"source":{"name":"NematodeNames","id":"Padavi","url":null},"recName":"Panagrolaimus davidi","confidence":{"state":"pre-added","who":["ml:dpeker"],"prob":0.9163}}}},{"classId":"e_4","part":"s28v1","offsets":[{"start":2206,"text":"Marble Point"}],"coordinates":[],"confidence":{"state":"pre-added","who":["ml:dpeker"],"prob":0.9416},"fields":{},"normalizations":{"n_34":{"source":{"name":"GeoNames","id":"113829","url":null},"recName":"Marble Point","confidence":{"state":"pre-added","who":["ml:dpeker"],"prob":0.9416}}}},{"classId":"e_2","part":"s28v1","offsets":[{"start":2261,"text":"P. davidi"}],"coordinates":[],"confidence":{"state":"pre-added","who":["ml:dpeker"],"prob":0.9163},"fields":{},"normalizations":{"n_33":{"source":{"name":"NematodeNames","id":"Padavi","url":null},"recName":"Panagrolaimus davidi","confidence":{"state":"pre-added","who":["ml:dpeker"],"prob":0.9163}}}},{"classId":"e_4","part":"s28v1","offsets":[{"start":2339,"text":"Edmonson Point"}],"coordinates":[],"confidence":{"state":"pre-added","who":["ml:dpeker"],"prob":0.9518},"fields":{},"normalizations":{"n_34":{"source":{"name":"GeoNames","id":"124687","url":null},"recName":"Edmonson Point","confidence":{"state":"pre-added","who":["ml:dpeker"],"prob":0.9518}}}},{"classId":"e_4","part":"s28v1","offsets":[{"start":2358,"text":"Cape Hallett"}],"coordinates":[],"confidence":{"state":"pre-added","who":["ml:dpeker"],"prob":0.9416},"fields":{},"normalizations":{"n_34":{"source":{"name":"GeoNames","id":"126118","url":null},"recName":"Hallett, Cape","confidence":{"state":"pre-added","who":["ml:dpeker"],"prob":0.9416}}}},{"classId":"e_4","part":"s28v1","offsets":[{"start":2378,"text":"Miers Valley"}],"coordinates":[],"confidence":{"state":"pre-added","who":["ml:dpeker"],"prob":0.9416},"fields":{},"normalizations":{"n_34":{"source":{"name":"GeoNames","id":"128868","url":null},"recName":"Miers Valley","confidence":{"state":"pre-added","who":["ml:dpeker"],"prob":0.9416}}}},{"classId":"e_4","part":"s28v1","offsets":[{"start":2403,"text":"McMurdo Dry Valleys"}],"coordinates":[],"confidence":{"state":"pre-added","who":["ml:dpeker"],"prob":0.9671},"fields":{},"normalizations":{"n_34":{"source":{"name":"GeoNames","id":"113892","url":null},"recName":"McMurdo Dry Valleys","confidence":{"state":"pre-added","who":["ml:dpeker"],"prob":0.9671}}}},{"classId":"e_2","part":"s28v1","offsets":[{"start":2430,"text":"P. davidi"}],"coordinates":[],"confidence":{"state":"pre-added","who":["ml:dpeker"],"prob":0.9163},"fields":{},"normalizations":{"n_33":{"source":{"name":"NematodeNames","id":"Padavi","url":null},"recName":"Panagrolaimus davidi","confidence":{"state":"pre-added","who":["ml:dpeker"],"prob":0.9163}}}},{"classId":"e_2","part":"s28v1","offsets":[{"start":2525,"text":"P. davidi"}],"coordinates":[],"confidence":{"state":"pre-added","who":["ml:dpeker"],"prob":0.9163},"fields":{},"normalizations":{"n_33":{"source":{"name":"NematodeNames","id":"Padavi","url":null},"recName":"Panagrolaimus davidi","confidence":{"state":"pre-added","who":["ml:dpeker"],"prob":0.9163}}}},{"classId":"e_4","part":"s28v1","offsets":[{"start":2558,"text":"Ross Island"}],"coordinates":[],"confidence":{"state":"pre-added","who":["ml:dpeker"],"prob":0.9349},"fields":{},"normalizations":{"n_34":{"source":{"name":"GeoNames","id":"130958","url":null},"recName":"Ross Island","confidence":{"state":"pre-added","who":["ml:dpeker"],"prob":0.9349}}}},{"classId":"e_2","part":"s28v1","offsets":[{"start":2709,"text":"Panagrolaimus spp"}],"coordinates":[],"confidence":{"state":"pre-added","who":["ml:dpeker"],"prob":0.9275},"fields":{},"normalizations":{"n_33":{"source":{"name":"NematodeNames","id":"Panasp","url":null},"recName":"Panagrolaimus spp.","confidence":{"state":"pre-added","who":["ml:dpeker"],"prob":0.9275}}}},{"classId":"e_2","part":"s28v1","offsets":[{"start":2971,"text":"P. davidi"}],"coordinates":[],"confidence":{"state":"pre-added","who":["ml:dpeker"],"prob":0.9163},"fields":{},"normalizations":{"n_33":{"source":{"name":"NematodeNames","id":"Padavi","url":null},"recName":"Panagrolaimus davidi","confidence":{"state":"pre-added","who":["ml:dpeker"],"prob":0.9163}}}},{"classId":"e_2","part":"s29v1","offsets":[{"start":125,"text":"Panagrolaimus davidi"}],"coordinates":[],"confidence":{"state":"pre-added","who":["ml:dpeker"],"prob":0.9692},"fields":{},"normalizations":{"n_33":{"source":{"name":"NematodeNames","id":"Padavi","url":null},"recName":"Panagrolaimus davidi","confidence":{"state":"pre-added","who":["ml:dpeker"],"prob":0.9692}}}},{"classId":"e_2","part":"s29v1","offsets":[{"start":526,"text":"Panagrolaimus"}],"coordinates":[],"confidence":{"state":"pre-added","who":["ml:dpeker"],"prob":0.9472},"fields":{},"normalizations":{"n_33":{"source":{"name":"NematodeNames","id":"Panasp","url":null},"recName":"Panagrolaimus spp.","confidence":{"state":"pre-added","who":["ml:dpeker"],"prob":0.9472}}}},{"classId":"e_4","part":"s29v1","offsets":[{"start":622,"text":"McMurdo Dry Valleys\n\n*"}],"coordinates":[],"confidence":{"state":"pre-added","who":["ml:dpeker"],"prob":0.8506},"fields":{},"normalizations":{"n_34":{"source":{"name":"GeoNames","id":"113892","url":null},"recName":"McMurdo Dry Valleys","confidence":{"state":"pre-added","who":["ml:dpeker"],"prob":0.8506}}}},{"classId":"e_4","part":"s29v1","offsets":[{"start":665,"text":"Miers Valley\n\n*"}],"coordinates":[],"confidence":{"state":"pre-added","who":["ml:dpeker"],"prob":0.7752},"fields":{},"normalizations":{"n_34":{"source":{"name":"GeoNames","id":"128868","url":null},"recName":"Miers Valley","confidence":{"state":"pre-added","who":["ml:dpeker"],"prob":0.7752}}}},{"classId":"e_4","part":"s29v1","offsets":[{"start":779,"text":"Marble Point\n\n*"}],"coordinates":[],"confidence":{"state":"pre-added","who":["ml:dpeker"],"prob":0.7752},"fields":{},"normalizations":{"n_34":{"source":{"name":"GeoNames","id":"113829","url":null},"recName":"Marble Point","confidence":{"state":"pre-added","who":["ml:dpeker"],"prob":0.7752}}}},{"classId":"e_4","part":"s29v1","offsets":[{"start":891,"text":"Cape Bird"}],"coordinates":[],"confidence":{"state":"pre-added","who":["ml:dpeker"],"prob":0.9163},"fields":{},"normalizations":{"n_34":{"source":{"name":"GeoNames","id":"122545","url":null},"recName":"Bird, Cape","confidence":{"state":"pre-added","who":["ml:dpeker"],"prob":0.9163}}}},{"classId":"e_4","part":"s29v1","offsets":[{"start":992,"text":"Cape Crozier"}],"coordinates":[],"confidence":{"state":"pre-added","who":["ml:dpeker"],"prob":0.9416},"fields":{},"normalizations":{"n_34":{"source":{"name":"GeoNames","id":"123976","url":null},"recName":"Crozier, Cape","confidence":{"state":"pre-added","who":["ml:dpeker"],"prob":0.9416}}}},{"classId":"e_4","part":"s29v1","offsets":[{"start":1096,"text":"Cape Hallett\n\n*"}],"coordinates":[],"confidence":{"state":"pre-added","who":["ml:dpeker"],"prob":0.7752},"fields":{},"normalizations":{"n_34":{"source":{"name":"GeoNames","id":"126118","url":null},"recName":"Hallett, Cape","confidence":{"state":"pre-added","who":["ml:dpeker"],"prob":0.7752}}}},{"classId":"e_4","part":"s29v1","offsets":[{"start":1290,"text":"Spit"}],"coordinates":[],"confidence":{"state":"pre-added","who":["ml:dpeker"],"prob":0.7737},"fields":{},"normalizations":{"n_34":{"source":{"name":"GeoNames","id":"114439","url":null},"recName":"Spit","confidence":{"state":"pre-added","who":["ml:dpeker"],"prob":0.7737}}}},{"classId":"e_4","part":"s29v1","offsets":[{"start":1351,"text":"Cape Hallett"}],"coordinates":[],"confidence":{"state":"pre-added","who":["ml:dpeker"],"prob":0.9416},"fields":{},"normalizations":{"n_34":{"source":{"name":"GeoNames","id":"126118","url":null},"recName":"Hallett, Cape","confidence":{"state":"pre-added","who":["ml:dpeker"],"prob":0.9416}}}},{"classId":"e_4","part":"s29v1","offsets":[{"start":1433,"text":"Cape Royds"}],"coordinates":[],"confidence":{"state":"pre-added","who":["ml:dpeker"],"prob":0.9266},"fields":{},"normalizations":{"n_34":{"source":{"name":"GeoNames","id":"131005","url":null},"recName":"Royds, Cape","confidence":{"state":"pre-added","who":["ml:dpeker"],"prob":0.9266}}}},{"classId":"e_4","part":"s29v1","offsets":[{"start":1630,"text":"Edmonson Point\n\n*"}],"coordinates":[],"confidence":{"state":"pre-added","who":["ml:dpeker"],"prob":0.8035},"fields":{},"normalizations":{"n_34":{"source":{"name":"GeoNames","id":"124687","url":null},"recName":"Edmonson Point","confidence":{"state":"pre-added","who":["ml:dpeker"],"prob":0.8035}}}},{"classId":"e_4","part":"s29v1","offsets":[{"start":1723,"text":"Gondwana Station"}],"coordinates":[],"confidence":{"state":"pre-added","who":["ml:dpeker"],"prob":0.9592},"fields":{},"normalizations":{"n_34":{"source":{"name":"GeoNames","id":"CKL003","url":null},"recName":"Gondwana Station","confidence":{"state":"pre-added","who":["ml:dpeker"],"prob":0.9592}}}},{"classId":"e_2","part":"s30v1","offsets":[{"start":134,"text":"P. davidi"}],"coordinates":[],"confidence":{"state":"pre-added","who":["ml:dpeker"],"prob":0.9163},"fields":{},"normalizations":{"n_33":{"source":{"name":"NematodeNames","id":"Padavi","url":null},"recName":"Panagrolaimus davidi","confidence":{"state":"pre-added","who":["ml:dpeker"],"prob":0.9163}}}},{"classId":"e_2","part":"s30v1","offsets":[{"start":225,"text":"P. magnivulvatus"}],"coordinates":[],"confidence":{"state":"pre-added","who":["ml:dpeker"],"prob":0.9592},"fields":{},"normalizations":{"n_33":{"source":{"name":"NematodeNames","id":"Pamagn","url":null},"recName":"Panagrolaimus magnivulvatus","confidence":{"state":"pre-added","who":["ml:dpeker"],"prob":0.9592}}}},{"classId":"e_2","part":"s30v1","offsets":[{"start":438,"text":"P. davidi"}],"coordinates":[],"confidence":{"state":"pre-added","who":["ml:dpeker"],"prob":0.9163},"fields":{},"normalizations":{"n_33":{"source":{"name":"NematodeNames","id":"Padavi","url":null},"recName":"Panagrolaimus davidi","confidence":{"state":"pre-added","who":["ml:dpeker"],"prob":0.9163}}}},{"classId":"e_2","part":"s30v1","offsets":[{"start":789,"text":"Geomonhystera"}],"coordinates":[],"confidence":{"state":"pre-added","who":["ml:dpeker"],"prob":0.9472},"fields":{},"normalizations":{"n_33":{"source":{"name":"NematodeNames","id":"Geomsp","url":null},"recName":"Geomonhystera spp.","confidence":{"state":"pre-added","who":["ml:dpeker"],"prob":0.9472}}}},{"classId":"e_2","part":"s30v1","offsets":[{"start":883,"text":"Monhystera"}],"coordinates":[],"confidence":{"state":"pre-added","who":["ml:dpeker"],"prob":0.9266},"fields":{},"normalizations":{"n_33":{"source":{"name":"NematodeNames","id":"Geomsp","url":null},"recName":"Geomonhystera spp.","confidence":{"state":"pre-added","who":["ml:dpeker"],"prob":0.9266}}}},{"classId":"e_2","part":"s30v1","offsets":[{"start":934,"text":"Geomonhystera"}],"coordinates":[],"confidence":{"state":"pre-added","who":["ml:dpeker"],"prob":0.9472},"fields":{},"normalizations":{"n_33":{"source":{"name":"NematodeNames","id":"Geomsp","url":null},"recName":"Geomonhystera spp.","confidence":{"state":"pre-added","who":["ml:dpeker"],"prob":0.9472}}}},{"classId":"e_2","part":"s30v1","offsets":[{"start":965,"text":"Monhystera villosa"}],"coordinates":[],"confidence":{"state":"pre-added","who":["ml:dpeker"],"prob":0.9648},"fields":{},"normalizations":{"n_33":{"source":{"name":"NematodeNames","id":"Geanta","url":null},"recName":"Geomonhystera antarcticola","confidence":{"state":"pre-added","who":["ml:dpeker"],"prob":0.9648}}}},{"classId":"e_2","part":"s30v1","offsets":[{"start":1074,"text":"Geomonhystera antarcti- cola"}],"coordinates":[],"confidence":{"state":"pre-added","who":["ml:dpeker"],"prob":0.8852},"fields":{},"normalizations":{"n_33":{"source":{"name":"NematodeNames","id":"Geanta","url":null},"recName":"Geomonhystera antarcticola","confidence":{"state":"pre-added","who":["ml:dpeker"],"prob":0.8852}}}},{"classId":"e_2","part":"s30v1","offsets":[{"start":1152,"text":"Geomonhystera"}],"coordinates":[],"confidence":{"state":"pre-added","who":["ml:dpeker"],"prob":0.9472},"fields":{},"normalizations":{"n_33":{"source":{"name":"NematodeNames","id":"Geomsp","url":null},"recName":"Geomonhystera spp.","confidence":{"state":"pre-added","who":["ml:dpeker"],"prob":0.9472}}}},{"classId":"e_2","part":"s30v1","offsets":[{"start":1261,"text":"G. antarcticola"}],"coordinates":[],"confidence":{"state":"pre-added","who":["ml:dpeker"],"prob":0.9558},"fields":{},"normalizations":{"n_33":{"source":{"name":"NematodeNames","id":"Geanta","url":null},"recName":"Geomonhystera antarcticola","confidence":{"state":"pre-added","who":["ml:dpeker"],"prob":0.9558}}}},{"classId":"e_2","part":"s30v1","offsets":[{"start":1306,"text":"G. antarcticola"}],"coordinates":[],"confidence":{"state":"pre-added","who":["ml:dpeker"],"prob":0.9558},"fields":{},"normalizations":{"n_33":{"source":{"name":"NematodeNames","id":"Geanta","url":null},"recName":"Geomonhystera antarcticola","confidence":{"state":"pre-added","who":["ml:dpeker"],"prob":0.9558}}}},{"classId":"e_2","part":"s30v1","offsets":[{"start":1357,"text":"P. davidi"}],"coordinates":[],"confidence":{"state":"pre-added","who":["ml:dpeker"],"prob":0.9163},"fields":{},"normalizations":{"n_33":{"source":{"name":"NematodeNames","id":"Padavi","url":null},"recName":"Panagrolaimus davidi","confidence":{"state":"pre-added","who":["ml:dpeker"],"prob":0.9163}}}},{"classId":"e_2","part":"s30v1","offsets":[{"start":1472,"text":"Geomonhystera"}],"coordinates":[],"confidence":{"state":"pre-added","who":["ml:dpeker"],"prob":0.9472},"fields":{},"normalizations":{"n_33":{"source":{"name":"NematodeNames","id":"Geomsp","url":null},"recName":"Geomonhystera spp.","confidence":{"state":"pre-added","who":["ml:dpeker"],"prob":0.9472}}}},{"classId":"e_2","part":"s30v1","offsets":[{"start":1597,"text":"G. ant- arcticola"}],"coordinates":[],"confidence":{"state":"pre-added","who":["ml:dpeker"],"prob":0.8068},"fields":{},"normalizations":{"n_33":{"source":{"name":"NematodeNames","id":"Geanta","url":null},"recName":"Geomonhystera antarcticola","confidence":{"state":"pre-added","who":["ml:dpeker"],"prob":0.8068}}}},{"classId":"e_2","part":"s30v1","offsets":[{"start":1783,"text":"Monhystera villosa"}],"coordinates":[],"confidence":{"state":"pre-added","who":["ml:dpeker"],"prob":0.9648},"fields":{},"normalizations":{"n_33":{"source":{"name":"NematodeNames","id":"Geanta","url":null},"recName":"Geomonhystera antarcticola","confidence":{"state":"pre-added","who":["ml:dpeker"],"prob":0.9648}}}},{"classId":"e_2","part":"s30v1","offsets":[{"start":1922,"text":"Monhystera"}],"coordinates":[],"confidence":{"state":"pre-added","who":["ml:dpeker"],"prob":0.9266},"fields":{},"normalizations":{"n_33":{"source":{"name":"NematodeNames","id":"Geomsp","url":null},"recName":"Geomonhystera spp.","confidence":{"state":"pre-added","who":["ml:dpeker"],"prob":0.9266}}}},{"classId":"e_2","part":"s30v1","offsets":[{"start":2249,"text":"Monhystera spp"}],"coordinates":[],"confidence":{"state":"pre-added","who":["ml:dpeker"],"prob":0.9106},"fields":{},"normalizations":{"n_33":{"source":{"name":"NematodeNames","id":"Geomsp","url":null},"recName":"Geomonhystera spp.","confidence":{"state":"pre-added","who":["ml:dpeker"],"prob":0.9106}}}},{"classId":"e_2","part":"s30v1","offsets":[{"start":2321,"text":"Geomonhystera"}],"coordinates":[],"confidence":{"state":"pre-added","who":["ml:dpeker"],"prob":0.9472},"fields":{},"normalizations":{"n_33":{"source":{"name":"NematodeNames","id":"Geomsp","url":null},"recName":"Geomonhystera spp.","confidence":{"state":"pre-added","who":["ml:dpeker"],"prob":0.9472}}}},{"classId":"e_2","part":"s30v1","offsets":[{"start":2361,"text":"Monhystera"}],"coordinates":[],"confidence":{"state":"pre-added","who":["ml:dpeker"],"prob":0.9266},"fields":{},"normalizations":{"n_33":{"source":{"name":"NematodeNames","id":"Geomsp","url":null},"recName":"Geomonhystera spp.","confidence":{"state":"pre-added","who":["ml:dpeker"],"prob":0.9266}}}},{"classId":"e_2","part":"s30v1","offsets":[{"start":2445,"text":"Geomonhystera"}],"coordinates":[],"confidence":{"state":"pre-added","who":["ml:dpeker"],"prob":0.9472},"fields":{},"normalizations":{"n_33":{"source":{"name":"NematodeNames","id":"Geomsp","url":null},"recName":"Geomonhystera spp.","confidence":{"state":"pre-added","who":["ml:dpeker"],"prob":0.9472}}}},{"classId":"e_2","part":"s30v1","offsets":[{"start":2563,"text":"Geomonhystera"}],"coordinates":[],"confidence":{"state":"pre-added","who":["ml:dpeker"],"prob":0.9472},"fields":{},"normalizations":{"n_33":{"source":{"name":"NematodeNames","id":"Geomsp","url":null},"recName":"Geomonhystera spp.","confidence":{"state":"pre-added","who":["ml:dpeker"],"prob":0.9472}}}},{"classId":"e_2","part":"s30v1","offsets":[{"start":2615,"text":"Geo- monhystera"}],"coordinates":[],"confidence":{"state":"pre-added","who":["ml:dpeker"],"prob":0.7798},"fields":{},"normalizations":{"n_33":{"source":{"name":"NematodeNames","id":"Geomsp","url":null},"recName":"Geomonhystera spp.","confidence":{"state":"pre-added","who":["ml:dpeker"],"prob":0.7798}}}},{"classId":"e_2","part":"s30v1","offsets":[{"start":2672,"text":"Geomonhystera"}],"coordinates":[],"confidence":{"state":"pre-added","who":["ml:dpeker"],"prob":0.9472},"fields":{},"normalizations":{"n_33":{"source":{"name":"NematodeNames","id":"Geomsp","url":null},"recName":"Geomonhystera spp.","confidence":{"state":"pre-added","who":["ml:dpeker"],"prob":0.9472}}}},{"classId":"e_2","part":"s30v1","offsets":[{"start":2717,"text":"Monhystera spp"}],"coordinates":[],"confidence":{"state":"pre-added","who":["ml:dpeker"],"prob":0.9106},"fields":{},"normalizations":{"n_33":{"source":{"name":"NematodeNames","id":"Geomsp","url":null},"recName":"Geomonhystera spp.","confidence":{"state":"pre-added","who":["ml:dpeker"],"prob":0.9106}}}},{"classId":"e_2","part":"s30v1","offsets":[{"start":2801,"text":"Geomonhystera"}],"coordinates":[],"confidence":{"state":"pre-added","who":["ml:dpeker"],"prob":0.9472},"fields":{},"normalizations":{"n_33":{"source":{"name":"NematodeNames","id":"Geomsp","url":null},"recName":"Geomonhystera spp.","confidence":{"state":"pre-added","who":["ml:dpeker"],"prob":0.9472}}}},{"classId":"e_2","part":"s30v1","offsets":[{"start":2979,"text":"Monhystera spp"}],"coordinates":[],"confidence":{"state":"pre-added","who":["ml:dpeker"],"prob":0.9106},"fields":{},"normalizations":{"n_33":{"source":{"name":"NematodeNames","id":"Geomsp","url":null},"recName":"Geomonhystera spp.","confidence":{"state":"pre-added","who":["ml:dpeker"],"prob":0.9106}}}},{"classId":"e_2","part":"s30v1","offsets":[{"start":3150,"text":"Geomonhystera"}],"coordinates":[],"confidence":{"state":"pre-added","who":["ml:dpeker"],"prob":0.9472},"fields":{},"normalizations":{"n_33":{"source":{"name":"NematodeNames","id":"Geomsp","url":null},"recName":"Geomonhystera spp.","confidence":{"state":"pre-added","who":["ml:dpeker"],"prob":0.9472}}}},{"classId":"e_2","part":"s31v1","offsets":[{"start":125,"text":"Geomonhystera antarcticola"}],"coordinates":[],"confidence":{"state":"pre-added","who":["ml:dpeker"],"prob":0.9778},"fields":{},"normalizations":{"n_33":{"source":{"name":"NematodeNames","id":"Geanta","url":null},"recName":"Geomonhystera antarcticola","confidence":{"state":"pre-added","who":["ml:dpeker"],"prob":0.9778}}}},{"classId":"e_2","part":"s31v1","offsets":[{"start":527,"text":"Geomonhystera"}],"coordinates":[],"confidence":{"state":"pre-added","who":["ml:dpeker"],"prob":0.9472},"fields":{},"normalizations":{"n_33":{"source":{"name":"NematodeNames","id":"Geomsp","url":null},"recName":"Geomonhystera spp.","confidence":{"state":"pre-added","who":["ml:dpeker"],"prob":0.9472}}}},{"classId":"e_4","part":"s31v1","offsets":[{"start":622,"text":"McMurdo Dry Valleys\n\n*"}],"coordinates":[],"confidence":{"state":"pre-added","who":["ml:dpeker"],"prob":0.8506},"fields":{},"normalizations":{"n_34":{"source":{"name":"GeoNames","id":"113892","url":null},"recName":"McMurdo Dry Valleys","confidence":{"state":"pre-added","who":["ml:dpeker"],"prob":0.8506}}}},{"classId":"e_4","part":"s31v1","offsets":[{"start":665,"text":"Alatna Valley\n\n*"}],"coordinates":[],"confidence":{"state":"pre-added","who":["ml:dpeker"],"prob":0.7903},"fields":{},"normalizations":{"n_34":{"source":{"name":"GeoNames","id":"121655","url":null},"recName":"Alatna Valley","confidence":{"state":"pre-added","who":["ml:dpeker"],"prob":0.7903}}}},{"classId":"e_4","part":"s31v1","offsets":[{"start":702,"text":"Battleship Promontory\n\n*"}],"coordinates":[],"confidence":{"state":"pre-added","who":["ml:dpeker"],"prob":0.8638},"fields":{},"normalizations":{"n_34":{"source":{"name":"GeoNames","id":"122277","url":null},"recName":"Battleship Promontory","confidence":{"state":"pre-added","who":["ml:dpeker"],"prob":0.8638}}}},{"classId":"e_4","part":"s31v1","offsets":[{"start":963,"text":"Taylor Valley\n\n*"}],"coordinates":[],"confidence":{"state":"pre-added","who":["ml:dpeker"],"prob":0.7903},"fields":{},"normalizations":{"n_34":{"source":{"name":"GeoNames","id":"132512","url":null},"recName":"Taylor Valley","confidence":{"state":"pre-added","who":["ml:dpeker"],"prob":0.7903}}}},{"classId":"e_4","part":"s31v1","offsets":[{"start":1000,"text":"Lake Bonney\n\n*"}],"coordinates":[],"confidence":{"state":"pre-added","who":["ml:dpeker"],"prob":0.7579},"fields":{},"normalizations":{"n_34":{"source":{"name":"GeoNames","id":"122715","url":null},"recName":"Bonney, Lake","confidence":{"state":"pre-added","who":["ml:dpeker"],"prob":0.7579}}}},{"classId":"e_4","part":"s31v1","offsets":[{"start":1088,"text":"Wright Valley\n\n*"}],"coordinates":[],"confidence":{"state":"pre-added","who":["ml:dpeker"],"prob":0.7903},"fields":{},"normalizations":{"n_34":{"source":{"name":"GeoNames","id":"133876","url":null},"recName":"Wright Valley","confidence":{"state":"pre-added","who":["ml:dpeker"],"prob":0.7903}}}},{"classId":"e_4","part":"s31v1","offsets":[{"start":1139,"text":"Meserve Glacier\n\n*"}],"coordinates":[],"confidence":{"state":"pre-added","who":["ml:dpeker"],"prob":0.8151},"fields":{},"normalizations":{"n_34":{"source":{"name":"GeoNames","id":"128829","url":null},"recName":"Meserve Glacier","confidence":{"state":"pre-added","who":["ml:dpeker"],"prob":0.8151}}}},{"classId":"e_4","part":"s31v1","offsets":[{"start":1226,"text":"Lake Vanda"}],"coordinates":[],"confidence":{"state":"pre-added","who":["ml:dpeker"],"prob":0.9266},"fields":{},"normalizations":{"n_34":{"source":{"name":"GeoNames","id":"133142","url":null},"recName":"Vanda, Lake","confidence":{"state":"pre-added","who":["ml:dpeker"],"prob":0.9266}}}},{"classId":"e_4","part":"s31v1","offsets":[{"start":1241,"text":"Lake Bull"}],"coordinates":[],"confidence":{"state":"pre-added","who":["ml:dpeker"],"prob":0.9163},"fields":{},"normalizations":{"n_34":{"source":{"name":"GeoNames","id":"123081","url":null},"recName":"Bull, Lake","confidence":{"state":"pre-added","who":["ml:dpeker"],"prob":0.9163}}}},{"classId":"e_4","part":"s31v1","offsets":[{"start":1411,"text":"Edmonson Point\n\n*"}],"coordinates":[],"confidence":{"state":"pre-added","who":["ml:dpeker"],"prob":0.8035},"fields":{},"normalizations":{"n_34":{"source":{"name":"GeoNames","id":"124687","url":null},"recName":"Edmonson Point","confidence":{"state":"pre-added","who":["ml:dpeker"],"prob":0.8035}}}},{"classId":"e_2","part":"s32v1","offsets":[{"start":186,"text":"Scottnema"}],"coordinates":[],"confidence":{"state":"pre-added","who":["ml:dpeker"],"prob":0.9163},"fields":{},"normalizations":{"n_33":{"source":{"name":"NematodeNames","id":"Scotsp","url":null},"recName":"Scottnema spp.","confidence":{"state":"pre-added","who":["ml:dpeker"],"prob":0.9163}}}},{"classId":"e_2","part":"s32v1","offsets":[{"start":197,"text":"Eudorylaimus"}],"coordinates":[],"confidence":{"state":"pre-added","who":["ml:dpeker"],"prob":0.9416},"fields":{},"normalizations":{"n_33":{"source":{"name":"NematodeNames","id":"Eudosp","url":null},"recName":"Eudorylaimus spp.","confidence":{"state":"pre-added","who":["ml:dpeker"],"prob":0.9416}}}},{"classId":"e_2","part":"s32v1","offsets":[{"start":211,"text":"Plectus"}],"coordinates":[],"confidence":{"state":"pre-added","who":["ml:dpeker"],"prob":0.8856},"fields":{},"normalizations":{"n_33":{"source":{"name":"NematodeNames","id":"Plecsp","url":null},"recName":"Plectus spp.","confidence":{"state":"pre-added","who":["ml:dpeker"],"prob":0.8856}}}},{"classId":"e_2","part":"s32v1","offsets":[{"start":220,"text":"Geomonhystera"}],"coordinates":[],"confidence":{"state":"pre-added","who":["ml:dpeker"],"prob":0.9472},"fields":{},"normalizations":{"n_33":{"source":{"name":"NematodeNames","id":"Geomsp","url":null},"recName":"Geomonhystera spp.","confidence":{"state":"pre-added","who":["ml:dpeker"],"prob":0.9472}}}},{"classId":"e_2","part":"s32v1","offsets":[{"start":235,"text":"Panagrolaimus"}],"coordinates":[],"confidence":{"state":"pre-added","who":["ml:dpeker"],"prob":0.9472},"fields":{},"normalizations":{"n_33":{"source":{"name":"NematodeNames","id":"Panasp","url":null},"recName":"Panagrolaimus spp.","confidence":{"state":"pre-added","who":["ml:dpeker"],"prob":0.9472}}}},{"classId":"e_2","part":"s32v1","offsets":[{"start":386,"text":"E. antarcticus"}],"coordinates":[],"confidence":{"state":"pre-added","who":["ml:dpeker"],"prob":0.9518},"fields":{},"normalizations":{"n_33":{"source":{"name":"NematodeNames","id":"Euanta","url":null},"recName":"Eudorylaimus antarcticus","confidence":{"state":"pre-added","who":["ml:dpeker"],"prob":0.9518}}}},{"classId":"e_2","part":"s32v1","offsets":[{"start":588,"text":"Plectus"}],"coordinates":[],"confidence":{"state":"pre-added","who":["ml:dpeker"],"prob":0.8856},"fields":{},"normalizations":{"n_33":{"source":{"name":"NematodeNames","id":"Plecsp","url":null},"recName":"Plectus spp.","confidence":{"state":"pre-added","who":["ml:dpeker"],"prob":0.8856}}}},{"classId":"e_2","part":"s32v1","offsets":[{"start":597,"text":"Scottnema"}],"coordinates":[],"confidence":{"state":"pre-added","who":["ml:dpeker"],"prob":0.9163},"fields":{},"normalizations":{"n_33":{"source":{"name":"NematodeNames","id":"Scotsp","url":null},"recName":"Scottnema spp.","confidence":{"state":"pre-added","who":["ml:dpeker"],"prob":0.9163}}}},{"classId":"e_2","part":"s32v1","offsets":[{"start":608,"text":"Eudorylaimus"}],"coordinates":[],"confidence":{"state":"pre-added","who":["ml:dpeker"],"prob":0.9416},"fields":{},"normalizations":{"n_33":{"source":{"name":"NematodeNames","id":"Eudosp","url":null},"recName":"Eudorylaimus spp.","confidence":{"state":"pre-added","who":["ml:dpeker"],"prob":0.9416}}}},{"classId":"e_2","part":"s32v1","offsets":[{"start":622,"text":"Geomonhystera"}],"coordinates":[],"confidence":{"state":"pre-added","who":["ml:dpeker"],"prob":0.9472},"fields":{},"normalizations":{"n_33":{"source":{"name":"NematodeNames","id":"Geomsp","url":null},"recName":"Geomonhystera spp.","confidence":{"state":"pre-added","who":["ml:dpeker"],"prob":0.9472}}}},{"classId":"e_2","part":"s32v1","offsets":[{"start":637,"text":"Panagrolaimus"}],"coordinates":[],"confidence":{"state":"pre-added","who":["ml:dpeker"],"prob":0.9472},"fields":{},"normalizations":{"n_33":{"source":{"name":"NematodeNames","id":"Panasp","url":null},"recName":"Panagrolaimus spp.","confidence":{"state":"pre-added","who":["ml:dpeker"],"prob":0.9472}}}},{"classId":"e_2","part":"s32v1","offsets":[{"start":705,"text":"Eudorylaimus"}],"coordinates":[],"confidence":{"state":"pre-added","who":["ml:dpeker"],"prob":0.9416},"fields":{},"normalizations":{"n_33":{"source":{"name":"NematodeNames","id":"Eudosp","url":null},"recName":"Eudorylaimus spp.","confidence":{"state":"pre-added","who":["ml:dpeker"],"prob":0.9416}}}},{"classId":"e_2","part":"s32v1","offsets":[{"start":924,"text":"Eudorylaimus"}],"coordinates":[],"confidence":{"state":"pre-added","who":["ml:dpeker"],"prob":0.9416},"fields":{},"normalizations":{"n_33":{"source":{"name":"NematodeNames","id":"Eudosp","url":null},"recName":"Eudorylaimus spp.","confidence":{"state":"pre-added","who":["ml:dpeker"],"prob":0.9416}}}},{"classId":"e_2","part":"s32v1","offsets":[{"start":938,"text":"Scottnema"}],"coordinates":[],"confidence":{"state":"pre-added","who":["ml:dpeker"],"prob":0.9163},"fields":{},"normalizations":{"n_33":{"source":{"name":"NematodeNames","id":"Scotsp","url":null},"recName":"Scottnema spp.","confidence":{"state":"pre-added","who":["ml:dpeker"],"prob":0.9163}}}},{"classId":"e_2","part":"s32v1","offsets":[{"start":949,"text":"Plectus"}],"coordinates":[],"confidence":{"state":"pre-added","who":["ml:dpeker"],"prob":0.8856},"fields":{},"normalizations":{"n_33":{"source":{"name":"NematodeNames","id":"Plecsp","url":null},"recName":"Plectus spp.","confidence":{"state":"pre-added","who":["ml:dpeker"],"prob":0.8856}}}},{"classId":"e_2","part":"s32v1","offsets":[{"start":958,"text":"Geomonhystera"}],"coordinates":[],"confidence":{"state":"pre-added","who":["ml:dpeker"],"prob":0.9472},"fields":{},"normalizations":{"n_33":{"source":{"name":"NematodeNames","id":"Geomsp","url":null},"recName":"Geomonhystera spp.","confidence":{"state":"pre-added","who":["ml:dpeker"],"prob":0.9472}}}},{"classId":"e_2","part":"s32v1","offsets":[{"start":973,"text":"Panagrolaimus"}],"coordinates":[],"confidence":{"state":"pre-added","who":["ml:dpeker"],"prob":0.9472},"fields":{},"normalizations":{"n_33":{"source":{"name":"NematodeNames","id":"Panasp","url":null},"recName":"Panagrolaimus spp.","confidence":{"state":"pre-added","who":["ml:dpeker"],"prob":0.9472}}}},{"classId":"e_2","part":"s32v1","offsets":[{"start":1049,"text":"Scottnema"}],"coordinates":[],"confidence":{"state":"pre-added","who":["ml:dpeker"],"prob":0.9163},"fields":{},"normalizations":{"n_33":{"source":{"name":"NematodeNames","id":"Scotsp","url":null},"recName":"Scottnema spp.","confidence":{"state":"pre-added","who":["ml:dpeker"],"prob":0.9163}}}},{"classId":"e_2","part":"s32v1","offsets":[{"start":1062,"text":"Plectus"}],"coordinates":[],"confidence":{"state":"pre-added","who":["ml:dpeker"],"prob":0.8856},"fields":{},"normalizations":{"n_33":{"source":{"name":"NematodeNames","id":"Plecsp","url":null},"recName":"Plectus spp.","confidence":{"state":"pre-added","who":["ml:dpeker"],"prob":0.8856}}}},{"classId":"e_2","part":"s32v1","offsets":[{"start":1122,"text":"Eudorylaimus"}],"coordinates":[],"confidence":{"state":"pre-added","who":["ml:dpeker"],"prob":0.9416},"fields":{},"normalizations":{"n_33":{"source":{"name":"NematodeNames","id":"Eudosp","url":null},"recName":"Eudorylaimus spp.","confidence":{"state":"pre-added","who":["ml:dpeker"],"prob":0.9416}}}},{"classId":"e_2","part":"s32v1","offsets":[{"start":1344,"text":"Panagrolaimus"}],"coordinates":[],"confidence":{"state":"pre-added","who":["ml:dpeker"],"prob":0.9472},"fields":{},"normalizations":{"n_33":{"source":{"name":"NematodeNames","id":"Panasp","url":null},"recName":"Panagrolaimus spp.","confidence":{"state":"pre-added","who":["ml:dpeker"],"prob":0.9472}}}},{"classId":"e_2","part":"s32v1","offsets":[{"start":1358,"text":"Scottnema"}],"coordinates":[],"confidence":{"state":"pre-added","who":["ml:dpeker"],"prob":0.9163},"fields":{},"normalizations":{"n_33":{"source":{"name":"NematodeNames","id":"Scotsp","url":null},"recName":"Scottnema spp.","confidence":{"state":"pre-added","who":["ml:dpeker"],"prob":0.9163}}}},{"classId":"e_2","part":"s32v1","offsets":[{"start":1397,"text":"Eudorylaimus"}],"coordinates":[],"confidence":{"state":"pre-added","who":["ml:dpeker"],"prob":0.9416},"fields":{},"normalizations":{"n_33":{"source":{"name":"NematodeNames","id":"Eudosp","url":null},"recName":"Eudorylaimus spp.","confidence":{"state":"pre-added","who":["ml:dpeker"],"prob":0.9416}}}},{"classId":"e_2","part":"s32v1","offsets":[{"start":1411,"text":"Plectus"}],"coordinates":[],"confidence":{"state":"pre-added","who":["ml:dpeker"],"prob":0.8856},"fields":{},"normalizations":{"n_33":{"source":{"name":"NematodeNames","id":"Plecsp","url":null},"recName":"Plectus spp.","confidence":{"state":"pre-added","who":["ml:dpeker"],"prob":0.8856}}}},{"classId":"e_2","part":"s32v1","offsets":[{"start":1509,"text":"Eudorylaimus"}],"coordinates":[],"confidence":{"state":"pre-added","who":["ml:dpeker"],"prob":0.9416},"fields":{},"normalizations":{"n_33":{"source":{"name":"NematodeNames","id":"Eudosp","url":null},"recName":"Eudorylaimus spp.","confidence":{"state":"pre-added","who":["ml:dpeker"],"prob":0.9416}}}},{"classId":"e_2","part":"s32v1","offsets":[{"start":1526,"text":"Plectus"}],"coordinates":[],"confidence":{"state":"pre-added","who":["ml:dpeker"],"prob":0.8856},"fields":{},"normalizations":{"n_33":{"source":{"name":"NematodeNames","id":"Plecsp","url":null},"recName":"Plectus spp.","confidence":{"state":"pre-added","who":["ml:dpeker"],"prob":0.8856}}}},{"classId":"e_2","part":"s32v1","offsets":[{"start":1710,"text":"Geomonhystera"}],"coordinates":[],"confidence":{"state":"pre-added","who":["ml:dpeker"],"prob":0.9472},"fields":{},"normalizations":{"n_33":{"source":{"name":"NematodeNames","id":"Geomsp","url":null},"recName":"Geomonhystera spp.","confidence":{"state":"pre-added","who":["ml:dpeker"],"prob":0.9472}}}},{"classId":"e_2","part":"s32v1","offsets":[{"start":1724,"text":"Scottnema"}],"coordinates":[],"confidence":{"state":"pre-added","who":["ml:dpeker"],"prob":0.9163},"fields":{},"normalizations":{"n_33":{"source":{"name":"NematodeNames","id":"Scotsp","url":null},"recName":"Scottnema spp.","confidence":{"state":"pre-added","who":["ml:dpeker"],"prob":0.9163}}}},{"classId":"e_2","part":"s32v1","offsets":[{"start":1735,"text":"Eudorylaimus"}],"coordinates":[],"confidence":{"state":"pre-added","who":["ml:dpeker"],"prob":0.9416},"fields":{},"normalizations":{"n_33":{"source":{"name":"NematodeNames","id":"Eudosp","url":null},"recName":"Eudorylaimus spp.","confidence":{"state":"pre-added","who":["ml:dpeker"],"prob":0.9416}}}},{"classId":"e_2","part":"s32v1","offsets":[{"start":1749,"text":"Plectus"}],"coordinates":[],"confidence":{"state":"pre-added","who":["ml:dpeker"],"prob":0.8856},"fields":{},"normalizations":{"n_33":{"source":{"name":"NematodeNames","id":"Plecsp","url":null},"recName":"Plectus spp.","confidence":{"state":"pre-added","who":["ml:dpeker"],"prob":0.8856}}}},{"classId":"e_2","part":"s32v1","offsets":[{"start":1805,"text":"E. antarcticus"}],"coordinates":[],"confidence":{"state":"pre-added","who":["ml:dpeker"],"prob":0.9518},"fields":{},"normalizations":{"n_33":{"source":{"name":"NematodeNames","id":"Euanta","url":null},"recName":"Eudorylaimus antarcticus","confidence":{"state":"pre-added","who":["ml:dpeker"],"prob":0.9518}}}},{"classId":"e_2","part":"s32v1","offsets":[{"start":1842,"text":"S. lindsayae"}],"coordinates":[],"confidence":{"state":"pre-added","who":["ml:dpeker"],"prob":0.9416},"fields":{},"normalizations":{"n_33":{"source":{"name":"NematodeNames","id":"Sclind","url":null},"recName":"Scottnema lindsayae","confidence":{"state":"pre-added","who":["ml:dpeker"],"prob":0.9416}}}},{"classId":"e_2","part":"s32v1","offsets":[{"start":1859,"text":"E. antarcticus"}],"coordinates":[],"confidence":{"state":"pre-added","who":["ml:dpeker"],"prob":0.9518},"fields":{},"normalizations":{"n_33":{"source":{"name":"NematodeNames","id":"Euanta","url":null},"recName":"Eudorylaimus antarcticus","confidence":{"state":"pre-added","who":["ml:dpeker"],"prob":0.9518}}}},{"classId":"e_2","part":"s33v1","offsets":[{"start":448,"text":"Panagrolaimus davidii"}],"coordinates":[],"confidence":{"state":"pre-added","who":["ml:dpeker"],"prob":0.971},"fields":{},"normalizations":{"n_33":{"source":{"name":"NematodeNames","id":"Padavi","url":null},"recName":"Panagrolaimus davidi","confidence":{"state":"pre-added","who":["ml:dpeker"],"prob":0.971}}}},{"classId":"e_2","part":"s33v1","offsets":[{"start":474,"text":"Geomonhystera spp"}],"coordinates":[],"confidence":{"state":"pre-added","who":["ml:dpeker"],"prob":0.9275},"fields":{},"normalizations":{"n_33":{"source":{"name":"NematodeNames","id":"Geomsp","url":null},"recName":"Geomonhystera spp.","confidence":{"state":"pre-added","who":["ml:dpeker"],"prob":0.9275}}}},{"classId":"e_4","part":"s33v1","offsets":[{"start":598,"text":"McMurdo Dry Valleys"}],"coordinates":[],"confidence":{"state":"pre-added","who":["ml:dpeker"],"prob":0.9671},"fields":{},"normalizations":{"n_34":{"source":{"name":"GeoNames","id":"113892","url":null},"recName":"McMurdo Dry Valleys","confidence":{"state":"pre-added","who":["ml:dpeker"],"prob":0.9671}}}},{"classId":"e_4","part":"s33v1","offsets":[{"start":1095,"text":"McMurdo Dry Valleys"}],"coordinates":[],"confidence":{"state":"pre-added","who":["ml:dpeker"],"prob":0.9671},"fields":{},"normalizations":{"n_34":{"source":{"name":"GeoNames","id":"113892","url":null},"recName":"McMurdo Dry Valleys","confidence":{"state":"pre-added","who":["ml:dpeker"],"prob":0.9671}}}},{"classId":"e_4","part":"s33v1","offsets":[{"start":1335,"text":"McMurdo Dry Valleys"}],"coordinates":[],"confidence":{"state":"pre-added","who":["ml:dpeker"],"prob":0.9671},"fields":{},"normalizations":{"n_34":{"source":{"name":"GeoNames","id":"113892","url":null},"recName":"McMurdo Dry Valleys","confidence":{"state":"pre-added","who":["ml:dpeker"],"prob":0.9671}}}},{"classId":"e_4","part":"s33v1","offsets":[{"start":1417,"text":"Taylor Valley"}],"coordinates":[],"confidence":{"state":"pre-added","who":["ml:dpeker"],"prob":0.9472},"fields":{},"normalizations":{"n_34":{"source":{"name":"GeoNames","id":"132512","url":null},"recName":"Taylor Valley","confidence":{"state":"pre-added","who":["ml:dpeker"],"prob":0.9472}}}},{"classId":"e_4","part":"s33v1","offsets":[{"start":1452,"text":"Barwick Valley"}],"coordinates":[],"confidence":{"state":"pre-added","who":["ml:dpeker"],"prob":0.9518},"fields":{},"normalizations":{"n_34":{"source":{"name":"GeoNames","id":"122252","url":null},"recName":"Barwick Valley","confidence":{"state":"pre-added","who":["ml:dpeker"],"prob":0.9518}}}},{"classId":"e_2","part":"s33v1","offsets":[{"start":1798,"text":"Scottnema lindsayae"}],"coordinates":[],"confidence":{"state":"pre-added","who":["ml:dpeker"],"prob":0.9671},"fields":{},"normalizations":{"n_33":{"source":{"name":"NematodeNames","id":"Sclind","url":null},"recName":"Scottnema lindsayae","confidence":{"state":"pre-added","who":["ml:dpeker"],"prob":0.9671}}}},{"classId":"e_2","part":"s33v1","offsets":[{"start":2210,"text":"S. lindsayae"}],"coordinates":[],"confidence":{"state":"pre-added","who":["ml:dpeker"],"prob":0.9416},"fields":{},"normalizations":{"n_33":{"source":{"name":"NematodeNames","id":"Sclind","url":null},"recName":"Scottnema lindsayae","confidence":{"state":"pre-added","who":["ml:dpeker"],"prob":0.9416}}}},{"classId":"e_2","part":"s33v1","offsets":[{"start":2320,"text":"Plectus spp"}],"coordinates":[],"confidence":{"state":"pre-added","who":["ml:dpeker"],"prob":0.8842},"fields":{},"normalizations":{"n_33":{"source":{"name":"NematodeNames","id":"Plecsp","url":null},"recName":"Plectus spp.","confidence":{"state":"pre-added","who":["ml:dpeker"],"prob":0.8842}}}},{"classId":"e_2","part":"s33v1","offsets":[{"start":2337,"text":"Eudorylaimus antarcticus"}],"coordinates":[],"confidence":{"state":"pre-added","who":["ml:dpeker"],"prob":0.9754},"fields":{},"normalizations":{"n_33":{"source":{"name":"NematodeNames","id":"Euanta","url":null},"recName":"Eudorylaimus antarcticus","confidence":{"state":"pre-added","who":["ml:dpeker"],"prob":0.9754}}}},{"classId":"e_2","part":"s33v1","offsets":[{"start":2754,"text":"Geomonhystera spp"}],"coordinates":[],"confidence":{"state":"pre-added","who":["ml:dpeker"],"prob":0.9275},"fields":{},"normalizations":{"n_33":{"source":{"name":"NematodeNames","id":"Geomsp","url":null},"recName":"Geomonhystera spp.","confidence":{"state":"pre-added","who":["ml:dpeker"],"prob":0.9275}}}},{"classId":"e_4","part":"s34v1","offsets":[{"start":1638,"text":"Wright Valley"}],"coordinates":[],"confidence":{"state":"pre-added","who":["ml:dpeker"],"prob":0.9472},"fields":{},"normalizations":{"n_34":{"source":{"name":"GeoNames","id":"133876","url":null},"recName":"Wright Valley","confidence":{"state":"pre-added","who":["ml:dpeker"],"prob":0.9472}}}},{"classId":"e_2","part":"s35v1","offsets":[{"start":2429,"text":"Scottnema lindsayae"}],"coordinates":[],"confidence":{"state":"pre-added","who":["ml:dpeker"],"prob":0.9671},"fields":{},"normalizations":{"n_33":{"source":{"name":"NematodeNames","id":"Sclind","url":null},"recName":"Scottnema lindsayae","confidence":{"state":"pre-added","who":["ml:dpeker"],"prob":0.9671}}}},{"classId":"e_2","part":"s36v1","offsets":[{"start":367,"text":"Geomonhystera"}],"coordinates":[],"confidence":{"state":"pre-added","who":["ml:dpeker"],"prob":0.9472},"fields":{},"normalizations":{"n_33":{"source":{"name":"NematodeNames","id":"Geomsp","url":null},"recName":"Geomonhystera spp.","confidence":{"state":"pre-added","who":["ml:dpeker"],"prob":0.9472}}}},{"classId":"e_2","part":"s36v1","offsets":[{"start":469,"text":"Eudorylaimus"}],"coordinates":[],"confidence":{"state":"pre-added","who":["ml:dpeker"],"prob":0.9416},"fields":{},"normalizations":{"n_33":{"source":{"name":"NematodeNames","id":"Eudosp","url":null},"recName":"Eudorylaimus spp.","confidence":{"state":"pre-added","who":["ml:dpeker"],"prob":0.9416}}}},{"classId":"e_4","part":"s36v1","offsets":[{"start":1652,"text":"McMurdo Dry Valleys"}],"coordinates":[],"confidence":{"state":"pre-added","who":["ml:dpeker"],"prob":0.9671},"fields":{},"normalizations":{"n_34":{"source":{"name":"GeoNames","id":"113892","url":null},"recName":"McMurdo Dry Valleys","confidence":{"state":"pre-added","who":["ml:dpeker"],"prob":0.9671}}}},{"classId":"e_4","part":"s36v1","offsets":[{"start":1912,"text":"Edmonson Point"}],"coordinates":[],"confidence":{"state":"pre-added","who":["ml:dpeker"],"prob":0.9518},"fields":{},"normalizations":{"n_34":{"source":{"name":"GeoNames","id":"124687","url":null},"recName":"Edmonson Point","confidence":{"state":"pre-added","who":["ml:dpeker"],"prob":0.9518}}}},{"classId":"e_4","part":"s36v1","offsets":[{"start":2440,"text":"McMurdo Dry Valleys"}],"coordinates":[],"confidence":{"state":"pre-added","who":["ml:dpeker"],"prob":0.9671},"fields":{},"normalizations":{"n_34":{"source":{"name":"GeoNames","id":"113892","url":null},"recName":"McMurdo Dry Valleys","confidence":{"state":"pre-added","who":["ml:dpeker"],"prob":0.9671}}}},{"classId":"e_2","part":"s37v1","offsets":[{"start":1351,"text":"Scottnema lindsayae"}],"coordinates":[],"confidence":{"state":"pre-added","who":["ml:dpeker"],"prob":0.9671},"fields":{},"normalizations":{"n_33":{"source":{"name":"NematodeNames","id":"Sclind","url":null},"recName":"Scottnema lindsayae","confidence":{"state":"pre-added","who":["ml:dpeker"],"prob":0.9671}}}},{"classId":"e_4","part":"s37v1","offsets":[{"start":1767,"text":"Taylor Valley"}],"coordinates":[],"confidence":{"state":"pre-added","who":["ml:dpeker"],"prob":0.9472},"fields":{},"normalizations":{"n_34":{"source":{"name":"GeoNames","id":"132512","url":null},"recName":"Taylor Valley","confidence":{"state":"pre-added","who":["ml:dpeker"],"prob":0.9472}}}},{"classId":"e_4","part":"s37v1","offsets":[{"start":2464,"text":"Mc- Murdo Dry Valleys"}],"coordinates":[],"confidence":{"state":"pre-added","who":["ml:dpeker"],"prob":0.8451},"fields":{},"normalizations":{"n_34":{"source":{"name":"GeoNames","id":"113892","url":null},"recName":"McMurdo Dry Valleys","confidence":{"state":"pre-added","who":["ml:dpeker"],"prob":0.8451}}}},{"classId":"e_4","part":"s37v1","offsets":[{"start":2560,"text":"McMurdo Dry Valleys"}],"coordinates":[],"confidence":{"state":"pre-added","who":["ml:dpeker"],"prob":0.9671},"fields":{},"normalizations":{"n_34":{"source":{"name":"GeoNames","id":"113892","url":null},"recName":"McMurdo Dry Valleys","confidence":{"state":"pre-added","who":["ml:dpeker"],"prob":0.9671}}}},{"classId":"e_4","part":"s37v1","offsets":[{"start":2724,"text":"Inexpressible Island"}],"coordinates":[],"confidence":{"state":"pre-added","who":["ml:dpeker"],"prob":0.9692},"fields":{},"normalizations":{"n_34":{"source":{"name":"GeoNames","id":"113617","url":null},"recName":"Inexpressible Island","confidence":{"state":"pre-added","who":["ml:dpeker"],"prob":0.9692}}}},{"classId":"e_4","part":"s38v1","offsets":[{"start":1499,"text":"McMurdo Dry Valleys"}],"coordinates":[],"confidence":{"state":"pre-added","who":["ml:dpeker"],"prob":0.9671},"fields":{},"normalizations":{"n_34":{"source":{"name":"GeoNames","id":"113892","url":null},"recName":"McMurdo Dry Valleys","confidence":{"state":"pre-added","who":["ml:dpeker"],"prob":0.9671}}}},{"classId":"e_4","part":"s38v1","offsets":[{"start":1717,"text":"McMurdo Dry Valleys"}],"coordinates":[],"confidence":{"state":"pre-added","who":["ml:dpeker"],"prob":0.9671},"fields":{},"normalizations":{"n_34":{"source":{"name":"GeoNames","id":"113892","url":null},"recName":"McMurdo Dry Valleys","confidence":{"state":"pre-added","who":["ml:dpeker"],"prob":0.9671}}}},{"classId":"e_2","part":"s38v1","offsets":[{"start":1958,"text":"Scottnema lindsayae"}],"coordinates":[],"confidence":{"state":"pre-added","who":["ml:dpeker"],"prob":0.9671},"fields":{},"normalizations":{"n_33":{"source":{"name":"NematodeNames","id":"Sclind","url":null},"recName":"Scottnema lindsayae","confidence":{"state":"pre-added","who":["ml:dpeker"],"prob":0.9671}}}},{"classId":"e_2","part":"s38v1","offsets":[{"start":2397,"text":"Plectus murrayi"}],"coordinates":[],"confidence":{"state":"pre-added","who":["ml:dpeker"],"prob":0.9558},"fields":{},"normalizations":{"n_33":{"source":{"name":"NematodeNames","id":"Plmurr","url":null},"recName":"Plectus murrayi","confidence":{"state":"pre-added","who":["ml:dpeker"],"prob":0.9558}}}},{"classId":"e_4","part":"s38v1","offsets":[{"start":3046,"text":"Taylor Valley"}],"coordinates":[],"confidence":{"state":"pre-added","who":["ml:dpeker"],"prob":0.9472},"fields":{},"normalizations":{"n_34":{"source":{"name":"GeoNames","id":"132512","url":null},"recName":"Taylor Valley","confidence":{"state":"pre-added","who":["ml:dpeker"],"prob":0.9472}}}},{"classId":"e_4","part":"s39v1","offsets":[{"start":309,"text":"McMurdo Dry Valley"}],"coordinates":[],"confidence":{"state":"pre-added","who":["ml:dpeker"],"prob":0.914},"fields":{},"normalizations":{"n_34":{"source":{"name":"GeoNames","id":"113892","url":null},"recName":"McMurdo Dry Valleys","confidence":{"state":"pre-added","who":["ml:dpeker"],"prob":0.914}}}},{"classId":"e_4","part":"s39v1","offsets":[{"start":922,"text":"McMurdo Dry Valleys"}],"coordinates":[],"confidence":{"state":"pre-added","who":["ml:dpeker"],"prob":0.9671},"fields":{},"normalizations":{"n_34":{"source":{"name":"GeoNames","id":"113892","url":null},"recName":"McMurdo Dry Valleys","confidence":{"state":"pre-added","who":["ml:dpeker"],"prob":0.9671}}}},{"classId":"e_4","part":"s39v1","offsets":[{"start":1171,"text":"McMurdo Dry Valleys"}],"coordinates":[],"confidence":{"state":"pre-added","who":["ml:dpeker"],"prob":0.9671},"fields":{},"normalizations":{"n_34":{"source":{"name":"GeoNames","id":"113892","url":null},"recName":"McMurdo Dry Valleys","confidence":{"state":"pre-added","who":["ml:dpeker"],"prob":0.9671}}}},{"classId":"e_4","part":"s39v1","offsets":[{"start":1324,"text":"Cape Bird"}],"coordinates":[],"confidence":{"state":"pre-added","who":["ml:dpeker"],"prob":0.9163},"fields":{},"normalizations":{"n_34":{"source":{"name":"GeoNames","id":"122545","url":null},"recName":"Bird, Cape","confidence":{"state":"pre-added","who":["ml:dpeker"],"prob":0.9163}}}},{"classId":"e_2","part":"s39v1","offsets":[{"start":1436,"text":"Eudorylaimus nudicaudatus"}],"coordinates":[],"confidence":{"state":"pre-added","who":["ml:dpeker"],"prob":0.9766},"fields":{},"normalizations":{"n_33":{"source":{"name":"NematodeNames","id":"Eunudi","url":null},"recName":"Eudorylaimus nudicaudatus","confidence":{"state":"pre-added","who":["ml:dpeker"],"prob":0.9766}}}},{"classId":"e_2","part":"s39v1","offsets":[{"start":2227,"text":"Plectus"}],"coordinates":[],"confidence":{"state":"pre-added","who":["ml:dpeker"],"prob":0.8856},"fields":{},"normalizations":{"n_33":{"source":{"name":"NematodeNames","id":"Plecsp","url":null},"recName":"Plectus spp.","confidence":{"state":"pre-added","who":["ml:dpeker"],"prob":0.8856}}}},{"classId":"e_2","part":"s39v1","offsets":[{"start":2369,"text":"Plectus antarcticus"}],"coordinates":[],"confidence":{"state":"pre-added","who":["ml:dpeker"],"prob":0.9671},"fields":{},"normalizations":{"n_33":{"source":{"name":"NematodeNames","id":"Plmurr","url":null},"recName":"Plectus murrayi","confidence":{"state":"pre-added","who":["ml:dpeker"],"prob":0.9671}}}},{"classId":"e_2","part":"s39v1","offsets":[{"start":2406,"text":"P. frigophilus"}],"coordinates":[],"confidence":{"state":"pre-added","who":["ml:dpeker"],"prob":0.9518},"fields":{},"normalizations":{"n_33":{"source":{"name":"NematodeNames","id":"Plfrig","url":null},"recName":"Plectus frigophilus","confidence":{"state":"pre-added","who":["ml:dpeker"],"prob":0.9518}}}},{"classId":"e_2","part":"s39v1","offsets":[{"start":2643,"text":"Eudorylaimus"}],"coordinates":[],"confidence":{"state":"pre-added","who":["ml:dpeker"],"prob":0.9416},"fields":{},"normalizations":{"n_33":{"source":{"name":"NematodeNames","id":"Eudosp","url":null},"recName":"Eudorylaimus spp.","confidence":{"state":"pre-added","who":["ml:dpeker"],"prob":0.9416}}}},{"classId":"e_4","part":"s39v1","offsets":[{"start":2916,"text":"Taylor Valley"}],"coordinates":[],"confidence":{"state":"pre-added","who":["ml:dpeker"],"prob":0.9472},"fields":{},"normalizations":{"n_34":{"source":{"name":"GeoNames","id":"132512","url":null},"recName":"Taylor Valley","confidence":{"state":"pre-added","who":["ml:dpeker"],"prob":0.9472}}}},{"classId":"e_4","part":"s40v1","offsets":[{"start":303,"text":"Taylor Valley"}],"coordinates":[],"confidence":{"state":"pre-added","who":["ml:dpeker"],"prob":0.9472},"fields":{},"normalizations":{"n_34":{"source":{"name":"GeoNames","id":"132512","url":null},"recName":"Taylor Valley","confidence":{"state":"pre-added","who":["ml:dpeker"],"prob":0.9472}}}},{"classId":"e_4","part":"s40v1","offsets":[{"start":526,"text":"McMurdo Dry Valleys"}],"coordinates":[],"confidence":{"state":"pre-added","who":["ml:dpeker"],"prob":0.9671},"fields":{},"normalizations":{"n_34":{"source":{"name":"GeoNames","id":"113892","url":null},"recName":"McMurdo Dry Valleys","confidence":{"state":"pre-added","who":["ml:dpeker"],"prob":0.9671}}}},{"classId":"e_4","part":"s40v1","offsets":[{"start":822,"text":"Cape Royds"}],"coordinates":[],"confidence":{"state":"pre-added","who":["ml:dpeker"],"prob":0.9266},"fields":{},"normalizations":{"n_34":{"source":{"name":"GeoNames","id":"131005","url":null},"recName":"Royds, Cape","confidence":{"state":"pre-added","who":["ml:dpeker"],"prob":0.9266}}}},{"classId":"e_4","part":"s40v1","offsets":[{"start":2084,"text":"McMurdo Dry Valleys"}],"coordinates":[],"confidence":{"state":"pre-added","who":["ml:dpeker"],"prob":0.9671},"fields":{},"normalizations":{"n_34":{"source":{"name":"GeoNames","id":"113892","url":null},"recName":"McMurdo Dry Valleys","confidence":{"state":"pre-added","who":["ml:dpeker"],"prob":0.9671}}}},{"classId":"e_2","part":"s40v1","offsets":[{"start":2281,"text":"Scottnema lindsayae"}],"coordinates":[],"confidence":{"state":"pre-added","who":["ml:dpeker"],"prob":0.9671},"fields":{},"normalizations":{"n_33":{"source":{"name":"NematodeNames","id":"Sclind","url":null},"recName":"Scottnema lindsayae","confidence":{"state":"pre-added","who":["ml:dpeker"],"prob":0.9671}}}},{"classId":"e_4","part":"s40v1","offsets":[{"start":2804,"text":"McMurdo Dry Valleys"}],"coordinates":[],"confidence":{"state":"pre-added","who":["ml:dpeker"],"prob":0.9671},"fields":{},"normalizations":{"n_34":{"source":{"name":"GeoNames","id":"113892","url":null},"recName":"McMurdo Dry Valleys","confidence":{"state":"pre-added","who":["ml:dpeker"],"prob":0.9671}}}},{"classId":"e_4","part":"s40v1","offsets":[{"start":3018,"text":"Ross Island"}],"coordinates":[],"confidence":{"state":"pre-added","who":["ml:dpeker"],"prob":0.9349},"fields":{},"normalizations":{"n_34":{"source":{"name":"GeoNames","id":"130958","url":null},"recName":"Ross Island","confidence":{"state":"pre-added","who":["ml:dpeker"],"prob":0.9349}}}},{"classId":"e_4","part":"s41v1","offsets":[{"start":478,"text":"Taylor Valley"}],"coordinates":[],"confidence":{"state":"pre-added","who":["ml:dpeker"],"prob":0.9472},"fields":{},"normalizations":{"n_34":{"source":{"name":"GeoNames","id":"132512","url":null},"recName":"Taylor Valley","confidence":{"state":"pre-added","who":["ml:dpeker"],"prob":0.9472}}}},{"classId":"e_4","part":"s41v1","offsets":[{"start":629,"text":"Taylor Valley"}],"coordinates":[],"confidence":{"state":"pre-added","who":["ml:dpeker"],"prob":0.9472},"fields":{},"normalizations":{"n_34":{"source":{"name":"GeoNames","id":"132512","url":null},"recName":"Taylor Valley","confidence":{"state":"pre-added","who":["ml:dpeker"],"prob":0.9472}}}},{"classId":"e_4","part":"s41v1","offsets":[{"start":999,"text":"Taylor valley"}],"coordinates":[],"confidence":{"state":"pre-added","who":["ml:dpeker"],"prob":0.9107},"fields":{},"normalizations":{"n_34":{"source":{"name":"GeoNames","id":"132512","url":null},"recName":"Taylor Valley","confidence":{"state":"pre-added","who":["ml:dpeker"],"prob":0.9107}}}},{"classId":"e_4","part":"s41v1","offsets":[{"start":1236,"text":"Taylor Valley"}],"coordinates":[],"confidence":{"state":"pre-added","who":["ml:dpeker"],"prob":0.9472},"fields":{},"normalizations":{"n_34":{"source":{"name":"GeoNames","id":"132512","url":null},"recName":"Taylor Valley","confidence":{"state":"pre-added","who":["ml:dpeker"],"prob":0.9472}}}},{"classId":"e_4","part":"s41v1","offsets":[{"start":1417,"text":"Cape Hallett"}],"coordinates":[],"confidence":{"state":"pre-added","who":["ml:dpeker"],"prob":0.9416},"fields":{},"normalizations":{"n_34":{"source":{"name":"GeoNames","id":"126118","url":null},"recName":"Hallett, Cape","confidence":{"state":"pre-added","who":["ml:dpeker"],"prob":0.9416}}}},{"classId":"e_4","part":"s41v1","offsets":[{"start":1434,"text":"Gondwana station"}],"coordinates":[],"confidence":{"state":"pre-added","who":["ml:dpeker"],"prob":0.9293},"fields":{},"normalizations":{"n_34":{"source":{"name":"GeoNames","id":"CKL003","url":null},"recName":"Gondwana Station","confidence":{"state":"pre-added","who":["ml:dpeker"],"prob":0.9293}}}},{"classId":"e_2","part":"s41v1","offsets":[{"start":1651,"text":"Panagrolaimus davidi"}],"coordinates":[],"confidence":{"state":"pre-added","who":["ml:dpeker"],"prob":0.9692},"fields":{},"normalizations":{"n_33":{"source":{"name":"NematodeNames","id":"Padavi","url":null},"recName":"Panagrolaimus davidi","confidence":{"state":"pre-added","who":["ml:dpeker"],"prob":0.9692}}}},{"classId":"e_4","part":"s41v1","offsets":[{"start":2331,"text":"McMurdo Dry Valleys"}],"coordinates":[],"confidence":{"state":"pre-added","who":["ml:dpeker"],"prob":0.9671},"fields":{},"normalizations":{"n_34":{"source":{"name":"GeoNames","id":"113892","url":null},"recName":"McMurdo Dry Valleys","confidence":{"state":"pre-added","who":["ml:dpeker"],"prob":0.9671}}}},{"classId":"e_4","part":"s41v1","offsets":[{"start":2515,"text":"Cape Bird"}],"coordinates":[],"confidence":{"state":"pre-added","who":["ml:dpeker"],"prob":0.9163},"fields":{},"normalizations":{"n_34":{"source":{"name":"GeoNames","id":"122545","url":null},"recName":"Bird, Cape","confidence":{"state":"pre-added","who":["ml:dpeker"],"prob":0.9163}}}},{"classId":"e_4","part":"s41v1","offsets":[{"start":2526,"text":"Ross Island"}],"coordinates":[],"confidence":{"state":"pre-added","who":["ml:dpeker"],"prob":0.9349},"fields":{},"normalizations":{"n_34":{"source":{"name":"GeoNames","id":"130958","url":null},"recName":"Ross Island","confidence":{"state":"pre-added","who":["ml:dpeker"],"prob":0.9349}}}},{"classId":"e_4","part":"s41v1","offsets":[{"start":2699,"text":"Keble Valley"}],"coordinates":[],"confidence":{"state":"pre-added","who":["ml:dpeker"],"prob":0.9416},"fields":{},"normalizations":{"n_34":{"source":{"name":"GeoNames","id":"134157","url":null},"recName":"Keble Valley","confidence":{"state":"pre-added","who":["ml:dpeker"],"prob":0.9416}}}},{"classId":"e_4","part":"s41v1","offsets":[{"start":2713,"text":"Ross Island"}],"coordinates":[],"confidence":{"state":"pre-added","who":["ml:dpeker"],"prob":0.9349},"fields":{},"normalizations":{"n_34":{"source":{"name":"GeoNames","id":"130958","url":null},"recName":"Ross Island","confidence":{"state":"pre-added","who":["ml:dpeker"],"prob":0.9349}}}},{"classId":"e_39","part":"s42v1","offsets":[{"start":1278,"text":"Gomphiocephalus hodgsoni"}],"coordinates":[],"confidence":{"state":"pre-added","who":["ml:dpeker"],"prob":0.9754},"fields":{},"normalizations":{"n_44":{"source":{"name":"SpringtailNames","id":"Gohodg","url":null},"recName":"Gomphiocephalus hodgsoni","confidence":{"state":"pre-added","who":["ml:dpeker"],"prob":0.9754}}}},{"classId":"e_4","part":"s42v1","offsets":[{"start":1613,"text":"McMurdo Sound"}],"coordinates":[],"confidence":{"state":"pre-added","who":["ml:dpeker"],"prob":0.9472},"fields":{},"normalizations":{"n_34":{"source":{"name":"GeoNames","id":"128724","url":null},"recName":"McMurdo Sound","confidence":{"state":"pre-added","who":["ml:dpeker"],"prob":0.9472}}}},{"classId":"e_2","part":"s42v1","offsets":[{"start":2635,"text":"Scottnema lindsayae"}],"coordinates":[],"confidence":{"state":"pre-added","who":["ml:dpeker"],"prob":0.9671},"fields":{},"normalizations":{"n_33":{"source":{"name":"NematodeNames","id":"Sclind","url":null},"recName":"Scottnema lindsayae","confidence":{"state":"pre-added","who":["ml:dpeker"],"prob":0.9671}}}},{"classId":"e_4","part":"s43v1","offsets":[{"start":674,"text":"McMurdo Dry Valleys"}],"coordinates":[],"confidence":{"state":"pre-added","who":["ml:dpeker"],"prob":0.9671},"fields":{},"normalizations":{"n_34":{"source":{"name":"GeoNames","id":"113892","url":null},"recName":"McMurdo Dry Valleys","confidence":{"state":"pre-added","who":["ml:dpeker"],"prob":0.9671}}}},{"classId":"e_4","part":"s43v1","offsets":[{"start":768,"text":"McMurdo Dry Valleys"}],"coordinates":[],"confidence":{"state":"pre-added","who":["ml:dpeker"],"prob":0.9671},"fields":{},"normalizations":{"n_34":{"source":{"name":"GeoNames","id":"113892","url":null},"recName":"McMurdo Dry Valleys","confidence":{"state":"pre-added","who":["ml:dpeker"],"prob":0.9671}}}},{"classId":"e_2","part":"s43v1","offsets":[{"start":929,"text":"Panagrolaimus davidi"}],"coordinates":[],"confidence":{"state":"pre-added","who":["ml:dpeker"],"prob":0.9692},"fields":{},"normalizations":{"n_33":{"source":{"name":"NematodeNames","id":"Padavi","url":null},"recName":"Panagrolaimus davidi","confidence":{"state":"pre-added","who":["ml:dpeker"],"prob":0.9692}}}},{"classId":"e_2","part":"s43v1","offsets":[{"start":1284,"text":"Panagrolaimus davidi"}],"coordinates":[],"confidence":{"state":"pre-added","who":["ml:dpeker"],"prob":0.9692},"fields":{},"normalizations":{"n_33":{"source":{"name":"NematodeNames","id":"Padavi","url":null},"recName":"Panagrolaimus davidi","confidence":{"state":"pre-added","who":["ml:dpeker"],"prob":0.9692}}}},{"classId":"e_2","part":"s43v1","offsets":[{"start":1459,"text":"Panagrolaimus davidi"}],"coordinates":[],"confidence":{"state":"pre-added","who":["ml:dpeker"],"prob":0.9692},"fields":{},"normalizations":{"n_33":{"source":{"name":"NematodeNames","id":"Padavi","url":null},"recName":"Panagrolaimus davidi","confidence":{"state":"pre-added","who":["ml:dpeker"],"prob":0.9692}}}},{"classId":"e_4","part":"s43v1","offsets":[{"start":1748,"text":"McMurdo Sound"}],"coordinates":[],"confidence":{"state":"pre-added","who":["ml:dpeker"],"prob":0.9472},"fields":{},"normalizations":{"n_34":{"source":{"name":"GeoNames","id":"128724","url":null},"recName":"McMurdo Sound","confidence":{"state":"pre-added","who":["ml:dpeker"],"prob":0.9472}}}},{"classId":"e_4","part":"s43v1","offsets":[{"start":1915,"text":"McMurdo Sound"}],"coordinates":[],"confidence":{"state":"pre-added","who":["ml:dpeker"],"prob":0.9472},"fields":{},"normalizations":{"n_34":{"source":{"name":"GeoNames","id":"128724","url":null},"recName":"McMurdo Sound","confidence":{"state":"pre-added","who":["ml:dpeker"],"prob":0.9472}}}},{"classId":"e_4","part":"s43v1","offsets":[{"start":2540,"text":"Cape Hallett"}],"coordinates":[],"confidence":{"state":"pre-added","who":["ml:dpeker"],"prob":0.9416},"fields":{},"normalizations":{"n_34":{"source":{"name":"GeoNames","id":"126118","url":null},"recName":"Hallett, Cape","confidence":{"state":"pre-added","who":["ml:dpeker"],"prob":0.9416}}}}],"relations":[{"classId":"r_22","type":"linked","directed":false,"entities":["s16v1|e_2|1452,1463","s16v1|e_4|1439,1449"],"confidence":{"state":"pre-added","who":["user:charlesklee"],"prob":1}}]}