{"annotatable":{"parts":["s1v1","s2v1","s3v1","s4v1","s5v1","s6v1","s7v1"]},"anncomplete":true,"sources":[],"metas":{"m_14":{"value":false,"confidence":{"state":"pre-added","who":["user:ICTAR"],"prob":1}},"m_16":{"value":"Transantarctic Mountains","confidence":{"state":"pre-added","who":["user:ICTAR"],"prob":1}},"m_76":{"value":true,"confidence":{"state":"pre-added","who":["user:charlesklee"],"prob":1}}},"entities":[{"classId":"e_2","part":"s1v1","offsets":[{"start":100,"text":"Scottnema lindsayae"}],"coordinates":[],"confidence":{"state":"pre-added","who":["ml:dpeker"],"prob":0.9671},"fields":{},"normalizations":{"n_33":{"source":{"name":"NematodeNames","id":"Sclind","url":null},"recName":"Scottnema lindsayae","confidence":{"state":"pre-added","who":["ml:dpeker"],"prob":0.9671}}}},{"classId":"e_2","part":"s1v1","offsets":[{"start":431,"text":"Scottnema lindsayae"}],"coordinates":[],"confidence":{"state":"pre-added","who":["ml:dpeker"],"prob":0.9671},"fields":{},"normalizations":{"n_33":{"source":{"name":"NematodeNames","id":"Sclind","url":null},"recName":"Scottnema lindsayae","confidence":{"state":"pre-added","who":["ml:dpeker"],"prob":0.9671}}}},{"classId":"e_4","part":"s1v1","offsets":[{"start":524,"text":"Transantarctic Mountains"}],"coordinates":[],"confidence":{"state":"pre-added","who":["ml:dpeker"],"prob":0.9754},"fields":{},"normalizations":{"n_34":{"source":{"name":"GeoNames","id":"132843","url":null},"recName":"Transantarctic Mountains","confidence":{"state":"pre-added","who":["ml:dpeker"],"prob":0.9754}}}},{"classId":"e_2","part":"s1v1","offsets":[{"start":911,"text":"S. lind- sayae"}],"coordinates":[],"confidence":{"state":"pre-added","who":["ml:dpeker"],"prob":0.7634},"fields":{},"normalizations":{"n_33":{"source":{"name":"NematodeNames","id":"Sclind","url":null},"recName":"Scottnema lindsayae","confidence":{"state":"pre-added","who":["ml:dpeker"],"prob":0.7634}}}},{"classId":"e_4","part":"s1v1","offsets":[{"start":961,"text":"McMurdo Dry Valleys"}],"coordinates":[],"confidence":{"state":"pre-added","who":["ml:dpeker"],"prob":0.9671},"fields":{},"normalizations":{"n_34":{"source":{"name":"GeoNames","id":"113892","url":null},"recName":"McMurdo Dry Valleys","confidence":{"state":"pre-added","who":["ml:dpeker"],"prob":0.9671}}}},{"classId":"e_2","part":"s1v1","offsets":[{"start":1527,"text":"S. lindsayae"}],"coordinates":[],"confidence":{"state":"pre-added","who":["ml:dpeker"],"prob":0.9416},"fields":{},"normalizations":{"n_33":{"source":{"name":"NematodeNames","id":"Sclind","url":null},"recName":"Scottnema lindsayae","confidence":{"state":"pre-added","who":["ml:dpeker"],"prob":0.9416}}}},{"classId":"e_2","part":"s1v1","offsets":[{"start":1745,"text":"Scottnema lindsayae"}],"coordinates":[],"confidence":{"state":"pre-added","who":["ml:dpeker"],"prob":0.9671},"fields":{},"normalizations":{"n_33":{"source":{"name":"NematodeNames","id":"Sclind","url":null},"recName":"Scottnema lindsayae","confidence":{"state":"pre-added","who":["ml:dpeker"],"prob":0.9671}}}},{"classId":"e_4","part":"s1v1","offsets":[{"start":2063,"text":"La Croix Glacier"}],"coordinates":[],"confidence":{"state":"pre-added","who":["ml:dpeker"],"prob":0.8363},"fields":{},"normalizations":{"n_34":{"source":{"name":"GeoNames","id":"127696","url":null},"recName":"Lacroix Glacier","confidence":{"state":"pre-added","who":["ml:dpeker"],"prob":0.8363}}}},{"classId":"e_4","part":"s1v1","offsets":[{"start":2083,"text":"Taylor Valley"}],"coordinates":[],"confidence":{"state":"pre-added","who":["ml:dpeker"],"prob":0.9472},"fields":{},"normalizations":{"n_34":{"source":{"name":"GeoNames","id":"132512","url":null},"recName":"Taylor Valley","confidence":{"state":"pre-added","who":["ml:dpeker"],"prob":0.9472}}}},{"classId":"e_4","part":"s1v1","offsets":[{"start":2238,"text":"Cape Hallett"}],"coordinates":[],"confidence":{"state":"pre-added","who":["ml:dpeker"],"prob":0.9416},"fields":{},"normalizations":{"n_34":{"source":{"name":"GeoNames","id":"126118","url":null},"recName":"Hallett, Cape","confidence":{"state":"pre-added","who":["ml:dpeker"],"prob":0.9416}}}},{"classId":"e_2","part":"s2v1","offsets":[{"start":51,"text":"S. lindsayae"}],"coordinates":[],"confidence":{"state":"pre-added","who":["ml:dpeker"],"prob":0.9416},"fields":{},"normalizations":{"n_33":{"source":{"name":"NematodeNames","id":"Sclind","url":null},"recName":"Scottnema lindsayae","confidence":{"state":"pre-added","who":["ml:dpeker"],"prob":0.9416}}}},{"classId":"e_2","part":"s2v1","offsets":[{"start":155,"text":"S. lindsayae"}],"coordinates":[],"confidence":{"state":"pre-added","who":["ml:dpeker"],"prob":0.9416},"fields":{},"normalizations":{"n_33":{"source":{"name":"NematodeNames","id":"Sclind","url":null},"recName":"Scottnema lindsayae","confidence":{"state":"pre-added","who":["ml:dpeker"],"prob":0.9416}}}},{"classId":"e_4","part":"s2v1","offsets":[{"start":377,"text":"days"}],"coordinates":[],"confidence":{"state":"pre-added","who":["ml:dpeker"],"prob":0.4836},"fields":{},"normalizations":{"n_34":{"source":{"name":"GeoNames","id":"124046","url":null},"recName":"Dais","confidence":{"state":"pre-added","who":["ml:dpeker"],"prob":0.4836}}}},{"classId":"e_2","part":"s2v1","offsets":[{"start":845,"text":"S. lindsayae"}],"coordinates":[],"confidence":{"state":"pre-added","who":["ml:dpeker"],"prob":0.9416},"fields":{},"normalizations":{"n_33":{"source":{"name":"NematodeNames","id":"Sclind","url":null},"recName":"Scottnema lindsayae","confidence":{"state":"pre-added","who":["ml:dpeker"],"prob":0.9416}}}},{"classId":"e_2","part":"s2v1","offsets":[{"start":977,"text":"S. lindsayae"}],"coordinates":[],"confidence":{"state":"pre-added","who":["ml:dpeker"],"prob":0.9416},"fields":{},"normalizations":{"n_33":{"source":{"name":"NematodeNames","id":"Sclind","url":null},"recName":"Scottnema lindsayae","confidence":{"state":"pre-added","who":["ml:dpeker"],"prob":0.9416}}}},{"classId":"e_4","part":"s2v1","offsets":[{"start":1024,"text":"McMurdo Dry Val- leys"}],"coordinates":[],"confidence":{"state":"pre-added","who":["ml:dpeker"],"prob":0.8451},"fields":{},"normalizations":{"n_34":{"source":{"name":"GeoNames","id":"113892","url":null},"recName":"McMurdo Dry Valleys","confidence":{"state":"pre-added","who":["ml:dpeker"],"prob":0.8451}}}},{"classId":"e_2","part":"s2v1","offsets":[{"start":1295,"text":"Scottnema lindsayae"}],"coordinates":[],"confidence":{"state":"pre-added","who":["ml:dpeker"],"prob":0.9671},"fields":{},"normalizations":{"n_33":{"source":{"name":"NematodeNames","id":"Sclind","url":null},"recName":"Scottnema lindsayae","confidence":{"state":"pre-added","who":["ml:dpeker"],"prob":0.9671}}}},{"classId":"e_4","part":"s2v1","offsets":[{"start":1389,"text":"the land"}],"coordinates":[],"confidence":{"state":"pre-added","who":["ml:dpeker"],"prob":0.5747},"fields":{},"normalizations":{"n_34":{"source":{"name":"GeoNames","id":"127761","url":null},"recName":"Landing, The","confidence":{"state":"pre-added","who":["ml:dpeker"],"prob":0.5747}}}},{"classId":"e_4","part":"s2v1","offsets":[{"start":1726,"text":"Taylor Valley"}],"coordinates":[],"confidence":{"state":"pre-added","who":["ml:dpeker"],"prob":0.9472},"fields":{},"normalizations":{"n_34":{"source":{"name":"GeoNames","id":"132512","url":null},"recName":"Taylor Valley","confidence":{"state":"pre-added","who":["ml:dpeker"],"prob":0.9472}}}},{"classId":"e_4","part":"s2v1","offsets":[{"start":2206,"text":"Shackleton Glaciers"}],"coordinates":[],"confidence":{"state":"pre-added","who":["ml:dpeker"],"prob":0.914},"fields":{},"normalizations":{"n_34":{"source":{"name":"GeoNames","id":"131453","url":null},"recName":"Shackleton Glacier","confidence":{"state":"pre-added","who":["ml:dpeker"],"prob":0.914}}}},{"classId":"e_4","part":"s2v1","offsets":[{"start":2600,"text":"Beardmore Glacier"}],"coordinates":[],"confidence":{"state":"pre-added","who":["ml:dpeker"],"prob":0.9622},"fields":{},"normalizations":{"n_34":{"source":{"name":"GeoNames","id":"122318","url":null},"recName":"Beardmore Glacier","confidence":{"state":"pre-added","who":["ml:dpeker"],"prob":0.9622}}}},{"classId":"e_2","part":"s2v1","offsets":[{"start":3001,"text":"Scott- nema lindsayae"}],"coordinates":[],"confidence":{"state":"pre-added","who":["ml:dpeker"],"prob":0.8451},"fields":{},"normalizations":{"n_33":{"source":{"name":"NematodeNames","id":"Sclind","url":null},"recName":"Scottnema lindsayae","confidence":{"state":"pre-added","who":["ml:dpeker"],"prob":0.8451}}}},{"classId":"e_2","part":"s3v1","offsets":[{"start":364,"text":"S. lindsayae"}],"coordinates":[],"confidence":{"state":"pre-added","who":["ml:dpeker"],"prob":0.9416},"fields":{},"normalizations":{"n_33":{"source":{"name":"NematodeNames","id":"Sclind","url":null},"recName":"Scottnema lindsayae","confidence":{"state":"pre-added","who":["ml:dpeker"],"prob":0.9416}}}},{"classId":"e_4","part":"s3v1","offsets":[{"start":666,"text":"Taylor Valley"}],"coordinates":[],"confidence":{"state":"pre-added","who":["ml:dpeker"],"prob":0.9472},"fields":{},"normalizations":{"n_34":{"source":{"name":"GeoNames","id":"132512","url":null},"recName":"Taylor Valley","confidence":{"state":"pre-added","who":["ml:dpeker"],"prob":0.9472}}}},{"classId":"e_4","part":"s3v1","offsets":[{"start":987,"text":"Beardmore Glacier"}],"coordinates":[],"confidence":{"state":"pre-added","who":["ml:dpeker"],"prob":0.9622},"fields":{},"normalizations":{"n_34":{"source":{"name":"GeoNames","id":"122318","url":null},"recName":"Beardmore Glacier","confidence":{"state":"pre-added","who":["ml:dpeker"],"prob":0.9622}}}},{"classId":"e_2","part":"s3v1","offsets":[{"start":1125,"text":"S. lindsayae"}],"coordinates":[],"confidence":{"state":"pre-added","who":["ml:dpeker"],"prob":0.9416},"fields":{},"normalizations":{"n_33":{"source":{"name":"NematodeNames","id":"Sclind","url":null},"recName":"Scottnema lindsayae","confidence":{"state":"pre-added","who":["ml:dpeker"],"prob":0.9416}}}},{"classId":"e_2","part":"s3v1","offsets":[{"start":2198,"text":"S. lind- sayae"}],"coordinates":[],"confidence":{"state":"pre-added","who":["ml:dpeker"],"prob":0.7634},"fields":{},"normalizations":{"n_33":{"source":{"name":"NematodeNames","id":"Sclind","url":null},"recName":"Scottnema lindsayae","confidence":{"state":"pre-added","who":["ml:dpeker"],"prob":0.7634}}}},{"classId":"e_2","part":"s3v1","offsets":[{"start":2554,"text":"S. lindsayae"}],"coordinates":[],"confidence":{"state":"pre-added","who":["ml:dpeker"],"prob":0.9416},"fields":{},"normalizations":{"n_33":{"source":{"name":"NematodeNames","id":"Sclind","url":null},"recName":"Scottnema lindsayae","confidence":{"state":"pre-added","who":["ml:dpeker"],"prob":0.9416}}}},{"classId":"e_2","part":"s3v1","offsets":[{"start":2770,"text":"S. lindsayae"}],"coordinates":[],"confidence":{"state":"pre-added","who":["ml:dpeker"],"prob":0.9416},"fields":{},"normalizations":{"n_33":{"source":{"name":"NematodeNames","id":"Sclind","url":null},"recName":"Scottnema lindsayae","confidence":{"state":"pre-added","who":["ml:dpeker"],"prob":0.9416}}}},{"classId":"e_4","part":"s3v1","offsets":[{"start":3009,"text":"Mt. Harcourt"}],"coordinates":[{"x":"463.52","y":"148.12"},{"x":"521.82","y":"153.97"}],"confidence":{"state":"pre-added","who":["user:ICTAR"],"prob":1},"fields":{},"normalizations":{"n_52":{"source":{"name":"GeoNamesCustom","id":"CKL007","url":null},"recName":"","confidence":{"state":"pre-added","who":["user:charlesklee"],"prob":1}}}},{"classId":"e_4","part":"s3v1","offsets":[{"start":3043,"text":"Beardmore Glacier"}],"coordinates":[],"confidence":{"state":"pre-added","who":["ml:dpeker"],"prob":0.9622},"fields":{},"normalizations":{"n_34":{"source":{"name":"GeoNames","id":"122318","url":null},"recName":"Beardmore Glacier","confidence":{"state":"pre-added","who":["ml:dpeker"],"prob":0.9622}}}},{"classId":"e_5","part":"s3v1","offsets":[{"start":3172,"text":"S83°48.21 , E172°15.39,"}],"coordinates":[{"x":"496.41","y":"185.56"},{"x":"357.46","y":"204.01"}],"confidence":{"state":"pre-added","who":["user:ICTAR"],"prob":1},"fields":{},"normalizations":{}},{"classId":"e_4","part":"s4v1","offsets":[{"start":556,"text":"Beardmore glacier"}],"coordinates":[],"confidence":{"state":"pre-added","who":["ml:dpeker"],"prob":0.9339},"fields":{},"normalizations":{"n_34":{"source":{"name":"GeoNames","id":"122318","url":null},"recName":"Beardmore Glacier","confidence":{"state":"pre-added","who":["ml:dpeker"],"prob":0.9339}}}},{"classId":"e_2","part":"s4v1","offsets":[{"start":622,"text":"S. lindsayae"}],"coordinates":[],"confidence":{"state":"pre-added","who":["ml:dpeker"],"prob":0.9416},"fields":{},"normalizations":{"n_33":{"source":{"name":"NematodeNames","id":"Sclind","url":null},"recName":"Scottnema lindsayae","confidence":{"state":"pre-added","who":["ml:dpeker"],"prob":0.9416}}}},{"classId":"e_4","part":"s4v1","offsets":[{"start":738,"text":"McMurdo Dry Valleys"}],"coordinates":[],"confidence":{"state":"pre-added","who":["ml:dpeker"],"prob":0.9671},"fields":{},"normalizations":{"n_34":{"source":{"name":"GeoNames","id":"113892","url":null},"recName":"McMurdo Dry Valleys","confidence":{"state":"pre-added","who":["ml:dpeker"],"prob":0.9671}}}},{"classId":"e_4","part":"s4v1","offsets":[{"start":786,"text":"Lake Fryxell"}],"coordinates":[],"confidence":{"state":"pre-added","who":["ml:dpeker"],"prob":0.9416},"fields":{},"normalizations":{"n_34":{"source":{"name":"GeoNames","id":"125440","url":null},"recName":"Fryxell, Lake","confidence":{"state":"pre-added","who":["ml:dpeker"],"prob":0.9416}}}},{"classId":"e_4","part":"s4v1","offsets":[{"start":827,"text":"Garwood Valley"}],"coordinates":[],"confidence":{"state":"pre-added","who":["ml:dpeker"],"prob":0.9518},"fields":{},"normalizations":{"n_34":{"source":{"name":"GeoNames","id":"125553","url":null},"recName":"Garwood Valley","confidence":{"state":"pre-added","who":["ml:dpeker"],"prob":0.9518}}}},{"classId":"e_4","part":"s4v1","offsets":[{"start":858,"text":"Taylor Valley"}],"coordinates":[],"confidence":{"state":"pre-added","who":["ml:dpeker"],"prob":0.9472},"fields":{},"normalizations":{"n_34":{"source":{"name":"GeoNames","id":"132512","url":null},"recName":"Taylor Valley","confidence":{"state":"pre-added","who":["ml:dpeker"],"prob":0.9472}}}},{"classId":"e_4","part":"s4v1","offsets":[{"start":938,"text":"Lake Hoare"}],"coordinates":[],"confidence":{"state":"pre-added","who":["ml:dpeker"],"prob":0.9266},"fields":{},"normalizations":{"n_34":{"source":{"name":"GeoNames","id":"126559","url":null},"recName":"Hoare, Lake","confidence":{"state":"pre-added","who":["ml:dpeker"],"prob":0.9266}}}},{"classId":"e_2","part":"s4v1","offsets":[{"start":991,"text":"S. lindsayae"}],"coordinates":[],"confidence":{"state":"pre-added","who":["ml:dpeker"],"prob":0.9416},"fields":{},"normalizations":{"n_33":{"source":{"name":"NematodeNames","id":"Sclind","url":null},"recName":"Scottnema lindsayae","confidence":{"state":"pre-added","who":["ml:dpeker"],"prob":0.9416}}}},{"classId":"e_2","part":"s4v1","offsets":[{"start":1351,"text":"S. lindsayae"}],"coordinates":[],"confidence":{"state":"pre-added","who":["ml:dpeker"],"prob":0.9416},"fields":{},"normalizations":{"n_33":{"source":{"name":"NematodeNames","id":"Sclind","url":null},"recName":"Scottnema lindsayae","confidence":{"state":"pre-added","who":["ml:dpeker"],"prob":0.9416}}}},{"classId":"e_2","part":"s4v1","offsets":[{"start":2093,"text":"S. lindsayae"}],"coordinates":[],"confidence":{"state":"pre-added","who":["ml:dpeker"],"prob":0.9416},"fields":{},"normalizations":{"n_33":{"source":{"name":"NematodeNames","id":"Sclind","url":null},"recName":"Scottnema lindsayae","confidence":{"state":"pre-added","who":["ml:dpeker"],"prob":0.9416}}}},{"classId":"e_4","part":"s4v1","offsets":[{"start":2215,"text":"McMurdo Dry Valleys"}],"coordinates":[],"confidence":{"state":"pre-added","who":["ml:dpeker"],"prob":0.9671},"fields":{},"normalizations":{"n_34":{"source":{"name":"GeoNames","id":"113892","url":null},"recName":"McMurdo Dry Valleys","confidence":{"state":"pre-added","who":["ml:dpeker"],"prob":0.9671}}}},{"classId":"e_2","part":"s4v1","offsets":[{"start":2384,"text":"S. lindsayae"}],"coordinates":[],"confidence":{"state":"pre-added","who":["ml:dpeker"],"prob":0.9416},"fields":{},"normalizations":{"n_33":{"source":{"name":"NematodeNames","id":"Sclind","url":null},"recName":"Scottnema lindsayae","confidence":{"state":"pre-added","who":["ml:dpeker"],"prob":0.9416}}}},{"classId":"e_2","part":"s4v1","offsets":[{"start":3319,"text":"S. lindsayae"}],"coordinates":[],"confidence":{"state":"pre-added","who":["ml:dpeker"],"prob":0.9416},"fields":{},"normalizations":{"n_33":{"source":{"name":"NematodeNames","id":"Sclind","url":null},"recName":"Scottnema lindsayae","confidence":{"state":"pre-added","who":["ml:dpeker"],"prob":0.9416}}}},{"classId":"e_4","part":"s4v1","offsets":[{"start":3458,"text":"McMurdo Dry Valley"}],"coordinates":[],"confidence":{"state":"pre-added","who":["ml:dpeker"],"prob":0.914},"fields":{},"normalizations":{"n_34":{"source":{"name":"GeoNames","id":"113892","url":null},"recName":"McMurdo Dry Valleys","confidence":{"state":"pre-added","who":["ml:dpeker"],"prob":0.914}}}},{"classId":"e_2","part":"s4v1","offsets":[{"start":3806,"text":"Scottnema lindsayae"}],"coordinates":[],"confidence":{"state":"pre-added","who":["ml:dpeker"],"prob":0.9671},"fields":{},"normalizations":{"n_33":{"source":{"name":"NematodeNames","id":"Sclind","url":null},"recName":"Scottnema lindsayae","confidence":{"state":"pre-added","who":["ml:dpeker"],"prob":0.9671}}}},{"classId":"e_4","part":"s4v1","offsets":[{"start":3889,"text":"Beardmore Glacier"}],"coordinates":[],"confidence":{"state":"pre-added","who":["ml:dpeker"],"prob":0.9622},"fields":{},"normalizations":{"n_34":{"source":{"name":"GeoNames","id":"122318","url":null},"recName":"Beardmore Glacier","confidence":{"state":"pre-added","who":["ml:dpeker"],"prob":0.9622}}}},{"classId":"e_5","part":"s4v1","offsets":[{"start":3915,"text":"83° 48.210\n\n172° 15.390"}],"coordinates":[{"x":"430.68","y":"595.56"},{"x":"540.24","y":"600.49"}],"confidence":{"state":"pre-added","who":["user:ICTAR"],"prob":1},"fields":{},"normalizations":{}},{"classId":"e_4","part":"s4v1","offsets":[{"start":3963,"text":"Wright Valley"}],"coordinates":[],"confidence":{"state":"pre-added","who":["ml:dpeker"],"prob":0.9472},"fields":{},"normalizations":{"n_34":{"source":{"name":"GeoNames","id":"133876","url":null},"recName":"Wright Valley","confidence":{"state":"pre-added","who":["ml:dpeker"],"prob":0.9472}}}},{"classId":"e_5","part":"s4v1","offsets":[{"start":4003,"text":"77° 26.185\n\n162° 42.301"}],"coordinates":[{"x":"430.68","y":"605.52"},{"x":"540.24","y":"610.45"}],"confidence":{"state":"pre-added","who":["user:ICTAR"],"prob":1},"fields":{},"normalizations":{}},{"classId":"e_4","part":"s4v1","offsets":[{"start":4042,"text":"Garwood Valley"}],"coordinates":[],"confidence":{"state":"pre-added","who":["ml:dpeker"],"prob":0.9518},"fields":{},"normalizations":{"n_34":{"source":{"name":"GeoNames","id":"125553","url":null},"recName":"Garwood Valley","confidence":{"state":"pre-added","who":["ml:dpeker"],"prob":0.9518}}}},{"classId":"e_5","part":"s4v1","offsets":[{"start":4071,"text":"78° 01.489\n\n163° 52.381"}],"coordinates":[{"x":"430.66","y":"625.56"},{"x":"540.24","y":"630.49"}],"confidence":{"state":"pre-added","who":["user:ICTAR"],"prob":1},"fields":{},"normalizations":{}},{"classId":"e_4","part":"s4v1","offsets":[{"start":4095,"text":"Lake Hoare"}],"coordinates":[],"confidence":{"state":"pre-added","who":["ml:dpeker"],"prob":0.9266},"fields":{},"normalizations":{"n_34":{"source":{"name":"GeoNames","id":"126559","url":null},"recName":"Hoare, Lake","confidence":{"state":"pre-added","who":["ml:dpeker"],"prob":0.9266}}}},{"classId":"e_4","part":"s4v1","offsets":[{"start":4107,"text":"Taylor Valley"}],"coordinates":[],"confidence":{"state":"pre-added","who":["ml:dpeker"],"prob":0.9472},"fields":{},"normalizations":{"n_34":{"source":{"name":"GeoNames","id":"132512","url":null},"recName":"Taylor Valley","confidence":{"state":"pre-added","who":["ml:dpeker"],"prob":0.9472}}}},{"classId":"e_5","part":"s4v1","offsets":[{"start":4142,"text":"77° 37.932\n\n162° 52.646"}],"coordinates":[{"x":"430.68","y":"635.52"},{"x":"540.24","y":"640.45"}],"confidence":{"state":"pre-added","who":["user:ICTAR"],"prob":1},"fields":{},"normalizations":{}},{"classId":"e_4","part":"s4v1","offsets":[{"start":4166,"text":"Lake Fryxell"}],"coordinates":[],"confidence":{"state":"pre-added","who":["ml:dpeker"],"prob":0.9416},"fields":{},"normalizations":{"n_34":{"source":{"name":"GeoNames","id":"125440","url":null},"recName":"Fryxell, Lake","confidence":{"state":"pre-added","who":["ml:dpeker"],"prob":0.9416}}}},{"classId":"e_4","part":"s4v1","offsets":[{"start":4180,"text":"Taylor Valley"}],"coordinates":[],"confidence":{"state":"pre-added","who":["ml:dpeker"],"prob":0.9472},"fields":{},"normalizations":{"n_34":{"source":{"name":"GeoNames","id":"132512","url":null},"recName":"Taylor Valley","confidence":{"state":"pre-added","who":["ml:dpeker"],"prob":0.9472}}}},{"classId":"e_5","part":"s4v1","offsets":[{"start":4205,"text":"77° 36.476\n\n163° 15.077"}],"coordinates":[{"x":"430.64","y":"645.48"},{"x":"540.24","y":"650.41"}],"confidence":{"state":"pre-added","who":["user:ICTAR"],"prob":1},"fields":{},"normalizations":{}},{"classId":"e_4","part":"s4v1","offsets":[{"start":4229,"text":"Lake Hoare"}],"coordinates":[],"confidence":{"state":"pre-added","who":["ml:dpeker"],"prob":0.9266},"fields":{},"normalizations":{"n_34":{"source":{"name":"GeoNames","id":"126559","url":null},"recName":"Hoare, Lake","confidence":{"state":"pre-added","who":["ml:dpeker"],"prob":0.9266}}}},{"classId":"e_4","part":"s4v1","offsets":[{"start":4241,"text":"Taylor Valley"}],"coordinates":[],"confidence":{"state":"pre-added","who":["ml:dpeker"],"prob":0.9472},"fields":{},"normalizations":{"n_34":{"source":{"name":"GeoNames","id":"132512","url":null},"recName":"Taylor Valley","confidence":{"state":"pre-added","who":["ml:dpeker"],"prob":0.9472}}}},{"classId":"e_5","part":"s4v1","offsets":[{"start":4276,"text":"77° 37.940\n\n162° 53.051"}],"coordinates":[{"x":"430.64","y":"655.56"},{"x":"540.24","y":"660.49"}],"confidence":{"state":"pre-added","who":["user:ICTAR"],"prob":1},"fields":{},"normalizations":{}},{"classId":"e_4","part":"s4v1","offsets":[{"start":4300,"text":"Lake Hoare"}],"coordinates":[],"confidence":{"state":"pre-added","who":["ml:dpeker"],"prob":0.9266},"fields":{},"normalizations":{"n_34":{"source":{"name":"GeoNames","id":"126559","url":null},"recName":"Hoare, Lake","confidence":{"state":"pre-added","who":["ml:dpeker"],"prob":0.9266}}}},{"classId":"e_4","part":"s4v1","offsets":[{"start":4312,"text":"Taylor Valley"}],"coordinates":[],"confidence":{"state":"pre-added","who":["ml:dpeker"],"prob":0.9472},"fields":{},"normalizations":{"n_34":{"source":{"name":"GeoNames","id":"132512","url":null},"recName":"Taylor Valley","confidence":{"state":"pre-added","who":["ml:dpeker"],"prob":0.9472}}}},{"classId":"e_5","part":"s4v1","offsets":[{"start":4347,"text":"77° 37.940\n\n162° 53.051"}],"coordinates":[{"x":"430.64","y":"665.52"},{"x":"540.24","y":"670.45"}],"confidence":{"state":"pre-added","who":["user:ICTAR"],"prob":1},"fields":{},"normalizations":{}},{"classId":"e_4","part":"s4v1","offsets":[{"start":4371,"text":"Lake Fryxell"}],"coordinates":[],"confidence":{"state":"pre-added","who":["ml:dpeker"],"prob":0.9416},"fields":{},"normalizations":{"n_34":{"source":{"name":"GeoNames","id":"125440","url":null},"recName":"Fryxell, Lake","confidence":{"state":"pre-added","who":["ml:dpeker"],"prob":0.9416}}}},{"classId":"e_4","part":"s4v1","offsets":[{"start":4385,"text":"Taylor Valley"}],"coordinates":[],"confidence":{"state":"pre-added","who":["ml:dpeker"],"prob":0.9472},"fields":{},"normalizations":{"n_34":{"source":{"name":"GeoNames","id":"132512","url":null},"recName":"Taylor Valley","confidence":{"state":"pre-added","who":["ml:dpeker"],"prob":0.9472}}}},{"classId":"e_5","part":"s4v1","offsets":[{"start":4411,"text":"77° 36.483\n\n163° 14.891"}],"coordinates":[{"x":"430.64","y":"675.48"},{"x":"540.24","y":"680.41"}],"confidence":{"state":"pre-added","who":["user:ICTAR"],"prob":1},"fields":{},"normalizations":{}},{"classId":"e_4","part":"s4v1","offsets":[{"start":4435,"text":"Lake Hoare"}],"coordinates":[],"confidence":{"state":"pre-added","who":["ml:dpeker"],"prob":0.9266},"fields":{},"normalizations":{"n_34":{"source":{"name":"GeoNames","id":"126559","url":null},"recName":"Hoare, Lake","confidence":{"state":"pre-added","who":["ml:dpeker"],"prob":0.9266}}}},{"classId":"e_4","part":"s4v1","offsets":[{"start":4447,"text":"Taylor Valley"}],"coordinates":[],"confidence":{"state":"pre-added","who":["ml:dpeker"],"prob":0.9472},"fields":{},"normalizations":{"n_34":{"source":{"name":"GeoNames","id":"132512","url":null},"recName":"Taylor Valley","confidence":{"state":"pre-added","who":["ml:dpeker"],"prob":0.9472}}}},{"classId":"e_5","part":"s4v1","offsets":[{"start":4482,"text":"77° 37.932\n\n162° 52.646"}],"coordinates":[{"x":"430.68","y":"685.56"},{"x":"540.24","y":"690.49"}],"confidence":{"state":"pre-added","who":["user:ICTAR"],"prob":1},"fields":{},"normalizations":{}},{"classId":"e_4","part":"s4v1","offsets":[{"start":4519,"text":"Taylor Valley"}],"coordinates":[],"confidence":{"state":"pre-added","who":["ml:dpeker"],"prob":0.9472},"fields":{},"normalizations":{"n_34":{"source":{"name":"GeoNames","id":"132512","url":null},"recName":"Taylor Valley","confidence":{"state":"pre-added","who":["ml:dpeker"],"prob":0.9472}}}},{"classId":"e_5","part":"s4v1","offsets":[{"start":4546,"text":"77° 34.303\n\n163° 09.660"}],"coordinates":[{"x":"430.65","y":"695.52"},{"x":"540.24","y":"700.45"}],"confidence":{"state":"pre-added","who":["user:ICTAR"],"prob":1},"fields":{},"normalizations":{}},{"classId":"e_4","part":"s4v1","offsets":[{"start":4584,"text":"Garwood Valley"}],"coordinates":[],"confidence":{"state":"pre-added","who":["ml:dpeker"],"prob":0.9518},"fields":{},"normalizations":{"n_34":{"source":{"name":"GeoNames","id":"125553","url":null},"recName":"Garwood Valley","confidence":{"state":"pre-added","who":["ml:dpeker"],"prob":0.9518}}}},{"classId":"e_5","part":"s4v1","offsets":[{"start":4613,"text":"78° 01.505\n\n163° 52.424"}],"coordinates":[{"x":"430.66","y":"705.48"},{"x":"540.24","y":"710.41"}],"confidence":{"state":"pre-added","who":["user:ICTAR"],"prob":1},"fields":{},"normalizations":{}},{"classId":"e_4","part":"s5v1","offsets":[{"start":117,"text":"McMurdo Dry Valleys"}],"coordinates":[],"confidence":{"state":"pre-added","who":["ml:dpeker"],"prob":0.9671},"fields":{},"normalizations":{"n_34":{"source":{"name":"GeoNames","id":"113892","url":null},"recName":"McMurdo Dry Valleys","confidence":{"state":"pre-added","who":["ml:dpeker"],"prob":0.9671}}}},{"classId":"e_4","part":"s5v1","offsets":[{"start":144,"text":"Beardmore Glacier"}],"coordinates":[],"confidence":{"state":"pre-added","who":["ml:dpeker"],"prob":0.9622},"fields":{},"normalizations":{"n_34":{"source":{"name":"GeoNames","id":"122318","url":null},"recName":"Beardmore Glacier","confidence":{"state":"pre-added","who":["ml:dpeker"],"prob":0.9622}}}},{"classId":"e_39","part":"s5v1","offsets":[{"start":224,"text":"Gomphiocephalus hodgsoni"}],"coordinates":[],"confidence":{"state":"pre-added","who":["ml:dpeker"],"prob":0.9754},"fields":{},"normalizations":{"n_44":{"source":{"name":"SpringtailNames","id":"Gohodg","url":null},"recName":"Gomphiocephalus hodgsoni","confidence":{"state":"pre-added","who":["ml:dpeker"],"prob":0.9754}}}},{"classId":"e_4","part":"s5v1","offsets":[{"start":260,"text":"McMurdo Sound"}],"coordinates":[],"confidence":{"state":"pre-added","who":["ml:dpeker"],"prob":0.9472},"fields":{},"normalizations":{"n_34":{"source":{"name":"GeoNames","id":"128724","url":null},"recName":"McMurdo Sound","confidence":{"state":"pre-added","who":["ml:dpeker"],"prob":0.9472}}}},{"classId":"e_4","part":"s5v1","offsets":[{"start":298,"text":"Beardmore Glacier"}],"coordinates":[],"confidence":{"state":"pre-added","who":["ml:dpeker"],"prob":0.9622},"fields":{},"normalizations":{"n_34":{"source":{"name":"GeoNames","id":"122318","url":null},"recName":"Beardmore Glacier","confidence":{"state":"pre-added","who":["ml:dpeker"],"prob":0.9622}}}},{"classId":"e_2","part":"s5v1","offsets":[{"start":519,"text":"S. lindsayae"}],"coordinates":[],"confidence":{"state":"pre-added","who":["ml:dpeker"],"prob":0.9416},"fields":{},"normalizations":{"n_33":{"source":{"name":"NematodeNames","id":"Sclind","url":null},"recName":"Scottnema lindsayae","confidence":{"state":"pre-added","who":["ml:dpeker"],"prob":0.9416}}}},{"classId":"e_4","part":"s5v1","offsets":[{"start":539,"text":"McMurdo Dry Valleys"}],"coordinates":[],"confidence":{"state":"pre-added","who":["ml:dpeker"],"prob":0.9671},"fields":{},"normalizations":{"n_34":{"source":{"name":"GeoNames","id":"113892","url":null},"recName":"McMurdo Dry Valleys","confidence":{"state":"pre-added","who":["ml:dpeker"],"prob":0.9671}}}},{"classId":"e_2","part":"s5v1","offsets":[{"start":642,"text":"S. lindsayae"}],"coordinates":[],"confidence":{"state":"pre-added","who":["ml:dpeker"],"prob":0.9416},"fields":{},"normalizations":{"n_33":{"source":{"name":"NematodeNames","id":"Sclind","url":null},"recName":"Scottnema lindsayae","confidence":{"state":"pre-added","who":["ml:dpeker"],"prob":0.9416}}}},{"classId":"e_4","part":"s5v1","offsets":[{"start":728,"text":"McMurdo Sound"}],"coordinates":[],"confidence":{"state":"pre-added","who":["ml:dpeker"],"prob":0.9472},"fields":{},"normalizations":{"n_34":{"source":{"name":"GeoNames","id":"128724","url":null},"recName":"McMurdo Sound","confidence":{"state":"pre-added","who":["ml:dpeker"],"prob":0.9472}}}},{"classId":"e_2","part":"s5v1","offsets":[{"start":824,"text":"S. lindsayae"}],"coordinates":[],"confidence":{"state":"pre-added","who":["ml:dpeker"],"prob":0.9416},"fields":{},"normalizations":{"n_33":{"source":{"name":"NematodeNames","id":"Sclind","url":null},"recName":"Scottnema lindsayae","confidence":{"state":"pre-added","who":["ml:dpeker"],"prob":0.9416}}}},{"classId":"e_2","part":"s5v1","offsets":[{"start":1358,"text":"S. lindsayae"}],"coordinates":[],"confidence":{"state":"pre-added","who":["ml:dpeker"],"prob":0.9416},"fields":{},"normalizations":{"n_33":{"source":{"name":"NematodeNames","id":"Sclind","url":null},"recName":"Scottnema lindsayae","confidence":{"state":"pre-added","who":["ml:dpeker"],"prob":0.9416}}}},{"classId":"e_2","part":"s5v1","offsets":[{"start":1821,"text":"S. lindsayae"}],"coordinates":[],"confidence":{"state":"pre-added","who":["ml:dpeker"],"prob":0.9416},"fields":{},"normalizations":{"n_33":{"source":{"name":"NematodeNames","id":"Sclind","url":null},"recName":"Scottnema lindsayae","confidence":{"state":"pre-added","who":["ml:dpeker"],"prob":0.9416}}}},{"classId":"e_2","part":"s5v1","offsets":[{"start":2407,"text":"S. lindsayae"}],"coordinates":[],"confidence":{"state":"pre-added","who":["ml:dpeker"],"prob":0.9416},"fields":{},"normalizations":{"n_33":{"source":{"name":"NematodeNames","id":"Sclind","url":null},"recName":"Scottnema lindsayae","confidence":{"state":"pre-added","who":["ml:dpeker"],"prob":0.9416}}}},{"classId":"e_2","part":"s5v1","offsets":[{"start":2830,"text":"S. lindsayae"}],"coordinates":[],"confidence":{"state":"pre-added","who":["ml:dpeker"],"prob":0.9416},"fields":{},"normalizations":{"n_33":{"source":{"name":"NematodeNames","id":"Sclind","url":null},"recName":"Scottnema lindsayae","confidence":{"state":"pre-added","who":["ml:dpeker"],"prob":0.9416}}}},{"classId":"e_2","part":"s5v1","offsets":[{"start":3074,"text":"S. lindsayae"}],"coordinates":[],"confidence":{"state":"pre-added","who":["ml:dpeker"],"prob":0.9416},"fields":{},"normalizations":{"n_33":{"source":{"name":"NematodeNames","id":"Sclind","url":null},"recName":"Scottnema lindsayae","confidence":{"state":"pre-added","who":["ml:dpeker"],"prob":0.9416}}}},{"classId":"e_2","part":"s5v1","offsets":[{"start":3463,"text":"S. lindsayae"}],"coordinates":[],"confidence":{"state":"pre-added","who":["ml:dpeker"],"prob":0.9416},"fields":{},"normalizations":{"n_33":{"source":{"name":"NematodeNames","id":"Sclind","url":null},"recName":"Scottnema lindsayae","confidence":{"state":"pre-added","who":["ml:dpeker"],"prob":0.9416}}}},{"classId":"e_2","part":"s5v1","offsets":[{"start":3585,"text":"S. lindsayae"}],"coordinates":[],"confidence":{"state":"pre-added","who":["ml:dpeker"],"prob":0.9416},"fields":{},"normalizations":{"n_33":{"source":{"name":"NematodeNames","id":"Sclind","url":null},"recName":"Scottnema lindsayae","confidence":{"state":"pre-added","who":["ml:dpeker"],"prob":0.9416}}}},{"classId":"e_4","part":"s5v1","offsets":[{"start":4254,"text":"McMurdo Station"}],"coordinates":[],"confidence":{"state":"pre-added","who":["ml:dpeker"],"prob":0.9558},"fields":{},"normalizations":{"n_34":{"source":{"name":"GeoNames","id":"128725","url":null},"recName":"McMurdo Station","confidence":{"state":"pre-added","who":["ml:dpeker"],"prob":0.9558}}}},{"classId":"e_4","part":"s6v1","offsets":[{"start":331,"text":"Taylor Valley"}],"coordinates":[],"confidence":{"state":"pre-added","who":["ml:dpeker"],"prob":0.9472},"fields":{},"normalizations":{"n_34":{"source":{"name":"GeoNames","id":"132512","url":null},"recName":"Taylor Valley","confidence":{"state":"pre-added","who":["ml:dpeker"],"prob":0.9472}}}},{"classId":"e_4","part":"s6v1","offsets":[{"start":863,"text":"Lake Hoare"}],"coordinates":[],"confidence":{"state":"pre-added","who":["ml:dpeker"],"prob":0.9266},"fields":{},"normalizations":{"n_34":{"source":{"name":"GeoNames","id":"126559","url":null},"recName":"Hoare, Lake","confidence":{"state":"pre-added","who":["ml:dpeker"],"prob":0.9266}}}},{"classId":"e_2","part":"s6v1","offsets":[{"start":1055,"text":"Scottnema lindsayae"}],"coordinates":[],"confidence":{"state":"pre-added","who":["ml:dpeker"],"prob":0.9671},"fields":{},"normalizations":{"n_33":{"source":{"name":"NematodeNames","id":"Sclind","url":null},"recName":"Scottnema lindsayae","confidence":{"state":"pre-added","who":["ml:dpeker"],"prob":0.9671}}}},{"classId":"e_4","part":"s6v1","offsets":[{"start":1230,"text":"McMurdo Dry Valleys"}],"coordinates":[],"confidence":{"state":"pre-added","who":["ml:dpeker"],"prob":0.9671},"fields":{},"normalizations":{"n_34":{"source":{"name":"GeoNames","id":"113892","url":null},"recName":"McMurdo Dry Valleys","confidence":{"state":"pre-added","who":["ml:dpeker"],"prob":0.9671}}}},{"classId":"e_4","part":"s6v1","offsets":[{"start":1697,"text":"McMurdo dry valleys"}],"coordinates":[],"confidence":{"state":"pre-added","who":["ml:dpeker"],"prob":0.9162},"fields":{},"normalizations":{"n_34":{"source":{"name":"GeoNames","id":"113892","url":null},"recName":"McMurdo Dry Valleys","confidence":{"state":"pre-added","who":["ml:dpeker"],"prob":0.9162}}}},{"classId":"e_4","part":"s6v1","offsets":[{"start":2710,"text":"McMurdo Dry Valleys"}],"coordinates":[],"confidence":{"state":"pre-added","who":["ml:dpeker"],"prob":0.9671},"fields":{},"normalizations":{"n_34":{"source":{"name":"GeoNames","id":"113892","url":null},"recName":"McMurdo Dry Valleys","confidence":{"state":"pre-added","who":["ml:dpeker"],"prob":0.9671}}}},{"classId":"e_4","part":"s6v1","offsets":[{"start":2804,"text":"McMurdo Dry Valleys"}],"coordinates":[],"confidence":{"state":"pre-added","who":["ml:dpeker"],"prob":0.9671},"fields":{},"normalizations":{"n_34":{"source":{"name":"GeoNames","id":"113892","url":null},"recName":"McMurdo Dry Valleys","confidence":{"state":"pre-added","who":["ml:dpeker"],"prob":0.9671}}}},{"classId":"e_4","part":"s6v1","offsets":[{"start":3089,"text":"McMurdo Dry Valleys"}],"coordinates":[],"confidence":{"state":"pre-added","who":["ml:dpeker"],"prob":0.9671},"fields":{},"normalizations":{"n_34":{"source":{"name":"GeoNames","id":"113892","url":null},"recName":"McMurdo Dry Valleys","confidence":{"state":"pre-added","who":["ml:dpeker"],"prob":0.9671}}}},{"classId":"e_4","part":"s6v1","offsets":[{"start":3608,"text":"Beacon Valley"}],"coordinates":[],"confidence":{"state":"pre-added","who":["ml:dpeker"],"prob":0.9472},"fields":{},"normalizations":{"n_34":{"source":{"name":"GeoNames","id":"122303","url":null},"recName":"Beacon Valley","confidence":{"state":"pre-added","who":["ml:dpeker"],"prob":0.9472}}}},{"classId":"e_2","part":"s6v1","offsets":[{"start":3774,"text":"Scottnema lindsayae"}],"coordinates":[],"confidence":{"state":"pre-added","who":["ml:dpeker"],"prob":0.9671},"fields":{},"normalizations":{"n_33":{"source":{"name":"NematodeNames","id":"Sclind","url":null},"recName":"Scottnema lindsayae","confidence":{"state":"pre-added","who":["ml:dpeker"],"prob":0.9671}}}},{"classId":"e_4","part":"s6v1","offsets":[{"start":4648,"text":"McMurdo Dry Valleys"}],"coordinates":[],"confidence":{"state":"pre-added","who":["ml:dpeker"],"prob":0.9671},"fields":{},"normalizations":{"n_34":{"source":{"name":"GeoNames","id":"113892","url":null},"recName":"McMurdo Dry Valleys","confidence":{"state":"pre-added","who":["ml:dpeker"],"prob":0.9671}}}},{"classId":"e_4","part":"s6v1","offsets":[{"start":4778,"text":"Ross Dependency"}],"coordinates":[],"confidence":{"state":"pre-added","who":["ml:dpeker"],"prob":0.9558},"fields":{},"normalizations":{"n_34":{"source":{"name":"GeoNames","id":"134188","url":null},"recName":"Ross Dependency","confidence":{"state":"pre-added","who":["ml:dpeker"],"prob":0.9558}}}},{"classId":"e_2","part":"s6v1","offsets":[{"start":5012,"text":"Scottnema lindsayae"}],"coordinates":[],"confidence":{"state":"pre-added","who":["ml:dpeker"],"prob":0.9671},"fields":{},"normalizations":{"n_33":{"source":{"name":"NematodeNames","id":"Sclind","url":null},"recName":"Scottnema lindsayae","confidence":{"state":"pre-added","who":["ml:dpeker"],"prob":0.9671}}}},{"classId":"e_4","part":"s6v1","offsets":[{"start":5715,"text":"Taylor Valley"}],"coordinates":[],"confidence":{"state":"pre-added","who":["ml:dpeker"],"prob":0.9472},"fields":{},"normalizations":{"n_34":{"source":{"name":"GeoNames","id":"132512","url":null},"recName":"Taylor Valley","confidence":{"state":"pre-added","who":["ml:dpeker"],"prob":0.9472}}}},{"classId":"e_39","part":"s6v1","offsets":[{"start":6423,"text":"Gomphiocephalus hodgsoni"}],"coordinates":[],"confidence":{"state":"pre-added","who":["ml:dpeker"],"prob":0.9754},"fields":{},"normalizations":{"n_44":{"source":{"name":"SpringtailNames","id":"Gohodg","url":null},"recName":"Gomphiocephalus hodgsoni","confidence":{"state":"pre-added","who":["ml:dpeker"],"prob":0.9754}}}},{"classId":"e_4","part":"s6v1","offsets":[{"start":6565,"text":"McMurdo Sound"}],"coordinates":[],"confidence":{"state":"pre-added","who":["ml:dpeker"],"prob":0.9472},"fields":{},"normalizations":{"n_34":{"source":{"name":"GeoNames","id":"128724","url":null},"recName":"McMurdo Sound","confidence":{"state":"pre-added","who":["ml:dpeker"],"prob":0.9472}}}},{"classId":"e_4","part":"s7v1","offsets":[{"start":368,"text":"Beardmore Glacier"}],"coordinates":[],"confidence":{"state":"pre-added","who":["ml:dpeker"],"prob":0.9622},"fields":{},"normalizations":{"n_34":{"source":{"name":"GeoNames","id":"122318","url":null},"recName":"Beardmore Glacier","confidence":{"state":"pre-added","who":["ml:dpeker"],"prob":0.9622}}}},{"classId":"e_2","part":"s7v1","offsets":[{"start":486,"text":"Scottnema lindsayae"}],"coordinates":[],"confidence":{"state":"pre-added","who":["ml:dpeker"],"prob":0.9671},"fields":{},"normalizations":{"n_33":{"source":{"name":"NematodeNames","id":"Sclind","url":null},"recName":"Scottnema lindsayae","confidence":{"state":"pre-added","who":["ml:dpeker"],"prob":0.9671}}}}],"relations":[{"classId":"r_21","type":"linked","directed":false,"entities":["s3v1|e_5|3172,3194","s3v1|e_2|2770,2781"],"confidence":{"state":"pre-added","who":["user:ICTAR"],"prob":1}},{"classId":"r_21","type":"linked","directed":false,"entities":["s4v1|e_5|3915,3937","s4v1|e_2|3806,3824"],"confidence":{"state":"pre-added","who":["user:ICTAR"],"prob":1}},{"classId":"r_21","type":"linked","directed":false,"entities":["s4v1|e_5|4003,4025","s4v1|e_2|3806,3824"],"confidence":{"state":"pre-added","who":["user:ICTAR"],"prob":1}},{"classId":"r_21","type":"linked","directed":false,"entities":["s4v1|e_5|4071,4093","s4v1|e_2|3806,3824"],"confidence":{"state":"pre-added","who":["user:ICTAR"],"prob":1}},{"classId":"r_21","type":"linked","directed":false,"entities":["s4v1|e_5|4142,4164","s4v1|e_2|3806,3824"],"confidence":{"state":"pre-added","who":["user:ICTAR"],"prob":1}},{"classId":"r_21","type":"linked","directed":false,"entities":["s4v1|e_5|4205,4227","s4v1|e_2|3806,3824"],"confidence":{"state":"pre-added","who":["user:ICTAR"],"prob":1}},{"classId":"r_21","type":"linked","directed":false,"entities":["s4v1|e_5|4276,4298","s4v1|e_2|3806,3824"],"confidence":{"state":"pre-added","who":["user:ICTAR"],"prob":1}},{"classId":"r_21","type":"linked","directed":false,"entities":["s4v1|e_5|4347,4369","s4v1|e_2|3806,3824"],"confidence":{"state":"pre-added","who":["user:ICTAR"],"prob":1}},{"classId":"r_21","type":"linked","directed":false,"entities":["s4v1|e_5|4411,4433","s4v1|e_2|3806,3824"],"confidence":{"state":"pre-added","who":["user:ICTAR"],"prob":1}},{"classId":"r_21","type":"linked","directed":false,"entities":["s4v1|e_5|4482,4504","s4v1|e_2|3806,3824"],"confidence":{"state":"pre-added","who":["user:ICTAR"],"prob":1}},{"classId":"r_21","type":"linked","directed":false,"entities":["s4v1|e_5|4546,4568","s4v1|e_2|3806,3824"],"confidence":{"state":"pre-added","who":["user:ICTAR"],"prob":1}},{"classId":"r_21","type":"linked","directed":false,"entities":["s4v1|e_5|4613,4635","s4v1|e_2|3806,3824"],"confidence":{"state":"pre-added","who":["user:ICTAR"],"prob":1}},{"classId":"r_22","type":"linked","directed":false,"entities":["s1v1|e_2|431,449","s1v1|e_4|524,547"],"confidence":{"state":"pre-added","who":["user:ICTAR"],"prob":1}},{"classId":"r_22","type":"linked","directed":false,"entities":["s1v1|e_2|911,924","s1v1|e_4|961,979"],"confidence":{"state":"pre-added","who":["user:ICTAR"],"prob":1}},{"classId":"r_22","type":"linked","directed":false,"entities":["s1v1|e_2|1745,1763","s1v1|e_4|2063,2078"],"confidence":{"state":"pre-added","who":["user:ICTAR"],"prob":1}},{"classId":"r_22","type":"linked","directed":false,"entities":["s1v1|e_2|1745,1763","s1v1|e_4|2083,2095"],"confidence":{"state":"pre-added","who":["user:ICTAR"],"prob":1}},{"classId":"r_22","type":"linked","directed":false,"entities":["s1v1|e_2|1745,1763","s1v1|e_4|2238,2249"],"confidence":{"state":"pre-added","who":["user:ICTAR"],"prob":1}},{"classId":"r_22","type":"linked","directed":false,"entities":["s2v1|e_2|977,988","s2v1|e_4|1024,1044"],"confidence":{"state":"pre-added","who":["user:ICTAR"],"prob":1}},{"classId":"r_22","type":"linked","directed":false,"entities":["s4v1|e_2|622,633","s4v1|e_4|556,572"],"confidence":{"state":"pre-added","who":["user:ICTAR"],"prob":1}},{"classId":"r_22","type":"linked","directed":false,"entities":["s4v1|e_4|738,756","s4v1|e_2|622,633"],"confidence":{"state":"pre-added","who":["user:ICTAR"],"prob":1}},{"classId":"r_22","type":"linked","directed":false,"entities":["s4v1|e_4|786,797","s4v1|e_2|622,633"],"confidence":{"state":"pre-added","who":["user:ICTAR"],"prob":1}},{"classId":"r_22","type":"linked","directed":false,"entities":["s4v1|e_4|827,840","s4v1|e_2|622,633"],"confidence":{"state":"pre-added","who":["user:ICTAR"],"prob":1}},{"classId":"r_22","type":"linked","directed":false,"entities":["s4v1|e_4|938,947","s4v1|e_2|622,633"],"confidence":{"state":"pre-added","who":["user:ICTAR"],"prob":1}},{"classId":"r_22","type":"linked","directed":false,"entities":["s5v1|e_2|519,530","s5v1|e_4|539,557"],"confidence":{"state":"pre-added","who":["user:ICTAR"],"prob":1}}]}