{"annotatable":{"parts":["s1v1","s2v1","s3v1","s4v1","s5v1","s6v1"]},"anncomplete":true,"sources":[],"metas":{"m_14":{"value":true,"confidence":{"state":"pre-added","who":["user:ICTAR"],"prob":1}},"m_16":{"value":"South Victoria Land","confidence":{"state":"pre-added","who":["user:ICTAR"],"prob":1}},"m_76":{"value":true,"confidence":{"state":"pre-added","who":["user:charlesklee"],"prob":1}}},"entities":[{"classId":"e_2","part":"s1v1","offsets":[{"start":195,"text":"Eudorylaimus antarcticus"}],"coordinates":[],"confidence":{"state":"pre-added","who":["ml:dpeker"],"prob":0.9754},"fields":{},"normalizations":{"n_33":{"source":{"name":"NematodeNames","id":"Euanta","url":null},"recName":"Eudorylaimus antarcticus","confidence":{"state":"pre-added","who":["ml:dpeker"],"prob":0.9754}}}},{"classId":"e_4","part":"s1v1","offsets":[{"start":247,"text":"Taylor Valley"}],"coordinates":[],"confidence":{"state":"pre-added","who":["ml:dpeker"],"prob":0.9472},"fields":{},"normalizations":{"n_34":{"source":{"name":"GeoNames","id":"132512","url":null},"recName":"Taylor Valley","confidence":{"state":"pre-added","who":["ml:dpeker"],"prob":0.9472}}}},{"classId":"e_4","part":"s1v1","offsets":[{"start":592,"text":"McMurdo Dry Valleys"}],"coordinates":[],"confidence":{"state":"pre-added","who":["ml:dpeker"],"prob":0.9671},"fields":{},"normalizations":{"n_34":{"source":{"name":"GeoNames","id":"113892","url":null},"recName":"McMurdo Dry Valleys","confidence":{"state":"pre-added","who":["ml:dpeker"],"prob":0.9671}}}},{"classId":"e_4","part":"s1v1","offsets":[{"start":1092,"text":"McMurdo Dry Valley"}],"coordinates":[],"confidence":{"state":"pre-added","who":["ml:dpeker"],"prob":0.914},"fields":{},"normalizations":{"n_34":{"source":{"name":"GeoNames","id":"113892","url":null},"recName":"McMurdo Dry Valleys","confidence":{"state":"pre-added","who":["ml:dpeker"],"prob":0.914}}}},{"classId":"e_4","part":"s1v1","offsets":[{"start":1414,"text":"Taylor Valley"}],"coordinates":[],"confidence":{"state":"pre-added","who":["ml:dpeker"],"prob":0.9472},"fields":{},"normalizations":{"n_34":{"source":{"name":"GeoNames","id":"132512","url":null},"recName":"Taylor Valley","confidence":{"state":"pre-added","who":["ml:dpeker"],"prob":0.9472}}}},{"classId":"e_2","part":"s1v1","offsets":[{"start":1730,"text":"Plectus murrayi"}],"coordinates":[],"confidence":{"state":"pre-added","who":["ml:dpeker"],"prob":0.9558},"fields":{},"normalizations":{"n_33":{"source":{"name":"NematodeNames","id":"Plmurr","url":null},"recName":"Plectus murrayi","confidence":{"state":"pre-added","who":["ml:dpeker"],"prob":0.9558}}}},{"classId":"e_2","part":"s1v1","offsets":[{"start":1841,"text":"Eudorylaimus antarcticus"}],"coordinates":[],"confidence":{"state":"pre-added","who":["ml:dpeker"],"prob":0.9754},"fields":{},"normalizations":{"n_33":{"source":{"name":"NematodeNames","id":"Euanta","url":null},"recName":"Eudorylaimus antarcticus","confidence":{"state":"pre-added","who":["ml:dpeker"],"prob":0.9754}}}},{"classId":"e_4","part":"s1v1","offsets":[{"start":2158,"text":"McMurdo Dry Valleys"}],"coordinates":[],"confidence":{"state":"pre-added","who":["ml:dpeker"],"prob":0.9671},"fields":{},"normalizations":{"n_34":{"source":{"name":"GeoNames","id":"113892","url":null},"recName":"McMurdo Dry Valleys","confidence":{"state":"pre-added","who":["ml:dpeker"],"prob":0.9671}}}},{"classId":"e_4","part":"s1v1","offsets":[{"start":2318,"text":"McMurdo Dry Valleys"}],"coordinates":[],"confidence":{"state":"pre-added","who":["ml:dpeker"],"prob":0.9671},"fields":{},"normalizations":{"n_34":{"source":{"name":"GeoNames","id":"113892","url":null},"recName":"McMurdo Dry Valleys","confidence":{"state":"pre-added","who":["ml:dpeker"],"prob":0.9671}}}},{"classId":"e_4","part":"s1v1","offsets":[{"start":3163,"text":"Taylor Valley"}],"coordinates":[],"confidence":{"state":"pre-added","who":["ml:dpeker"],"prob":0.9472},"fields":{},"normalizations":{"n_34":{"source":{"name":"GeoNames","id":"132512","url":null},"recName":"Taylor Valley","confidence":{"state":"pre-added","who":["ml:dpeker"],"prob":0.9472}}}},{"classId":"e_2","part":"s1v1","offsets":[{"start":3211,"text":"Scottnema lindsayae"}],"coordinates":[],"confidence":{"state":"pre-added","who":["ml:dpeker"],"prob":0.9671},"fields":{},"normalizations":{"n_33":{"source":{"name":"NematodeNames","id":"Sclind","url":null},"recName":"Scottnema lindsayae","confidence":{"state":"pre-added","who":["ml:dpeker"],"prob":0.9671}}}},{"classId":"e_2","part":"s1v1","offsets":[{"start":3232,"text":"Plectus murrayi"}],"coordinates":[],"confidence":{"state":"pre-added","who":["ml:dpeker"],"prob":0.9558},"fields":{},"normalizations":{"n_33":{"source":{"name":"NematodeNames","id":"Plmurr","url":null},"recName":"Plectus murrayi","confidence":{"state":"pre-added","who":["ml:dpeker"],"prob":0.9558}}}},{"classId":"e_2","part":"s1v1","offsets":[{"start":3249,"text":"Geo- monhystera antarcticola"}],"coordinates":[],"confidence":{"state":"pre-added","who":["ml:dpeker"],"prob":0.8852},"fields":{},"normalizations":{"n_33":{"source":{"name":"NematodeNames","id":"Geanta","url":null},"recName":"Geomonhystera antarcticola","confidence":{"state":"pre-added","who":["ml:dpeker"],"prob":0.8852}}}},{"classId":"e_2","part":"s1v1","offsets":[{"start":3283,"text":"Eudorylaimus antarcticus"}],"coordinates":[],"confidence":{"state":"pre-added","who":["ml:dpeker"],"prob":0.9754},"fields":{},"normalizations":{"n_33":{"source":{"name":"NematodeNames","id":"Euanta","url":null},"recName":"Eudorylaimus antarcticus","confidence":{"state":"pre-added","who":["ml:dpeker"],"prob":0.9754}}}},{"classId":"e_48","part":"s1v1","offsets":[{"start":3323,"text":"Acutuncus antarcticus"}],"coordinates":[{"x":"354.28","y":"645.70"},{"x":"446.82","y":"652.23"}],"confidence":{"state":"pre-added","who":["user:charlesklee"],"prob":1},"fields":{},"normalizations":{"n_51":{"source":{"name":"TardigradeNames","id":"acutan","url":null},"recName":"","confidence":{"state":"pre-added","who":["user:charlesklee"],"prob":1}}}},{"classId":"e_2","part":"s1v1","offsets":[{"start":3370,"text":"S. lindsayae"}],"coordinates":[],"confidence":{"state":"pre-added","who":["ml:dpeker"],"prob":0.9416},"fields":{},"normalizations":{"n_33":{"source":{"name":"NematodeNames","id":"Sclind","url":null},"recName":"Scottnema lindsayae","confidence":{"state":"pre-added","who":["ml:dpeker"],"prob":0.9416}}}},{"classId":"e_4","part":"s2v1","offsets":[{"start":392,"text":"Taylor Valley"}],"coordinates":[],"confidence":{"state":"pre-added","who":["ml:dpeker"],"prob":0.9472},"fields":{},"normalizations":{"n_34":{"source":{"name":"GeoNames","id":"132512","url":null},"recName":"Taylor Valley","confidence":{"state":"pre-added","who":["ml:dpeker"],"prob":0.9472}}}},{"classId":"e_2","part":"s2v1","offsets":[{"start":508,"text":"P. murrayi"}],"coordinates":[],"confidence":{"state":"pre-added","who":["ml:dpeker"],"prob":0.9266},"fields":{},"normalizations":{"n_33":{"source":{"name":"NematodeNames","id":"Plmurr","url":null},"recName":"Plectus murrayi","confidence":{"state":"pre-added","who":["ml:dpeker"],"prob":0.9266}}}},{"classId":"e_2","part":"s2v1","offsets":[{"start":726,"text":"S. lindsayae"}],"coordinates":[],"confidence":{"state":"pre-added","who":["ml:dpeker"],"prob":0.9416},"fields":{},"normalizations":{"n_33":{"source":{"name":"NematodeNames","id":"Sclind","url":null},"recName":"Scottnema lindsayae","confidence":{"state":"pre-added","who":["ml:dpeker"],"prob":0.9416}}}},{"classId":"e_2","part":"s2v1","offsets":[{"start":974,"text":"P. murrayi"}],"coordinates":[],"confidence":{"state":"pre-added","who":["ml:dpeker"],"prob":0.9266},"fields":{},"normalizations":{"n_33":{"source":{"name":"NematodeNames","id":"Plmurr","url":null},"recName":"Plectus murrayi","confidence":{"state":"pre-added","who":["ml:dpeker"],"prob":0.9266}}}},{"classId":"e_2","part":"s2v1","offsets":[{"start":986,"text":"S. lindsayae"}],"coordinates":[],"confidence":{"state":"pre-added","who":["ml:dpeker"],"prob":0.9416},"fields":{},"normalizations":{"n_33":{"source":{"name":"NematodeNames","id":"Sclind","url":null},"recName":"Scottnema lindsayae","confidence":{"state":"pre-added","who":["ml:dpeker"],"prob":0.9416}}}},{"classId":"e_2","part":"s2v1","offsets":[{"start":1004,"text":"G. antarcticola"}],"coordinates":[],"confidence":{"state":"pre-added","who":["ml:dpeker"],"prob":0.9558},"fields":{},"normalizations":{"n_33":{"source":{"name":"NematodeNames","id":"Geanta","url":null},"recName":"Geomonhystera antarcticola","confidence":{"state":"pre-added","who":["ml:dpeker"],"prob":0.9558}}}},{"classId":"e_2","part":"s2v1","offsets":[{"start":1090,"text":"E. antarcticus"}],"coordinates":[],"confidence":{"state":"pre-added","who":["ml:dpeker"],"prob":0.9518},"fields":{},"normalizations":{"n_33":{"source":{"name":"NematodeNames","id":"Euanta","url":null},"recName":"Eudorylaimus antarcticus","confidence":{"state":"pre-added","who":["ml:dpeker"],"prob":0.9518}}}},{"classId":"e_2","part":"s2v1","offsets":[{"start":1256,"text":"E. antarcticus"}],"coordinates":[],"confidence":{"state":"pre-added","who":["ml:dpeker"],"prob":0.9518},"fields":{},"normalizations":{"n_33":{"source":{"name":"NematodeNames","id":"Euanta","url":null},"recName":"Eudorylaimus antarcticus","confidence":{"state":"pre-added","who":["ml:dpeker"],"prob":0.9518}}}},{"classId":"e_2","part":"s2v1","offsets":[{"start":1412,"text":"Eudorylaimus"}],"coordinates":[],"confidence":{"state":"pre-added","who":["ml:dpeker"],"prob":0.9416},"fields":{},"normalizations":{"n_33":{"source":{"name":"NematodeNames","id":"Eudosp","url":null},"recName":"Eudorylaimus spp.","confidence":{"state":"pre-added","who":["ml:dpeker"],"prob":0.9416}}}},{"classId":"e_2","part":"s2v1","offsets":[{"start":1575,"text":"E. antarcticus"}],"coordinates":[],"confidence":{"state":"pre-added","who":["ml:dpeker"],"prob":0.9518},"fields":{},"normalizations":{"n_33":{"source":{"name":"NematodeNames","id":"Euanta","url":null},"recName":"Eudorylaimus antarcticus","confidence":{"state":"pre-added","who":["ml:dpeker"],"prob":0.9518}}}},{"classId":"e_2","part":"s2v1","offsets":[{"start":1627,"text":"E. antarcticus"}],"coordinates":[],"confidence":{"state":"pre-added","who":["ml:dpeker"],"prob":0.9518},"fields":{},"normalizations":{"n_33":{"source":{"name":"NematodeNames","id":"Euanta","url":null},"recName":"Eudorylaimus antarcticus","confidence":{"state":"pre-added","who":["ml:dpeker"],"prob":0.9518}}}},{"classId":"e_4","part":"s2v1","offsets":[{"start":1948,"text":"Taylor Valley"}],"coordinates":[],"confidence":{"state":"pre-added","who":["ml:dpeker"],"prob":0.9472},"fields":{},"normalizations":{"n_34":{"source":{"name":"GeoNames","id":"132512","url":null},"recName":"Taylor Valley","confidence":{"state":"pre-added","who":["ml:dpeker"],"prob":0.9472}}}},{"classId":"e_2","part":"s2v1","offsets":[{"start":1982,"text":"Eudorylaimus"}],"coordinates":[],"confidence":{"state":"pre-added","who":["ml:dpeker"],"prob":0.9416},"fields":{},"normalizations":{"n_33":{"source":{"name":"NematodeNames","id":"Eudosp","url":null},"recName":"Eudorylaimus spp.","confidence":{"state":"pre-added","who":["ml:dpeker"],"prob":0.9416}}}},{"classId":"e_2","part":"s2v1","offsets":[{"start":2216,"text":"Eudorylaimus"}],"coordinates":[],"confidence":{"state":"pre-added","who":["ml:dpeker"],"prob":0.9416},"fields":{},"normalizations":{"n_33":{"source":{"name":"NematodeNames","id":"Eudosp","url":null},"recName":"Eudorylaimus spp.","confidence":{"state":"pre-added","who":["ml:dpeker"],"prob":0.9416}}}},{"classId":"e_2","part":"s2v1","offsets":[{"start":2265,"text":"Eudorylaimus"}],"coordinates":[],"confidence":{"state":"pre-added","who":["ml:dpeker"],"prob":0.9416},"fields":{},"normalizations":{"n_33":{"source":{"name":"NematodeNames","id":"Eudosp","url":null},"recName":"Eudorylaimus spp.","confidence":{"state":"pre-added","who":["ml:dpeker"],"prob":0.9416}}}},{"classId":"e_2","part":"s2v1","offsets":[{"start":2365,"text":"Plectus"}],"coordinates":[],"confidence":{"state":"pre-added","who":["ml:dpeker"],"prob":0.8856},"fields":{},"normalizations":{"n_33":{"source":{"name":"NematodeNames","id":"Plecsp","url":null},"recName":"Plectus spp.","confidence":{"state":"pre-added","who":["ml:dpeker"],"prob":0.8856}}}},{"classId":"e_2","part":"s2v1","offsets":[{"start":3231,"text":"Eudorylaimus antarcticus"}],"coordinates":[],"confidence":{"state":"pre-added","who":["ml:dpeker"],"prob":0.9754},"fields":{},"normalizations":{"n_33":{"source":{"name":"NematodeNames","id":"Euanta","url":null},"recName":"Eudorylaimus antarcticus","confidence":{"state":"pre-added","who":["ml:dpeker"],"prob":0.9754}}}},{"classId":"e_4","part":"s2v1","offsets":[{"start":3733,"text":"Taylor Valley"}],"coordinates":[],"confidence":{"state":"pre-added","who":["ml:dpeker"],"prob":0.9472},"fields":{},"normalizations":{"n_34":{"source":{"name":"GeoNames","id":"132512","url":null},"recName":"Taylor Valley","confidence":{"state":"pre-added","who":["ml:dpeker"],"prob":0.9472}}}},{"classId":"e_2","part":"s2v1","offsets":[{"start":3766,"text":"P. murrayi"}],"coordinates":[],"confidence":{"state":"pre-added","who":["ml:dpeker"],"prob":0.9266},"fields":{},"normalizations":{"n_33":{"source":{"name":"NematodeNames","id":"Plmurr","url":null},"recName":"Plectus murrayi","confidence":{"state":"pre-added","who":["ml:dpeker"],"prob":0.9266}}}},{"classId":"e_2","part":"s2v1","offsets":[{"start":3782,"text":"S. lindsayae"}],"coordinates":[],"confidence":{"state":"pre-added","who":["ml:dpeker"],"prob":0.9416},"fields":{},"normalizations":{"n_33":{"source":{"name":"NematodeNames","id":"Sclind","url":null},"recName":"Scottnema lindsayae","confidence":{"state":"pre-added","who":["ml:dpeker"],"prob":0.9416}}}},{"classId":"e_48","part":"s2v1","offsets":[{"start":3812,"text":"A. antarcticus"}],"coordinates":[],"confidence":{"state":"pre-added","who":["ml:dpeker","user:ICTAR"],"prob":1},"fields":{},"normalizations":{"n_51":{"source":{"name":"TardigradeNames","id":"acutan","url":null},"recName":"","confidence":{"state":"pre-added","who":["user:charlesklee"],"prob":1}}}},{"classId":"e_2","part":"s2v1","offsets":[{"start":3887,"text":"G. antarcticola"}],"coordinates":[],"confidence":{"state":"pre-added","who":["ml:dpeker"],"prob":0.9558},"fields":{},"normalizations":{"n_33":{"source":{"name":"NematodeNames","id":"Geanta","url":null},"recName":"Geomonhystera antarcticola","confidence":{"state":"pre-added","who":["ml:dpeker"],"prob":0.9558}}}},{"classId":"e_2","part":"s2v1","offsets":[{"start":4034,"text":"P. murrayi"}],"coordinates":[],"confidence":{"state":"pre-added","who":["ml:dpeker"],"prob":0.9266},"fields":{},"normalizations":{"n_33":{"source":{"name":"NematodeNames","id":"Plmurr","url":null},"recName":"Plectus murrayi","confidence":{"state":"pre-added","who":["ml:dpeker"],"prob":0.9266}}}},{"classId":"e_2","part":"s2v1","offsets":[{"start":4046,"text":"S. lind- sayae"}],"coordinates":[],"confidence":{"state":"pre-added","who":["ml:dpeker"],"prob":0.7634},"fields":{},"normalizations":{"n_33":{"source":{"name":"NematodeNames","id":"Sclind","url":null},"recName":"Scottnema lindsayae","confidence":{"state":"pre-added","who":["ml:dpeker"],"prob":0.7634}}}},{"classId":"e_2","part":"s2v1","offsets":[{"start":4062,"text":"A. antarcticus"}],"coordinates":[],"confidence":{"state":"pre-added","who":["ml:dpeker"],"prob":0.9518},"fields":{},"normalizations":{"n_33":{"source":{"name":"NematodeNames","id":"Euanta","url":null},"recName":"Eudorylaimus antarcticus","confidence":{"state":"pre-added","who":["ml:dpeker"],"prob":0.9518}}}},{"classId":"e_2","part":"s2v1","offsets":[{"start":4203,"text":"E. antarcticus"}],"coordinates":[],"confidence":{"state":"pre-added","who":["ml:dpeker"],"prob":0.9518},"fields":{},"normalizations":{"n_33":{"source":{"name":"NematodeNames","id":"Euanta","url":null},"recName":"Eudorylaimus antarcticus","confidence":{"state":"pre-added","who":["ml:dpeker"],"prob":0.9518}}}},{"classId":"e_2","part":"s2v1","offsets":[{"start":4282,"text":"P. murrayi"}],"coordinates":[],"confidence":{"state":"pre-added","who":["ml:dpeker"],"prob":0.9266},"fields":{},"normalizations":{"n_33":{"source":{"name":"NematodeNames","id":"Plmurr","url":null},"recName":"Plectus murrayi","confidence":{"state":"pre-added","who":["ml:dpeker"],"prob":0.9266}}}},{"classId":"e_2","part":"s2v1","offsets":[{"start":4294,"text":"S. lindsayae"}],"coordinates":[],"confidence":{"state":"pre-added","who":["ml:dpeker"],"prob":0.9416},"fields":{},"normalizations":{"n_33":{"source":{"name":"NematodeNames","id":"Sclind","url":null},"recName":"Scottnema lindsayae","confidence":{"state":"pre-added","who":["ml:dpeker"],"prob":0.9416}}}},{"classId":"e_48","part":"s2v1","offsets":[{"start":4308,"text":"A. antarcticus"}],"coordinates":[],"confidence":{"state":"pre-added","who":["ml:dpeker","user:ICTAR"],"prob":1},"fields":{},"normalizations":{"n_51":{"source":{"name":"TardigradeNames","id":"acutan","url":null},"recName":"","confidence":{"state":"pre-added","who":["user:charlesklee"],"prob":1}}}},{"classId":"e_4","part":"s2v1","offsets":[{"start":4404,"text":"Taylor Valley"}],"coordinates":[],"confidence":{"state":"pre-added","who":["ml:dpeker"],"prob":0.9472},"fields":{},"normalizations":{"n_34":{"source":{"name":"GeoNames","id":"132512","url":null},"recName":"Taylor Valley","confidence":{"state":"pre-added","who":["ml:dpeker"],"prob":0.9472}}}},{"classId":"e_4","part":"s2v1","offsets":[{"start":4480,"text":"Von Guerard stream"}],"coordinates":[],"confidence":{"state":"pre-added","who":["ml:dpeker"],"prob":0.938},"fields":{},"normalizations":{"n_34":{"source":{"name":"GeoNames","id":"133312","url":null},"recName":"Von Guerard Stream","confidence":{"state":"pre-added","who":["ml:dpeker"],"prob":0.938}}}},{"classId":"e_4","part":"s2v1","offsets":[{"start":4506,"text":"Lake Fryxell"}],"coordinates":[],"confidence":{"state":"pre-added","who":["ml:dpeker"],"prob":0.9416},"fields":{},"normalizations":{"n_34":{"source":{"name":"GeoNames","id":"125440","url":null},"recName":"Fryxell, Lake","confidence":{"state":"pre-added","who":["ml:dpeker"],"prob":0.9416}}}},{"classId":"e_4","part":"s2v1","offsets":[{"start":4528,"text":"Taylor Valley"}],"coordinates":[],"confidence":{"state":"pre-added","who":["ml:dpeker"],"prob":0.9472},"fields":{},"normalizations":{"n_34":{"source":{"name":"GeoNames","id":"132512","url":null},"recName":"Taylor Valley","confidence":{"state":"pre-added","who":["ml:dpeker"],"prob":0.9472}}}},{"classId":"e_5","part":"s2v1","offsets":[{"start":4543,"text":"77.608 S, 163.254 E"}],"coordinates":[{"x":"380.25","y":"408.64"},{"x":"465.40","y":"415.26"}],"confidence":{"state":"pre-added","who":["user:ICTAR"],"prob":1},"fields":{},"normalizations":{}},{"classId":"e_4","part":"s2v1","offsets":[{"start":4619,"text":"Von Guerard stream"}],"coordinates":[],"confidence":{"state":"pre-added","who":["ml:dpeker"],"prob":0.938},"fields":{},"normalizations":{"n_34":{"source":{"name":"GeoNames","id":"133312","url":null},"recName":"Von Guerard Stream","confidence":{"state":"pre-added","who":["ml:dpeker"],"prob":0.938}}}},{"classId":"e_4","part":"s2v1","offsets":[{"start":5247,"text":"McMurdo Station"}],"coordinates":[],"confidence":{"state":"pre-added","who":["ml:dpeker"],"prob":0.9558},"fields":{},"normalizations":{"n_34":{"source":{"name":"GeoNames","id":"128725","url":null},"recName":"McMurdo Station","confidence":{"state":"pre-added","who":["ml:dpeker"],"prob":0.9558}}}},{"classId":"e_4","part":"s2v1","offsets":[{"start":5354,"text":"days"}],"coordinates":[],"confidence":{"state":"pre-added","who":["ml:dpeker"],"prob":0.4836},"fields":{},"normalizations":{"n_34":{"source":{"name":"GeoNames","id":"124046","url":null},"recName":"Dais","confidence":{"state":"pre-added","who":["ml:dpeker"],"prob":0.4836}}}},{"classId":"e_2","part":"s3v1","offsets":[{"start":1036,"text":"E. antarcticus"}],"coordinates":[],"confidence":{"state":"pre-added","who":["ml:dpeker"],"prob":0.9518},"fields":{},"normalizations":{"n_33":{"source":{"name":"NematodeNames","id":"Euanta","url":null},"recName":"Eudorylaimus antarcticus","confidence":{"state":"pre-added","who":["ml:dpeker"],"prob":0.9518}}}},{"classId":"e_2","part":"s3v1","offsets":[{"start":1145,"text":"P. murrayi"}],"coordinates":[],"confidence":{"state":"pre-added","who":["ml:dpeker"],"prob":0.9266},"fields":{},"normalizations":{"n_33":{"source":{"name":"NematodeNames","id":"Plmurr","url":null},"recName":"Plectus murrayi","confidence":{"state":"pre-added","who":["ml:dpeker"],"prob":0.9266}}}},{"classId":"e_2","part":"s3v1","offsets":[{"start":1237,"text":"S. lindsayae"}],"coordinates":[],"confidence":{"state":"pre-added","who":["ml:dpeker"],"prob":0.9416},"fields":{},"normalizations":{"n_33":{"source":{"name":"NematodeNames","id":"Sclind","url":null},"recName":"Scottnema lindsayae","confidence":{"state":"pre-added","who":["ml:dpeker"],"prob":0.9416}}}},{"classId":"e_2","part":"s3v1","offsets":[{"start":1340,"text":"A. antarcticus"}],"coordinates":[],"confidence":{"state":"pre-added","who":["ml:dpeker"],"prob":0.9518},"fields":{},"normalizations":{"n_33":{"source":{"name":"NematodeNames","id":"Euanta","url":null},"recName":"Eudorylaimus antarcticus","confidence":{"state":"pre-added","who":["ml:dpeker"],"prob":0.9518}}}},{"classId":"e_2","part":"s3v1","offsets":[{"start":1875,"text":"P. murrayi"}],"coordinates":[],"confidence":{"state":"pre-added","who":["ml:dpeker"],"prob":0.9266},"fields":{},"normalizations":{"n_33":{"source":{"name":"NematodeNames","id":"Plmurr","url":null},"recName":"Plectus murrayi","confidence":{"state":"pre-added","who":["ml:dpeker"],"prob":0.9266}}}},{"classId":"e_2","part":"s3v1","offsets":[{"start":2416,"text":"P. mur- rayi"}],"coordinates":[],"confidence":{"state":"pre-added","who":["ml:dpeker"],"prob":0.722},"fields":{},"normalizations":{"n_33":{"source":{"name":"NematodeNames","id":"Plmurr","url":null},"recName":"Plectus murrayi","confidence":{"state":"pre-added","who":["ml:dpeker"],"prob":0.722}}}},{"classId":"e_4","part":"s3v1","offsets":[{"start":2636,"text":"Von Guerard stream"}],"coordinates":[],"confidence":{"state":"pre-added","who":["ml:dpeker"],"prob":0.938},"fields":{},"normalizations":{"n_34":{"source":{"name":"GeoNames","id":"133312","url":null},"recName":"Von Guerard Stream","confidence":{"state":"pre-added","who":["ml:dpeker"],"prob":0.938}}}},{"classId":"e_2","part":"s3v1","offsets":[{"start":2672,"text":"S. lindsayae"}],"coordinates":[],"confidence":{"state":"pre-added","who":["ml:dpeker"],"prob":0.9416},"fields":{},"normalizations":{"n_33":{"source":{"name":"NematodeNames","id":"Sclind","url":null},"recName":"Scottnema lindsayae","confidence":{"state":"pre-added","who":["ml:dpeker"],"prob":0.9416}}}},{"classId":"e_2","part":"s3v1","offsets":[{"start":2686,"text":"P. murrayi"}],"coordinates":[],"confidence":{"state":"pre-added","who":["ml:dpeker"],"prob":0.9266},"fields":{},"normalizations":{"n_33":{"source":{"name":"NematodeNames","id":"Plmurr","url":null},"recName":"Plectus murrayi","confidence":{"state":"pre-added","who":["ml:dpeker"],"prob":0.9266}}}},{"classId":"e_2","part":"s3v1","offsets":[{"start":2698,"text":"E. antarcticus"}],"coordinates":[],"confidence":{"state":"pre-added","who":["ml:dpeker"],"prob":0.9518},"fields":{},"normalizations":{"n_33":{"source":{"name":"NematodeNames","id":"Euanta","url":null},"recName":"Eudorylaimus antarcticus","confidence":{"state":"pre-added","who":["ml:dpeker"],"prob":0.9518}}}},{"classId":"e_48","part":"s3v1","offsets":[{"start":2725,"text":"A. antarcticus"}],"coordinates":[{"x":"306.13","y":"495.25"},{"x":"362.83","y":"501.78"}],"confidence":{"state":"pre-added","who":["user:charlesklee"],"prob":1},"fields":{},"normalizations":{"n_51":{"source":{"name":"TardigradeNames","id":"acutan","url":null},"recName":"","confidence":{"state":"pre-added","who":["user:charlesklee"],"prob":1}}}},{"classId":"e_2","part":"s3v1","offsets":[{"start":2920,"text":"S. lindsayae"}],"coordinates":[],"confidence":{"state":"pre-added","who":["ml:dpeker"],"prob":0.9416},"fields":{},"normalizations":{"n_33":{"source":{"name":"NematodeNames","id":"Sclind","url":null},"recName":"Scottnema lindsayae","confidence":{"state":"pre-added","who":["ml:dpeker"],"prob":0.9416}}}},{"classId":"e_2","part":"s3v1","offsets":[{"start":3074,"text":"S. lind- sayae"}],"coordinates":[],"confidence":{"state":"pre-added","who":["ml:dpeker"],"prob":0.7634},"fields":{},"normalizations":{"n_33":{"source":{"name":"NematodeNames","id":"Sclind","url":null},"recName":"Scottnema lindsayae","confidence":{"state":"pre-added","who":["ml:dpeker"],"prob":0.7634}}}},{"classId":"e_2","part":"s3v1","offsets":[{"start":3175,"text":"S. lindsayae"}],"coordinates":[],"confidence":{"state":"pre-added","who":["ml:dpeker"],"prob":0.9416},"fields":{},"normalizations":{"n_33":{"source":{"name":"NematodeNames","id":"Sclind","url":null},"recName":"Scottnema lindsayae","confidence":{"state":"pre-added","who":["ml:dpeker"],"prob":0.9416}}}},{"classId":"e_48","part":"s3v1","offsets":[{"start":3554,"text":"A. antarcticus"}],"coordinates":[],"confidence":{"state":"pre-added","who":["ml:dpeker","user:ICTAR"],"prob":1},"fields":{},"normalizations":{"n_51":{"source":{"name":"TardigradeNames","id":"acutan","url":null},"recName":"","confidence":{"state":"pre-added","who":["user:charlesklee"],"prob":1}}}},{"classId":"e_2","part":"s3v1","offsets":[{"start":3579,"text":"P. murrayi"}],"coordinates":[],"confidence":{"state":"pre-added","who":["ml:dpeker"],"prob":0.9266},"fields":{},"normalizations":{"n_33":{"source":{"name":"NematodeNames","id":"Plmurr","url":null},"recName":"Plectus murrayi","confidence":{"state":"pre-added","who":["ml:dpeker"],"prob":0.9266}}}},{"classId":"e_2","part":"s3v1","offsets":[{"start":3633,"text":"E. antarcticus"}],"coordinates":[],"confidence":{"state":"pre-added","who":["ml:dpeker"],"prob":0.9518},"fields":{},"normalizations":{"n_33":{"source":{"name":"NematodeNames","id":"Euanta","url":null},"recName":"Eudorylaimus antarcticus","confidence":{"state":"pre-added","who":["ml:dpeker"],"prob":0.9518}}}},{"classId":"e_4","part":"s3v1","offsets":[{"start":3814,"text":"Von Guerard stream"}],"coordinates":[],"confidence":{"state":"pre-added","who":["ml:dpeker"],"prob":0.938},"fields":{},"normalizations":{"n_34":{"source":{"name":"GeoNames","id":"133312","url":null},"recName":"Von Guerard Stream","confidence":{"state":"pre-added","who":["ml:dpeker"],"prob":0.938}}}},{"classId":"e_4","part":"s3v1","offsets":[{"start":3840,"text":"Lake Fryxell"}],"coordinates":[],"confidence":{"state":"pre-added","who":["ml:dpeker"],"prob":0.9416},"fields":{},"normalizations":{"n_34":{"source":{"name":"GeoNames","id":"125440","url":null},"recName":"Fryxell, Lake","confidence":{"state":"pre-added","who":["ml:dpeker"],"prob":0.9416}}}},{"classId":"e_4","part":"s3v1","offsets":[{"start":3862,"text":"Taylor Valley"}],"coordinates":[],"confidence":{"state":"pre-added","who":["ml:dpeker"],"prob":0.9472},"fields":{},"normalizations":{"n_34":{"source":{"name":"GeoNames","id":"132512","url":null},"recName":"Taylor Valley","confidence":{"state":"pre-added","who":["ml:dpeker"],"prob":0.9472}}}},{"classId":"e_4","part":"s3v1","offsets":[{"start":3889,"text":"Taylor Val- ley"}],"coordinates":[],"confidence":{"state":"pre-added","who":["ml:dpeker"],"prob":0.7798},"fields":{},"normalizations":{"n_34":{"source":{"name":"GeoNames","id":"132512","url":null},"recName":"Taylor Valley","confidence":{"state":"pre-added","who":["ml:dpeker"],"prob":0.7798}}}},{"classId":"e_4","part":"s3v1","offsets":[{"start":3923,"text":"McMurdo Dry Valleys"}],"coordinates":[],"confidence":{"state":"pre-added","who":["ml:dpeker"],"prob":0.9671},"fields":{},"normalizations":{"n_34":{"source":{"name":"GeoNames","id":"113892","url":null},"recName":"McMurdo Dry Valleys","confidence":{"state":"pre-added","who":["ml:dpeker"],"prob":0.9671}}}},{"classId":"e_4","part":"s4v1","offsets":[{"start":75,"text":"Von Guerard stream"}],"coordinates":[],"confidence":{"state":"pre-added","who":["ml:dpeker"],"prob":0.938},"fields":{},"normalizations":{"n_34":{"source":{"name":"GeoNames","id":"133312","url":null},"recName":"Von Guerard Stream","confidence":{"state":"pre-added","who":["ml:dpeker"],"prob":0.938}}}},{"classId":"e_4","part":"s4v1","offsets":[{"start":201,"text":"Taylor Valley"}],"coordinates":[],"confidence":{"state":"pre-added","who":["ml:dpeker"],"prob":0.9472},"fields":{},"normalizations":{"n_34":{"source":{"name":"GeoNames","id":"132512","url":null},"recName":"Taylor Valley","confidence":{"state":"pre-added","who":["ml:dpeker"],"prob":0.9472}}}},{"classId":"e_2","part":"s4v1","offsets":[{"start":555,"text":"P. murrayi"}],"coordinates":[],"confidence":{"state":"pre-added","who":["ml:dpeker"],"prob":0.9266},"fields":{},"normalizations":{"n_33":{"source":{"name":"NematodeNames","id":"Plmurr","url":null},"recName":"Plectus murrayi","confidence":{"state":"pre-added","who":["ml:dpeker"],"prob":0.9266}}}},{"classId":"e_2","part":"s4v1","offsets":[{"start":629,"text":"P. murrayi"}],"coordinates":[],"confidence":{"state":"pre-added","who":["ml:dpeker"],"prob":0.9266},"fields":{},"normalizations":{"n_33":{"source":{"name":"NematodeNames","id":"Plmurr","url":null},"recName":"Plectus murrayi","confidence":{"state":"pre-added","who":["ml:dpeker"],"prob":0.9266}}}},{"classId":"e_48","part":"s4v1","offsets":[{"start":644,"text":"A. antarcticus"}],"coordinates":[],"confidence":{"state":"pre-added","who":["ml:dpeker","user:ICTAR"],"prob":1},"fields":{},"normalizations":{"n_51":{"source":{"name":"TardigradeNames","id":"acutan","url":null},"recName":"","confidence":{"state":"pre-added","who":["user:charlesklee"],"prob":1}}}},{"classId":"e_2","part":"s4v1","offsets":[{"start":775,"text":"P. murrayi"}],"coordinates":[],"confidence":{"state":"pre-added","who":["ml:dpeker"],"prob":0.9266},"fields":{},"normalizations":{"n_33":{"source":{"name":"NematodeNames","id":"Plmurr","url":null},"recName":"Plectus murrayi","confidence":{"state":"pre-added","who":["ml:dpeker"],"prob":0.9266}}}},{"classId":"e_2","part":"s4v1","offsets":[{"start":1195,"text":"P. murrayi"}],"coordinates":[],"confidence":{"state":"pre-added","who":["ml:dpeker"],"prob":0.9266},"fields":{},"normalizations":{"n_33":{"source":{"name":"NematodeNames","id":"Plmurr","url":null},"recName":"Plectus murrayi","confidence":{"state":"pre-added","who":["ml:dpeker"],"prob":0.9266}}}},{"classId":"e_4","part":"s4v1","offsets":[{"start":1353,"text":"McMurdo Dry Valleys"}],"coordinates":[],"confidence":{"state":"pre-added","who":["ml:dpeker"],"prob":0.9671},"fields":{},"normalizations":{"n_34":{"source":{"name":"GeoNames","id":"113892","url":null},"recName":"McMurdo Dry Valleys","confidence":{"state":"pre-added","who":["ml:dpeker"],"prob":0.9671}}}},{"classId":"e_4","part":"s4v1","offsets":[{"start":1467,"text":"Von Guerard stream"}],"coordinates":[],"confidence":{"state":"pre-added","who":["ml:dpeker"],"prob":0.938},"fields":{},"normalizations":{"n_34":{"source":{"name":"GeoNames","id":"133312","url":null},"recName":"Von Guerard Stream","confidence":{"state":"pre-added","who":["ml:dpeker"],"prob":0.938}}}},{"classId":"e_4","part":"s4v1","offsets":[{"start":1676,"text":"Taylor Valley"}],"coordinates":[],"confidence":{"state":"pre-added","who":["ml:dpeker"],"prob":0.9472},"fields":{},"normalizations":{"n_34":{"source":{"name":"GeoNames","id":"132512","url":null},"recName":"Taylor Valley","confidence":{"state":"pre-added","who":["ml:dpeker"],"prob":0.9472}}}},{"classId":"e_2","part":"s4v1","offsets":[{"start":1842,"text":"Plectus"}],"coordinates":[],"confidence":{"state":"pre-added","who":["ml:dpeker"],"prob":0.8856},"fields":{},"normalizations":{"n_33":{"source":{"name":"NematodeNames","id":"Plecsp","url":null},"recName":"Plectus spp.","confidence":{"state":"pre-added","who":["ml:dpeker"],"prob":0.8856}}}},{"classId":"e_2","part":"s4v1","offsets":[{"start":2065,"text":"P. murrayi"}],"coordinates":[],"confidence":{"state":"pre-added","who":["ml:dpeker"],"prob":0.9266},"fields":{},"normalizations":{"n_33":{"source":{"name":"NematodeNames","id":"Plmurr","url":null},"recName":"Plectus murrayi","confidence":{"state":"pre-added","who":["ml:dpeker"],"prob":0.9266}}}},{"classId":"e_2","part":"s4v1","offsets":[{"start":2149,"text":"E. ant- arcticus"}],"coordinates":[],"confidence":{"state":"pre-added","who":["ml:dpeker"],"prob":0.7942},"fields":{},"normalizations":{"n_33":{"source":{"name":"NematodeNames","id":"Euanta","url":null},"recName":"Eudorylaimus antarcticus","confidence":{"state":"pre-added","who":["ml:dpeker"],"prob":0.7942}}}},{"classId":"e_2","part":"s4v1","offsets":[{"start":2354,"text":"P. murrayi"}],"coordinates":[],"confidence":{"state":"pre-added","who":["ml:dpeker"],"prob":0.9266},"fields":{},"normalizations":{"n_33":{"source":{"name":"NematodeNames","id":"Plmurr","url":null},"recName":"Plectus murrayi","confidence":{"state":"pre-added","who":["ml:dpeker"],"prob":0.9266}}}},{"classId":"e_2","part":"s4v1","offsets":[{"start":2863,"text":"E. antarcti- cus"}],"coordinates":[],"confidence":{"state":"pre-added","who":["ml:dpeker"],"prob":0.7942},"fields":{},"normalizations":{"n_33":{"source":{"name":"NematodeNames","id":"Euanta","url":null},"recName":"Eudorylaimus antarcticus","confidence":{"state":"pre-added","who":["ml:dpeker"],"prob":0.7942}}}},{"classId":"e_4","part":"s4v1","offsets":[{"start":2964,"text":"McMurdo Dry Valleys"}],"coordinates":[],"confidence":{"state":"pre-added","who":["ml:dpeker"],"prob":0.9671},"fields":{},"normalizations":{"n_34":{"source":{"name":"GeoNames","id":"113892","url":null},"recName":"McMurdo Dry Valleys","confidence":{"state":"pre-added","who":["ml:dpeker"],"prob":0.9671}}}},{"classId":"e_2","part":"s4v1","offsets":[{"start":3029,"text":"S. lind- sayae"}],"coordinates":[],"confidence":{"state":"pre-added","who":["ml:dpeker"],"prob":0.7634},"fields":{},"normalizations":{"n_33":{"source":{"name":"NematodeNames","id":"Sclind","url":null},"recName":"Scottnema lindsayae","confidence":{"state":"pre-added","who":["ml:dpeker"],"prob":0.7634}}}},{"classId":"e_2","part":"s4v1","offsets":[{"start":3101,"text":"Scottnema lindsayae"}],"coordinates":[],"confidence":{"state":"pre-added","who":["ml:dpeker"],"prob":0.9671},"fields":{},"normalizations":{"n_33":{"source":{"name":"NematodeNames","id":"Sclind","url":null},"recName":"Scottnema lindsayae","confidence":{"state":"pre-added","who":["ml:dpeker"],"prob":0.9671}}}},{"classId":"e_4","part":"s4v1","offsets":[{"start":3424,"text":"Taylor Valley"}],"coordinates":[],"confidence":{"state":"pre-added","who":["ml:dpeker"],"prob":0.9472},"fields":{},"normalizations":{"n_34":{"source":{"name":"GeoNames","id":"132512","url":null},"recName":"Taylor Valley","confidence":{"state":"pre-added","who":["ml:dpeker"],"prob":0.9472}}}},{"classId":"e_2","part":"s4v1","offsets":[{"start":3886,"text":"Scottnema lindsayae"}],"coordinates":[],"confidence":{"state":"pre-added","who":["ml:dpeker"],"prob":0.9671},"fields":{},"normalizations":{"n_33":{"source":{"name":"NematodeNames","id":"Sclind","url":null},"recName":"Scottnema lindsayae","confidence":{"state":"pre-added","who":["ml:dpeker"],"prob":0.9671}}}},{"classId":"e_2","part":"s4v1","offsets":[{"start":3957,"text":"Plectus murrayi"}],"coordinates":[],"confidence":{"state":"pre-added","who":["ml:dpeker"],"prob":0.9558},"fields":{},"normalizations":{"n_33":{"source":{"name":"NematodeNames","id":"Plmurr","url":null},"recName":"Plectus murrayi","confidence":{"state":"pre-added","who":["ml:dpeker"],"prob":0.9558}}}},{"classId":"e_2","part":"s4v1","offsets":[{"start":4021,"text":"Eudorylaimus antarcticus"}],"coordinates":[],"confidence":{"state":"pre-added","who":["ml:dpeker"],"prob":0.9754},"fields":{},"normalizations":{"n_33":{"source":{"name":"NematodeNames","id":"Euanta","url":null},"recName":"Eudorylaimus antarcticus","confidence":{"state":"pre-added","who":["ml:dpeker"],"prob":0.9754}}}},{"classId":"e_48","part":"s4v1","offsets":[{"start":4106,"text":"Acutuncus antarcticus"}],"coordinates":[{"x":"183.71","y":"143.08"},{"x":"259.13","y":"148.63"}],"confidence":{"state":"pre-added","who":["user:ICTAR"],"prob":1},"fields":{},"normalizations":{"n_51":{"source":{"name":"TardigradeNames","id":"acutan","url":null},"recName":"","confidence":{"state":"pre-added","who":["user:charlesklee"],"prob":1}}}},{"classId":"e_4","part":"s4v1","offsets":[{"start":4313,"text":"Von Guerard stream"}],"coordinates":[],"confidence":{"state":"pre-added","who":["ml:dpeker"],"prob":0.938},"fields":{},"normalizations":{"n_34":{"source":{"name":"GeoNames","id":"133312","url":null},"recName":"Von Guerard Stream","confidence":{"state":"pre-added","who":["ml:dpeker"],"prob":0.938}}}},{"classId":"e_4","part":"s4v1","offsets":[{"start":4335,"text":"Taylor Valley"}],"coordinates":[],"confidence":{"state":"pre-added","who":["ml:dpeker"],"prob":0.9472},"fields":{},"normalizations":{"n_34":{"source":{"name":"GeoNames","id":"132512","url":null},"recName":"Taylor Valley","confidence":{"state":"pre-added","who":["ml:dpeker"],"prob":0.9472}}}},{"classId":"e_2","part":"s5v1","offsets":[{"start":343,"text":"E. antarcticus"}],"coordinates":[],"confidence":{"state":"pre-added","who":["ml:dpeker"],"prob":0.9518},"fields":{},"normalizations":{"n_33":{"source":{"name":"NematodeNames","id":"Euanta","url":null},"recName":"Eudorylaimus antarcticus","confidence":{"state":"pre-added","who":["ml:dpeker"],"prob":0.9518}}}},{"classId":"e_2","part":"s5v1","offsets":[{"start":533,"text":"S. lindsayae"}],"coordinates":[],"confidence":{"state":"pre-added","who":["ml:dpeker"],"prob":0.9416},"fields":{},"normalizations":{"n_33":{"source":{"name":"NematodeNames","id":"Sclind","url":null},"recName":"Scottnema lindsayae","confidence":{"state":"pre-added","who":["ml:dpeker"],"prob":0.9416}}}},{"classId":"e_2","part":"s5v1","offsets":[{"start":551,"text":"E. antarcticus"}],"coordinates":[],"confidence":{"state":"pre-added","who":["ml:dpeker"],"prob":0.9518},"fields":{},"normalizations":{"n_33":{"source":{"name":"NematodeNames","id":"Euanta","url":null},"recName":"Eudorylaimus antarcticus","confidence":{"state":"pre-added","who":["ml:dpeker"],"prob":0.9518}}}},{"classId":"e_47","part":"s5v1","offsets":[{"start":875,"text":"Around 95% of the McMurdo Dry Valleys region is considered dry soil habitat (≤ 2% gravimetric water content), which is most suit- able for the dominant nematode, bacterivore S. lindsayae. While E. antarcticus are present in low abundance in dry soil habitat, many are found in moist or wet soils."}],"coordinates":[{"x":"236.85","y":"457.66"},{"x":"255.23","y":"526.78"}],"confidence":{"state":"pre-added","who":["user:ICTAR"],"prob":1},"fields":{},"normalizations":{}},{"classId":"e_4","part":"s5v1","offsets":[{"start":893,"text":"McMurdo Dry Valleys"}],"coordinates":[],"confidence":{"state":"pre-added","who":["ml:dpeker"],"prob":0.9671},"fields":{},"normalizations":{"n_34":{"source":{"name":"GeoNames","id":"113892","url":null},"recName":"McMurdo Dry Valleys","confidence":{"state":"pre-added","who":["ml:dpeker"],"prob":0.9671}}}},{"classId":"e_2","part":"s5v1","offsets":[{"start":1049,"text":"S. lindsayae"}],"coordinates":[],"confidence":{"state":"pre-added","who":["ml:dpeker"],"prob":0.9416},"fields":{},"normalizations":{"n_33":{"source":{"name":"NematodeNames","id":"Sclind","url":null},"recName":"Scottnema lindsayae","confidence":{"state":"pre-added","who":["ml:dpeker"],"prob":0.9416}}}},{"classId":"e_2","part":"s5v1","offsets":[{"start":1069,"text":"E. antarcticus"}],"coordinates":[],"confidence":{"state":"pre-added","who":["ml:dpeker"],"prob":0.9518},"fields":{},"normalizations":{"n_33":{"source":{"name":"NematodeNames","id":"Euanta","url":null},"recName":"Eudorylaimus antarcticus","confidence":{"state":"pre-added","who":["ml:dpeker"],"prob":0.9518}}}},{"classId":"e_4","part":"s5v1","offsets":[{"start":1189,"text":"McMurdo Dry Valleys"}],"coordinates":[],"confidence":{"state":"pre-added","who":["ml:dpeker"],"prob":0.9671},"fields":{},"normalizations":{"n_34":{"source":{"name":"GeoNames","id":"113892","url":null},"recName":"McMurdo Dry Valleys","confidence":{"state":"pre-added","who":["ml:dpeker"],"prob":0.9671}}}},{"classId":"e_2","part":"s5v1","offsets":[{"start":1271,"text":"E. antarcticus"}],"coordinates":[],"confidence":{"state":"pre-added","who":["ml:dpeker"],"prob":0.9518},"fields":{},"normalizations":{"n_33":{"source":{"name":"NematodeNames","id":"Euanta","url":null},"recName":"Eudorylaimus antarcticus","confidence":{"state":"pre-added","who":["ml:dpeker"],"prob":0.9518}}}},{"classId":"e_4","part":"s5v1","offsets":[{"start":1337,"text":"McMurdo Dry Val- leys"}],"coordinates":[],"confidence":{"state":"pre-added","who":["ml:dpeker"],"prob":0.8451},"fields":{},"normalizations":{"n_34":{"source":{"name":"GeoNames","id":"113892","url":null},"recName":"McMurdo Dry Valleys","confidence":{"state":"pre-added","who":["ml:dpeker"],"prob":0.8451}}}},{"classId":"e_4","part":"s5v1","offsets":[{"start":2488,"text":"McMurdo Dry Valleys"}],"coordinates":[],"confidence":{"state":"pre-added","who":["ml:dpeker"],"prob":0.9671},"fields":{},"normalizations":{"n_34":{"source":{"name":"GeoNames","id":"113892","url":null},"recName":"McMurdo Dry Valleys","confidence":{"state":"pre-added","who":["ml:dpeker"],"prob":0.9671}}}},{"classId":"e_4","part":"s5v1","offsets":[{"start":2760,"text":"McMurdo Dry Valleys"}],"coordinates":[],"confidence":{"state":"pre-added","who":["ml:dpeker"],"prob":0.9671},"fields":{},"normalizations":{"n_34":{"source":{"name":"GeoNames","id":"113892","url":null},"recName":"McMurdo Dry Valleys","confidence":{"state":"pre-added","who":["ml:dpeker"],"prob":0.9671}}}},{"classId":"e_2","part":"s5v1","offsets":[{"start":3769,"text":"Plectus murrayi"}],"coordinates":[],"confidence":{"state":"pre-added","who":["ml:dpeker"],"prob":0.9558},"fields":{},"normalizations":{"n_33":{"source":{"name":"NematodeNames","id":"Plmurr","url":null},"recName":"Plectus murrayi","confidence":{"state":"pre-added","who":["ml:dpeker"],"prob":0.9558}}}},{"classId":"e_4","part":"s5v1","offsets":[{"start":4220,"text":"McMurdo Dry Valleys"}],"coordinates":[],"confidence":{"state":"pre-added","who":["ml:dpeker"],"prob":0.9671},"fields":{},"normalizations":{"n_34":{"source":{"name":"GeoNames","id":"113892","url":null},"recName":"McMurdo Dry Valleys","confidence":{"state":"pre-added","who":["ml:dpeker"],"prob":0.9671}}}},{"classId":"e_4","part":"s5v1","offsets":[{"start":4674,"text":"Taylor Valley"}],"coordinates":[],"confidence":{"state":"pre-added","who":["ml:dpeker"],"prob":0.9472},"fields":{},"normalizations":{"n_34":{"source":{"name":"GeoNames","id":"132512","url":null},"recName":"Taylor Valley","confidence":{"state":"pre-added","who":["ml:dpeker"],"prob":0.9472}}}},{"classId":"e_4","part":"s5v1","offsets":[{"start":4835,"text":"Taylor Valley"}],"coordinates":[],"confidence":{"state":"pre-added","who":["ml:dpeker"],"prob":0.9472},"fields":{},"normalizations":{"n_34":{"source":{"name":"GeoNames","id":"132512","url":null},"recName":"Taylor Valley","confidence":{"state":"pre-added","who":["ml:dpeker"],"prob":0.9472}}}},{"classId":"e_4","part":"s5v1","offsets":[{"start":5073,"text":"McMurdo Dry Valleys"}],"coordinates":[],"confidence":{"state":"pre-added","who":["ml:dpeker"],"prob":0.9671},"fields":{},"normalizations":{"n_34":{"source":{"name":"GeoNames","id":"113892","url":null},"recName":"McMurdo Dry Valleys","confidence":{"state":"pre-added","who":["ml:dpeker"],"prob":0.9671}}}},{"classId":"e_4","part":"s5v1","offsets":[{"start":5257,"text":"Von Guerard stream"}],"coordinates":[],"confidence":{"state":"pre-added","who":["ml:dpeker"],"prob":0.938},"fields":{},"normalizations":{"n_34":{"source":{"name":"GeoNames","id":"133312","url":null},"recName":"Von Guerard Stream","confidence":{"state":"pre-added","who":["ml:dpeker"],"prob":0.938}}}},{"classId":"e_4","part":"s5v1","offsets":[{"start":5279,"text":"Taylor Valley"}],"coordinates":[],"confidence":{"state":"pre-added","who":["ml:dpeker"],"prob":0.9472},"fields":{},"normalizations":{"n_34":{"source":{"name":"GeoNames","id":"132512","url":null},"recName":"Taylor Valley","confidence":{"state":"pre-added","who":["ml:dpeker"],"prob":0.9472}}}},{"classId":"e_2","part":"s6v1","offsets":[{"start":454,"text":"Plectus murrayi"}],"coordinates":[],"confidence":{"state":"pre-added","who":["ml:dpeker"],"prob":0.9558},"fields":{},"normalizations":{"n_33":{"source":{"name":"NematodeNames","id":"Plmurr","url":null},"recName":"Plectus murrayi","confidence":{"state":"pre-added","who":["ml:dpeker"],"prob":0.9558}}}},{"classId":"e_4","part":"s6v1","offsets":[{"start":827,"text":"Taylor Valley"}],"coordinates":[],"confidence":{"state":"pre-added","who":["ml:dpeker"],"prob":0.9472},"fields":{},"normalizations":{"n_34":{"source":{"name":"GeoNames","id":"132512","url":null},"recName":"Taylor Valley","confidence":{"state":"pre-added","who":["ml:dpeker"],"prob":0.9472}}}},{"classId":"e_4","part":"s6v1","offsets":[{"start":974,"text":"McMurdo Dry Valleys"}],"coordinates":[],"confidence":{"state":"pre-added","who":["ml:dpeker"],"prob":0.9671},"fields":{},"normalizations":{"n_34":{"source":{"name":"GeoNames","id":"113892","url":null},"recName":"McMurdo Dry Valleys","confidence":{"state":"pre-added","who":["ml:dpeker"],"prob":0.9671}}}},{"classId":"e_4","part":"s6v1","offsets":[{"start":2855,"text":"McMurdo Dry Valleys"}],"coordinates":[],"confidence":{"state":"pre-added","who":["ml:dpeker"],"prob":0.9671},"fields":{},"normalizations":{"n_34":{"source":{"name":"GeoNames","id":"113892","url":null},"recName":"McMurdo Dry Valleys","confidence":{"state":"pre-added","who":["ml:dpeker"],"prob":0.9671}}}},{"classId":"e_2","part":"s6v1","offsets":[{"start":3244,"text":"Eudorylaimus"}],"coordinates":[],"confidence":{"state":"pre-added","who":["ml:dpeker"],"prob":0.9416},"fields":{},"normalizations":{"n_33":{"source":{"name":"NematodeNames","id":"Eudosp","url":null},"recName":"Eudorylaimus spp.","confidence":{"state":"pre-added","who":["ml:dpeker"],"prob":0.9416}}}},{"classId":"e_2","part":"s6v1","offsets":[{"start":3845,"text":"Scottnema lindsayae"}],"coordinates":[],"confidence":{"state":"pre-added","who":["ml:dpeker"],"prob":0.9671},"fields":{},"normalizations":{"n_33":{"source":{"name":"NematodeNames","id":"Sclind","url":null},"recName":"Scottnema lindsayae","confidence":{"state":"pre-added","who":["ml:dpeker"],"prob":0.9671}}}},{"classId":"e_4","part":"s6v1","offsets":[{"start":4249,"text":"Taylor Valley"}],"coordinates":[],"confidence":{"state":"pre-added","who":["ml:dpeker"],"prob":0.9472},"fields":{},"normalizations":{"n_34":{"source":{"name":"GeoNames","id":"132512","url":null},"recName":"Taylor Valley","confidence":{"state":"pre-added","who":["ml:dpeker"],"prob":0.9472}}}},{"classId":"e_2","part":"s6v1","offsets":[{"start":5252,"text":"Eudorylaimus"}],"coordinates":[],"confidence":{"state":"pre-added","who":["ml:dpeker"],"prob":0.9416},"fields":{},"normalizations":{"n_33":{"source":{"name":"NematodeNames","id":"Eudosp","url":null},"recName":"Eudorylaimus spp.","confidence":{"state":"pre-added","who":["ml:dpeker"],"prob":0.9416}}}},{"classId":"e_4","part":"s6v1","offsets":[{"start":5734,"text":"McMurdo Dry Valleys"}],"coordinates":[],"confidence":{"state":"pre-added","who":["ml:dpeker"],"prob":0.9671},"fields":{},"normalizations":{"n_34":{"source":{"name":"GeoNames","id":"113892","url":null},"recName":"McMurdo Dry Valleys","confidence":{"state":"pre-added","who":["ml:dpeker"],"prob":0.9671}}}}],"relations":[{"classId":"r_21","type":"linked","directed":false,"entities":["s2v1|e_5|4543,4561","s2v1|e_2|3766,3775"],"confidence":{"state":"pre-added","who":["user:ICTAR"],"prob":1}},{"classId":"r_21","type":"linked","directed":false,"entities":["s2v1|e_5|4543,4561","s2v1|e_2|3782,3793"],"confidence":{"state":"pre-added","who":["user:ICTAR"],"prob":1}},{"classId":"r_21","type":"linked","directed":false,"entities":["s2v1|e_5|4543,4561","s2v1|e_2|3887,3901"],"confidence":{"state":"pre-added","who":["user:ICTAR"],"prob":1}},{"classId":"r_21","type":"linked","directed":false,"entities":["s2v1|e_5|4543,4561","s2v1|e_2|4203,4216"],"confidence":{"state":"pre-added","who":["user:ICTAR"],"prob":1}},{"classId":"r_22","type":"linked","directed":false,"entities":["s1v1|e_2|3211,3229","s1v1|e_4|3163,3175"],"confidence":{"state":"pre-added","who":["user:ICTAR"],"prob":1}},{"classId":"r_22","type":"linked","directed":false,"entities":["s1v1|e_2|3232,3246","s1v1|e_4|3163,3175"],"confidence":{"state":"pre-added","who":["user:ICTAR"],"prob":1}},{"classId":"r_22","type":"linked","directed":false,"entities":["s1v1|e_2|3249,3276","s1v1|e_4|3163,3175"],"confidence":{"state":"pre-added","who":["user:ICTAR"],"prob":1}},{"classId":"r_22","type":"linked","directed":false,"entities":["s1v1|e_2|3283,3306","s1v1|e_4|3163,3175"],"confidence":{"state":"pre-added","who":["user:ICTAR"],"prob":1}},{"classId":"r_22","type":"linked","directed":false,"entities":["s2v1|e_2|508,517","s2v1|e_4|392,404"],"confidence":{"state":"pre-added","who":["user:ICTAR"],"prob":1}},{"classId":"r_22","type":"linked","directed":false,"entities":["s2v1|e_4|3733,3745","s2v1|e_2|3766,3775"],"confidence":{"state":"pre-added","who":["user:ICTAR"],"prob":1}},{"classId":"r_22","type":"linked","directed":false,"entities":["s2v1|e_2|3782,3793","s2v1|e_4|3733,3745"],"confidence":{"state":"pre-added","who":["user:ICTAR"],"prob":1}},{"classId":"r_22","type":"linked","directed":false,"entities":["s2v1|e_2|3887,3901","s2v1|e_4|3733,3745"],"confidence":{"state":"pre-added","who":["user:ICTAR"],"prob":1}},{"classId":"r_22","type":"linked","directed":false,"entities":["s3v1|e_2|2672,2683","s3v1|e_4|2636,2653"],"confidence":{"state":"pre-added","who":["user:ICTAR"],"prob":1}},{"classId":"r_22","type":"linked","directed":false,"entities":["s3v1|e_2|2686,2695","s3v1|e_4|2636,2653"],"confidence":{"state":"pre-added","who":["user:ICTAR"],"prob":1}},{"classId":"r_22","type":"linked","directed":false,"entities":["s3v1|e_2|2698,2711","s3v1|e_4|2636,2653"],"confidence":{"state":"pre-added","who":["user:ICTAR"],"prob":1}},{"classId":"r_22","type":"linked","directed":false,"entities":["s4v1|e_2|3886,3904","s4v1|e_4|3424,3436"],"confidence":{"state":"pre-added","who":["user:ICTAR"],"prob":1}},{"classId":"r_22","type":"linked","directed":false,"entities":["s4v1|e_2|3957,3971","s4v1|e_4|3424,3436"],"confidence":{"state":"pre-added","who":["user:ICTAR"],"prob":1}},{"classId":"r_22","type":"linked","directed":false,"entities":["s4v1|e_2|4021,4044","s4v1|e_4|3424,3436"],"confidence":{"state":"pre-added","who":["user:ICTAR"],"prob":1}},{"classId":"r_22","type":"linked","directed":false,"entities":["s5v1|e_4|893,911","s5v1|e_2|1049,1060"],"confidence":{"state":"pre-added","who":["user:ICTAR"],"prob":1}},{"classId":"r_22","type":"linked","directed":false,"entities":["s5v1|e_4|893,911","s5v1|e_2|1069,1082"],"confidence":{"state":"pre-added","who":["user:ICTAR"],"prob":1}},{"classId":"r_58","type":"linked","directed":false,"entities":["s2v1|e_48|3812,3825","s2v1|e_4|3733,3745"],"confidence":{"state":"pre-added","who":["user:ICTAR"],"prob":1}},{"classId":"r_62","type":"linked","directed":false,"entities":["s2v1|e_5|4543,4561","s2v1|e_48|3812,3825"],"confidence":{"state":"pre-added","who":["user:ICTAR"],"prob":1}}]}