{"annotatable":{"parts":["s1v1","s2v1","s3v1","s4v1","s5v1","s6v1","s7v1","s8v1","s9v1","s10v1","s11v1","s12v1","s13v1","s14v1","s15v1","s16v1","s17v1","s18v1","s19v1","s20v1","s21v1","s22v1","s23v1","s24v1","s25v1","s26v1","s27v1","s28v1","s29v1","s30v1","s31v1","s32v1","s33v1","s34v1","s35v1","s36v1","s37v1","s38v1","s39v1","s40v1","s41v1","s42v1","s43v1","s44v1","s45v1","s46v1","s47v1","s48v1","s49v1","s50v1","s51v1","s52v1","s53v1","s54v1","s55v1","s56v1","s57v1","s58v1","s59v1","s60v1","s61v1","s62v1","s63v1","s64v1","s65v1","s66v1","s67v1","s68v1","s69v1","s70v1","s71v1","s72v1","s73v1","s74v1","s75v1","s76v1","s77v1","s78v1","s79v1","s80v1","s81v1","s82v1","s83v1","s84v1","s85v1","s86v1","s87v1","s88v1","s89v1","s90v1","s91v1","s92v1","s93v1","s94v1","s95v1","s96v1","s97v1","s98v1","s99v1","s100v1"]},"anncomplete":true,"sources":[],"metas":{"m_76":{"value":false,"confidence":{"state":"pre-added","who":["user:ICTAR"],"prob":1}},"m_14":{"value":false,"confidence":{"state":"pre-added","who":["user:ICTAR"],"prob":1}},"m_16":{"value":"Antarctica","confidence":{"state":"pre-added","who":["user:ICTAR"],"prob":1}}},"entities":[{"classId":"e_4","part":"s4v1","offsets":[{"start":1874,"text":"Balleny islands"}],"coordinates":[],"confidence":{"state":"pre-added","who":["ml:dpeker"],"prob":0.924},"fields":{},"normalizations":{"n_34":{"source":{"name":"GeoNamesSCAR","id":"122160","url":null},"recName":"Balleny Islands","confidence":{"state":"pre-added","who":["ml:dpeker"],"prob":0.924}}}},{"classId":"e_4","part":"s5v1","offsets":[{"start":1784,"text":"Scott) coast"}],"coordinates":[],"confidence":{"state":"pre-added","who":["ml:dpeker"],"prob":0.8453},"fields":{},"normalizations":{"n_34":{"source":{"name":"GeoNamesSCAR","id":"131331","url":null},"recName":"Scott Coast","confidence":{"state":"pre-added","who":["ml:dpeker"],"prob":0.8453}}}},{"classId":"e_38","part":"s17v1","offsets":[{"start":1577,"text":"Nanorchestes sp"}],"coordinates":[],"confidence":{"state":"pre-added","who":["ml:dpeker"],"prob":0.917},"fields":{},"normalizations":{"n_43":{"source":{"name":"MiteNames","id":"Nanosp","url":null},"recName":"Nanorchestes sp.","confidence":{"state":"pre-added","who":["ml:dpeker"],"prob":0.917}}}},{"classId":"e_38","part":"s17v1","offsets":[{"start":1676,"text":"Nanorchestes sp"}],"coordinates":[],"confidence":{"state":"pre-added","who":["ml:dpeker"],"prob":0.917},"fields":{},"normalizations":{"n_43":{"source":{"name":"MiteNames","id":"Nanosp","url":null},"recName":"Nanorchestes sp.","confidence":{"state":"pre-added","who":["ml:dpeker"],"prob":0.917}}}},{"classId":"e_38","part":"s17v1","offsets":[{"start":1760,"text":"Nanorchestes sp"}],"coordinates":[],"confidence":{"state":"pre-added","who":["ml:dpeker"],"prob":0.917},"fields":{},"normalizations":{"n_43":{"source":{"name":"MiteNames","id":"Nanosp","url":null},"recName":"Nanorchestes sp.","confidence":{"state":"pre-added","who":["ml:dpeker"],"prob":0.917}}}},{"classId":"e_38","part":"s18v1","offsets":[{"start":39,"text":"Nanorchestes sp"}],"coordinates":[],"confidence":{"state":"pre-added","who":["ml:dpeker"],"prob":0.917},"fields":{},"normalizations":{"n_43":{"source":{"name":"MiteNames","id":"Nanosp","url":null},"recName":"Nanorchestes sp.","confidence":{"state":"pre-added","who":["ml:dpeker"],"prob":0.917}}}},{"classId":"e_38","part":"s21v1","offsets":[{"start":470,"text":"Stereotydeus mollis"}],"coordinates":[],"confidence":{"state":"pre-added","who":["ml:dpeker"],"prob":0.9671},"fields":{},"normalizations":{"n_43":{"source":{"name":"MiteNames","id":"Stmoll","url":null},"recName":"Stereotydeus mollis","confidence":{"state":"pre-added","who":["ml:dpeker"],"prob":0.9671}}}},{"classId":"e_38","part":"s21v1","offsets":[{"start":909,"text":"Stereotydeus punctatus"}],"coordinates":[],"confidence":{"state":"pre-added","who":["ml:dpeker"],"prob":0.9726},"fields":{},"normalizations":{"n_43":{"source":{"name":"MiteNames","id":"Stpunc","url":null},"recName":"Stereotydeus punctatus","confidence":{"state":"pre-added","who":["ml:dpeker"],"prob":0.9726}}}},{"classId":"e_38","part":"s22v1","offsets":[{"start":162,"text":"Coccorhagidia gressitti"}],"coordinates":[],"confidence":{"state":"pre-added","who":["ml:dpeker"],"prob":0.9741},"fields":{},"normalizations":{"n_43":{"source":{"name":"MiteNames","id":"Cogres","url":null},"recName":"Coccorhagidia gressitti","confidence":{"state":"pre-added","who":["ml:dpeker"],"prob":0.9741}}}},{"classId":"e_38","part":"s35v1","offsets":[{"start":150,"text":"Tydeus setsukoae"}],"coordinates":[],"confidence":{"state":"pre-added","who":["ml:dpeker"],"prob":0.9592},"fields":{},"normalizations":{"n_43":{"source":{"name":"MiteNames","id":"Tysets","url":null},"recName":"Tydeus setsukoae","confidence":{"state":"pre-added","who":["ml:dpeker"],"prob":0.9592}}}},{"classId":"e_38","part":"s35v1","offsets":[{"start":299,"text":"Tydeus wadei"}],"coordinates":[],"confidence":{"state":"pre-added","who":["ml:dpeker"],"prob":0.9416},"fields":{},"normalizations":{"n_43":{"source":{"name":"MiteNames","id":"Tywade","url":null},"recName":"Tydeus wadei","confidence":{"state":"pre-added","who":["ml:dpeker"],"prob":0.9416}}}},{"classId":"e_38","part":"s49v1","offsets":[{"start":938,"text":"Maudheimia petronia"}],"coordinates":[],"confidence":{"state":"pre-added","who":["ml:dpeker"],"prob":0.9671},"fields":{},"normalizations":{"n_43":{"source":{"name":"MiteNames","id":"Mapetr","url":null},"recName":"Maudheimia petronia","confidence":{"state":"pre-added","who":["ml:dpeker"],"prob":0.9671}}}},{"classId":"e_4","part":"s50v1","offsets":[{"start":1372,"text":"rotunda"}],"coordinates":[],"confidence":{"state":"pre-added","who":["ml:dpeker"],"prob":0.8224},"fields":{},"normalizations":{"n_34":{"source":{"name":"GeoNamesSCAR","id":"130976","url":null},"recName":"Rotunda","confidence":{"state":"pre-added","who":["ml:dpeker"],"prob":0.8224}}}},{"classId":"e_4","part":"s50v1","offsets":[{"start":1408,"text":"rotunda"}],"coordinates":[],"confidence":{"state":"pre-added","who":["ml:dpeker"],"prob":0.8224},"fields":{},"normalizations":{"n_34":{"source":{"name":"GeoNamesSCAR","id":"130976","url":null},"recName":"Rotunda","confidence":{"state":"pre-added","who":["ml:dpeker"],"prob":0.8224}}}},{"classId":"e_4","part":"s90v1","offsets":[{"start":1180,"text":"rotunda"}],"coordinates":[],"confidence":{"state":"pre-added","who":["ml:dpeker"],"prob":0.8224},"fields":{},"normalizations":{"n_34":{"source":{"name":"GeoNamesSCAR","id":"130976","url":null},"recName":"Rotunda","confidence":{"state":"pre-added","who":["ml:dpeker"],"prob":0.8224}}}},{"classId":"e_4","part":"s95v1","offsets":[{"start":1288,"text":"Hallett Station"}],"coordinates":[],"confidence":{"state":"pre-added","who":["ml:dpeker"],"prob":0.9558},"fields":{},"normalizations":{"n_34":{"source":{"name":"GeoNamesSCAR","id":"113459","url":null},"recName":"Hallett Station","confidence":{"state":"pre-added","who":["ml:dpeker"],"prob":0.9558}}}},{"classId":"e_4","part":"s97v1","offsets":[{"start":1934,"text":"Hallett Station"}],"coordinates":[],"confidence":{"state":"pre-added","who":["ml:dpeker"],"prob":0.9558},"fields":{},"normalizations":{"n_34":{"source":{"name":"GeoNamesSCAR","id":"113459","url":null},"recName":"Hallett Station","confidence":{"state":"pre-added","who":["ml:dpeker"],"prob":0.9558}}}},{"classId":"e_4","part":"s98v1","offsets":[{"start":809,"text":"Possession Island"}],"coordinates":[],"confidence":{"state":"pre-added","who":["ml:dpeker"],"prob":0.9622},"fields":{},"normalizations":{"n_34":{"source":{"name":"GeoNamesSCAR","id":"130286","url":null},"recName":"Possession Island","confidence":{"state":"pre-added","who":["ml:dpeker"],"prob":0.9622}}}},{"classId":"e_38","part":"s99v1","offsets":[{"start":1676,"text":"Maudheimia petronia"}],"coordinates":[],"confidence":{"state":"pre-added","who":["ml:dpeker"],"prob":0.9671},"fields":{},"normalizations":{"n_43":{"source":{"name":"MiteNames","id":"Mapetr","url":null},"recName":"Maudheimia petronia","confidence":{"state":"pre-added","who":["ml:dpeker"],"prob":0.9671}}}},{"classId":"e_4","part":"s100v1","offsets":[{"start":1451,"text":"Blue Glacier"}],"coordinates":[],"confidence":{"state":"pre-added","who":["ml:dpeker"],"prob":0.9416},"fields":{},"normalizations":{"n_34":{"source":{"name":"GeoNamesSCAR","id":"112824","url":null},"recName":"Blue Glacier","confidence":{"state":"pre-added","who":["ml:dpeker"],"prob":0.9416}}}}],"relations":[]}